Timestamp_cmd,imu_cmd,roll_delta,pitch_delta,yaw_delta,voice_type,voice_length
2023-03-14 18:06:05:769,0,-6.66386,-3.55972,68.7765,Q,Q
2023-03-14 18:06:05:777,0,-6.67848,-3.56143,68.7695,Q,Q
2023-03-14 18:06:05:787,0,-6.6967,-3.56659,68.7658,Q,Q
2023-03-14 18:06:05:797,0,-6.71419,-3.57107,68.7653,Q,Q
2023-03-14 18:06:05:808,0,-6.73224,-3.57372,68.7673,Q,Q
2023-03-14 18:06:05:818,0,-6.74902,-3.57395,68.7672,Q,Q
2023-03-14 18:06:05:827,0,-6.75385,-3.5712,68.7733,Q,Q
2023-03-14 18:06:05:837,0,-6.75624,-3.56541,68.7808,Q,Q
2023-03-14 18:06:05:847,0,-6.75075,-3.55653,68.7881,Q,Q
2023-03-14 18:06:05:857,0,-6.74736,-3.55269,68.7951,Q,Q
2023-03-14 18:06:05:867,0,-6.73975,-3.54605,68.8024,Q,Q
2023-03-14 18:06:05:877,0,-6.72895,-3.54178,68.8128,Q,Q
2023-03-14 18:06:05:888,0,-6.71472,-3.53136,68.8197,Q,Q
2023-03-14 18:06:05:898,0,-6.69942,-3.5194,68.8188,Q,Q
2023-03-14 18:06:05:907,0,-6.68072,-3.509,68.815,Q,Q
2023-03-14 18:06:05:917,0,-6.66366,-3.49499,68.8058,Q,Q
2023-03-14 18:06:05:927,0,-6.6483,-3.47894,68.7919,Q,Q
2023-03-14 18:06:05:937,0,-6.63388,-3.4636,68.7692,Q,Q
2023-03-14 18:06:05:947,0,-6.61471,-3.44285,68.7436,Q,Q
2023-03-14 18:06:05:957,0,-6.59363,-3.4157,68.7094,Q,Q
2023-03-14 18:06:05:968,0,-6.57458,-3.39211,68.6721,Q,Q
2023-03-14 18:06:05:977,0,-6.56351,-3.36996,68.6357,Q,Q
2023-03-14 18:06:05:987,0,-6.56139,-3.3464,68.5975,Q,Q
2023-03-14 18:06:05:997,0,-6.56095,-3.32565,68.5579,Q,Q
2023-03-14 18:06:06:8,0,-6.56538,-3.30536,68.5262,Q,Q
2023-03-14 18:06:06:18,0,-6.57555,-3.28749,68.4988,Q,Q
2023-03-14 18:06:06:28,0,-6.58642,-3.27159,68.4783,Q,Q
2023-03-14 18:06:06:37,0,-6.6027,-3.25561,68.4593,Q,Q
2023-03-14 18:06:06:48,0,-6.61991,-3.24821,68.4491,Q,Q
2023-03-14 18:06:06:58,0,-6.63453,-3.24172,68.4386,Q,Q
2023-03-14 18:06:06:67,0,-6.64719,-3.23949,68.4324,Q,Q
2023-03-14 18:06:06:78,0,-6.65998,-3.23537,68.4255,Q,Q
2023-03-14 18:06:06:88,0,-6.67455,-3.23621,68.4206,Q,Q
2023-03-14 18:06:06:97,0,-6.69215,-3.23977,68.42,Q,Q
2023-03-14 18:06:06:107,0,-6.70677,-3.25216,68.4195,Q,Q
2023-03-14 18:06:06:117,0,-6.71939,-3.26518,68.4214,Q,Q
2023-03-14 18:06:06:127,0,-6.72509,-3.27682,68.4245,Q,Q
2023-03-14 18:06:06:137,0,-6.72261,-3.28591,68.4275,Q,Q
2023-03-14 18:06:06:147,0,-6.71702,-3.29024,68.4295,Q,Q
2023-03-14 18:06:06:157,0,-6.71579,-3.29372,68.4313,Q,Q
2023-03-14 18:06:06:167,0,-6.70662,-3.29351,68.4319,Q,Q
2023-03-14 18:06:06:177,0,-6.70213,-3.28996,68.4265,Q,Q
2023-03-14 18:06:06:187,0,-6.6952,-3.28296,68.416,Q,Q
2023-03-14 18:06:06:197,0,-6.68905,-3.27264,68.4055,Q,Q
2023-03-14 18:06:06:207,0,-6.68894,-3.26028,68.3903,Q,Q
2023-03-14 18:06:06:217,0,-6.69164,-3.25129,68.3749,Q,Q
2023-03-14 18:06:06:227,0,-6.69499,-3.24795,68.3638,Q,Q
2023-03-14 18:06:06:237,0,-6.70314,-3.24,68.3541,Q,Q
2023-03-14 18:06:06:247,0,-6.71653,-3.23441,68.344,Q,Q
2023-03-14 18:06:06:257,0,-6.72633,-3.23021,68.3375,Q,Q
2023-03-14 18:06:06:267,0,-6.73942,-3.2222,68.3318,Q,Q
2023-03-14 18:06:06:277,0,-6.75373,-3.21845,68.331,Q,Q
2023-03-14 18:06:06:287,0,-6.7614,-3.21572,68.3323,Q,Q
2023-03-14 18:06:06:297,0,-6.76592,-3.21509,68.3388,Q,Q
2023-03-14 18:06:06:307,0,-6.77034,-3.21402,68.3476,Q,Q
2023-03-14 18:06:06:317,0,-6.776,-3.21791,68.3511,Q,Q
2023-03-14 18:06:06:327,0,-6.7813,-3.21714,68.3582,Q,Q
2023-03-14 18:06:06:337,0,-6.78028,-3.21817,68.3605,Q,Q
2023-03-14 18:06:06:347,0,-6.77882,-3.21775,68.359,Q,Q
2023-03-14 18:06:06:357,0,-6.77608,-3.21438,68.3568,Q,Q
2023-03-14 18:06:06:367,0,-6.77215,-3.21303,68.3513,Q,Q
2023-03-14 18:06:06:377,0,-6.76536,-3.21223,68.3489,Q,Q
2023-03-14 18:06:06:387,0,-6.75676,-3.21109,68.3438,Q,Q
2023-03-14 18:06:06:397,0,-6.75131,-3.21008,68.3427,Q,Q
2023-03-14 18:06:06:407,0,-6.74675,-3.20789,68.3384,Q,Q
2023-03-14 18:06:06:417,0,-6.74581,-3.20836,68.3353,Q,Q
2023-03-14 18:06:06:427,0,-6.74791,-3.20414,68.3322,Q,Q
2023-03-14 18:06:06:437,0,-6.75368,-3.20451,68.3241,Q,Q
2023-03-14 18:06:06:447,0,-6.75758,-3.20608,68.3207,Q,Q
2023-03-14 18:06:06:457,0,-6.76286,-3.21112,68.3159,Q,Q
2023-03-14 18:06:06:467,0,-6.77123,-3.21857,68.3134,Q,Q
2023-03-14 18:06:06:477,0,-6.77989,-3.23183,68.3168,Q,Q
2023-03-14 18:06:06:488,0,-6.79179,-3.2458,68.3213,Q,Q
2023-03-14 18:06:06:497,0,-6.81119,-3.2614,68.3306,Q,Q
2023-03-14 18:06:06:507,0,-6.83363,-3.27698,68.3414,Q,Q
2023-03-14 18:06:06:517,0,-6.85559,-3.29125,68.3534,Q,Q
2023-03-14 18:06:06:527,0,-6.87618,-3.30417,68.3631,Q,Q
2023-03-14 18:06:06:537,0,-6.89667,-3.31479,68.3714,Q,Q
2023-03-14 18:06:06:547,0,-6.91118,-3.32061,68.3766,Q,Q
2023-03-14 18:06:06:557,0,-6.92169,-3.32338,68.3816,Q,Q
2023-03-14 18:06:06:567,0,-6.93291,-3.31876,68.3818,Q,Q
2023-03-14 18:06:06:577,0,-6.94268,-3.31646,68.3793,Q,Q
2023-03-14 18:06:06:588,0,-6.95358,-3.31152,68.3738,Q,Q
2023-03-14 18:06:06:598,0,-6.96433,-3.29838,68.3692,Q,Q
2023-03-14 18:06:06:607,0,-6.97408,-3.28904,68.3618,Q,Q
2023-03-14 18:06:06:618,0,-6.98345,-3.27939,68.3592,Q,Q
2023-03-14 18:06:06:628,0,-6.99135,-3.27664,68.3652,Q,Q
2023-03-14 18:06:06:638,0,-6.99456,-3.27751,68.3779,Q,Q
2023-03-14 18:06:06:647,0,-6.99133,-3.2818,68.3969,Q,Q
2023-03-14 18:06:06:658,0,-6.99047,-3.28909,68.4244,Q,Q
2023-03-14 18:06:06:668,0,-6.99745,-3.29972,68.4585,Q,Q
2023-03-14 18:06:06:677,0,-7.01439,-3.30996,68.4904,Q,Q
2023-03-14 18:06:06:688,0,-7.04715,-3.31738,68.5165,Q,Q
2023-03-14 18:06:06:698,0,-7.08951,-3.31826,68.5358,Q,Q
2023-03-14 18:06:06:707,0,-7.13588,-3.31336,68.5458,Q,Q
2023-03-14 18:06:06:718,0,-7.18031,-3.30325,68.5489,Q,Q
2023-03-14 18:06:06:728,0,-7.2104,-3.29962,68.5562,Q,Q
2023-03-14 18:06:06:738,0,-7.23251,-3.30292,68.5767,Q,Q
2023-03-14 18:06:06:748,0,-7.25199,-3.32132,68.6093,Q,Q
2023-03-14 18:06:06:758,0,-7.28161,-3.34727,68.6532,Q,Q
2023-03-14 18:06:06:768,0,-7.33086,-3.38269,68.7106,Q,Q
2023-03-14 18:06:06:778,0,-7.40059,-3.41713,68.7746,Q,Q
2023-03-14 18:06:06:788,0,-7.49524,-3.45327,68.8336,Q,Q
2023-03-14 18:06:06:798,0,-7.61915,-3.49259,68.8951,Q,Q
2023-03-14 18:06:06:808,0,-7.77329,-3.53649,68.9534,Q,Q
2023-03-14 18:06:06:818,0,-7.94437,-3.57619,69.0082,Q,Q
2023-03-14 18:06:06:828,0,-8.1339,-3.61679,69.0622,Q,Q
2023-03-14 18:06:06:838,0,-8.34849,-3.67156,69.1165,Q,Q
2023-03-14 18:06:06:848,0,-8.57862,-3.73763,69.1766,Q,Q
2023-03-14 18:06:06:858,0,-8.81054,-3.81176,69.2408,Q,Q
2023-03-14 18:06:06:868,0,-9.04197,-3.88431,69.3104,Q,Q
2023-03-14 18:06:06:878,0,-9.26531,-3.95406,69.383,Q,Q
2023-03-14 18:06:06:888,0,-9.48803,-4.01459,69.4549,Q,Q
2023-03-14 18:06:06:898,0,-9.71273,-4.06366,69.5304,Q,Q
2023-03-14 18:06:06:908,0,-9.94979,-4.10234,69.6072,Q,Q
2023-03-14 18:06:06:918,0,-10.1985,-4.14234,69.6817,Q,Q
2023-03-14 18:06:06:928,0,-10.4465,-4.17639,69.7568,Q,Q
2023-03-14 18:06:06:938,0,-10.6904,-4.20981,69.8263,Q,Q
2023-03-14 18:06:06:948,0,-10.9253,-4.23338,69.887,Q,Q
2023-03-14 18:06:06:958,0,-11.1499,-4.24487,69.942,Q,Q
2023-03-14 18:06:06:968,0,-11.3592,-4.25111,69.9933,Q,Q
2023-03-14 18:06:06:978,0,-11.5555,-4.25166,70.0416,Q,Q
2023-03-14 18:06:06:988,0,-11.7423,-4.24788,70.0927,Q,Q
2023-03-14 18:06:06:998,0,-11.9323,-4.27335,70.1347,Q,Q
2023-03-14 18:06:07:8,0,-12.1409,-4.30863,70.1899,Q,Q
2023-03-14 18:06:07:18,0,-12.3379,-4.32535,70.224,Q,Q
2023-03-14 18:06:07:28,0,-12.5046,-4.35424,70.2497,Q,Q
2023-03-14 18:06:07:38,0,-12.6479,-4.35082,70.2947,Q,Q
2023-03-14 18:06:07:48,0,-12.7789,-4.3486,70.3612,Q,Q
2023-03-14 18:06:07:58,0,-12.9002,-4.3346,70.423,Q,Q
2023-03-14 18:06:07:68,0,-13.0008,-4.30508,70.467,Q,Q
2023-03-14 18:06:07:78,0,-13.076,-4.26744,70.4898,Q,Q
2023-03-14 18:06:07:88,0,-13.1462,-4.22405,70.514,Q,Q
2023-03-14 18:06:07:98,0,-13.2188,-4.18057,70.5372,Q,Q
2023-03-14 18:06:07:107,0,-13.2921,-4.13317,70.5528,Q,Q
2023-03-14 18:06:07:118,0,-13.3623,-4.08545,70.5606,Q,Q
2023-03-14 18:06:07:128,0,-13.4078,-4.04194,70.5614,Q,Q
2023-03-14 18:06:07:138,0,-13.4261,-3.99881,70.5563,Q,Q
2023-03-14 18:06:07:148,0,-13.4232,-3.95419,70.5468,Q,Q
2023-03-14 18:06:07:157,0,-13.412,-3.92097,70.535,Q,Q
2023-03-14 18:06:07:167,0,-13.4105,-3.8946,70.5257,Q,Q
2023-03-14 18:06:07:178,0,-13.4163,-3.87725,70.5205,Q,Q
2023-03-14 18:06:07:188,0,-13.4233,-3.86027,70.5165,Q,Q
2023-03-14 18:06:07:198,0,-13.4237,-3.84925,70.5084,Q,Q
2023-03-14 18:06:07:208,0,-13.4193,-3.84432,70.4995,Q,Q
2023-03-14 18:06:07:218,0,-13.4114,-3.84498,70.4947,Q,Q
2023-03-14 18:06:07:228,0,-13.4057,-3.84812,70.4894,Q,Q
2023-03-14 18:06:07:238,0,-13.4009,-3.85492,70.4801,Q,Q
2023-03-14 18:06:07:248,0,-13.3963,-3.8676,70.4778,Q,Q
2023-03-14 18:06:07:258,0,-13.3972,-3.88401,70.4814,Q,Q
2023-03-14 18:06:07:268,0,-13.4011,-3.90112,70.485,Q,Q
2023-03-14 18:06:07:277,0,-13.3997,-3.91738,70.4852,Q,Q
2023-03-14 18:06:07:287,0,-13.396,-3.93886,70.488,Q,Q
2023-03-14 18:06:07:297,0,-13.3916,-3.95743,70.4891,Q,Q
2023-03-14 18:06:07:308,0,-13.3864,-3.97251,70.4956,Q,Q
2023-03-14 18:06:07:317,0,-13.3762,-3.98145,70.5,Q,Q
2023-03-14 18:06:07:328,0,-13.3588,-3.98277,70.5086,Q,Q
2023-03-14 18:06:07:338,0,-13.3334,-3.98416,70.5163,Q,Q
2023-03-14 18:06:07:347,0,-13.2923,-3.98085,70.516,Q,Q
2023-03-14 18:06:07:357,0,-13.2374,-3.97648,70.5089,Q,Q
2023-03-14 18:06:07:367,0,-13.1695,-3.97574,70.4899,Q,Q
2023-03-14 18:06:07:378,0,-13.0895,-3.97614,70.4636,Q,Q
2023-03-14 18:06:07:388,0,-12.9988,-3.97896,70.4298,Q,Q
2023-03-14 18:06:07:398,0,-12.9075,-3.98042,70.3855,Q,Q
2023-03-14 18:06:07:408,0,-12.8142,-3.97863,70.3345,Q,Q
2023-03-14 18:06:07:418,0,-12.7185,-3.96834,70.2759,Q,Q
2023-03-14 18:06:07:428,0,-12.6223,-3.95652,70.2125,Q,Q
2023-03-14 18:06:07:438,0,-12.5346,-3.94888,70.1474,Q,Q
2023-03-14 18:06:07:448,0,-12.448,-3.9527,70.0785,Q,Q
2023-03-14 18:06:07:458,0,-12.3557,-3.95312,69.9972,Q,Q
2023-03-14 18:06:07:468,0,-12.2557,-3.95094,69.9042,Q,Q
2023-03-14 18:06:07:478,0,-12.1533,-3.95382,69.8066,Q,Q
2023-03-14 18:06:07:488,0,-12.0567,-3.95278,69.706,Q,Q
2023-03-14 18:06:07:498,0,-11.9645,-3.95293,69.6066,Q,Q
2023-03-14 18:06:07:508,0,-11.8763,-3.96299,69.5045,Q,Q
2023-03-14 18:06:07:518,0,-11.7958,-3.97546,69.4076,Q,Q
2023-03-14 18:06:07:528,0,-11.7162,-3.98805,69.3137,Q,Q
2023-03-14 18:06:07:538,0,-11.6379,-4.0045,69.2207,Q,Q
2023-03-14 18:06:07:548,0,-11.5651,-4.02414,69.1284,Q,Q
2023-03-14 18:06:07:558,0,-11.4997,-4.04094,69.0402,Q,Q
2023-03-14 18:06:07:568,0,-11.44,-4.05956,68.957,Q,Q
2023-03-14 18:06:07:578,0,-11.388,-4.08614,68.8834,Q,Q
2023-03-14 18:06:07:588,0,-11.3346,-4.10354,68.8192,Q,Q
2023-03-14 18:06:07:598,0,-11.2862,-4.12024,68.7653,Q,Q
2023-03-14 18:06:07:608,0,-11.2356,-4.13766,68.7203,Q,Q
2023-03-14 18:06:07:618,0,-11.1907,-4.15418,68.6889,Q,Q
2023-03-14 18:06:07:628,0,-11.1433,-4.16207,68.6628,Q,Q
2023-03-14 18:06:07:638,0,-11.0923,-4.1664,68.6483,Q,Q
2023-03-14 18:06:07:648,0,-11.0377,-4.1679,68.6345,Q,Q
2023-03-14 18:06:07:658,0,-10.9862,-4.16991,68.6271,Q,Q
2023-03-14 18:06:07:668,0,-10.9379,-4.17786,68.6201,Q,Q
2023-03-14 18:06:07:677,0,-10.8975,-4.19179,68.6193,Q,Q
2023-03-14 18:06:07:687,0,-10.8576,-4.20989,68.6221,Q,Q
2023-03-14 18:06:07:698,0,-10.8222,-4.22369,68.6272,Q,Q
2023-03-14 18:06:07:707,0,-10.7868,-4.22938,68.6355,Q,Q
2023-03-14 18:06:07:718,0,-10.7431,-4.23184,68.644,Q,Q
2023-03-14 18:06:07:728,0,-10.7073,-4.24273,68.6507,Q,Q
2023-03-14 18:06:07:738,0,-10.678,-4.25201,68.6571,Q,Q
2023-03-14 18:06:07:748,0,-10.653,-4.26315,68.6658,Q,Q
2023-03-14 18:06:07:758,0,-10.6316,-4.27285,68.6717,Q,Q
2023-03-14 18:06:07:768,0,-10.6125,-4.2802,68.6787,Q,Q
2023-03-14 18:06:07:778,0,-10.5895,-4.28606,68.6842,Q,Q
2023-03-14 18:06:07:788,0,-10.5653,-4.29161,68.6836,Q,Q
2023-03-14 18:06:07:797,0,-10.5442,-4.29381,68.6823,Q,Q
2023-03-14 18:06:07:808,0,-10.5183,-4.29548,68.6745,Q,Q
2023-03-14 18:06:07:818,0,-10.4926,-4.29631,68.6716,Q,Q
2023-03-14 18:06:07:828,0,-10.4668,-4.29619,68.6626,Q,Q
2023-03-14 18:06:07:838,0,-10.4463,-4.29737,68.6563,Q,Q
2023-03-14 18:06:07:848,0,-10.4262,-4.30062,68.6482,Q,Q
2023-03-14 18:06:07:858,0,-10.4102,-4.31081,68.6457,Q,Q
2023-03-14 18:06:07:868,0,-10.3955,-4.3188,68.6435,Q,Q
2023-03-14 18:06:07:878,0,-10.3793,-4.31963,68.6411,Q,Q
2023-03-14 18:06:07:888,0,-10.3598,-4.31993,68.635,Q,Q
2023-03-14 18:06:07:898,0,-10.3413,-4.31947,68.6263,Q,Q
2023-03-14 18:06:07:908,0,-10.3235,-4.3159,68.6182,Q,Q
2023-03-14 18:06:07:918,0,-10.3,-4.31163,68.6079,Q,Q
2023-03-14 18:06:07:928,0,-10.2724,-4.30229,68.5947,Q,Q
2023-03-14 18:06:07:938,0,-10.2388,-4.27317,68.5856,Q,Q
2023-03-14 18:06:07:948,0,-10.199,-4.24988,68.5736,Q,Q
2023-03-14 18:06:07:958,0,-10.1706,-4.24216,68.5563,Q,Q
2023-03-14 18:06:07:968,0,-10.1552,-4.23435,68.5429,Q,Q
2023-03-14 18:06:07:978,0,-10.1475,-4.23422,68.5251,Q,Q
2023-03-14 18:06:07:988,0,-10.1403,-4.23873,68.5085,Q,Q
2023-03-14 18:06:07:998,0,-10.1294,-4.2423,68.4947,Q,Q
2023-03-14 18:06:08:8,0,-10.1161,-4.2459,68.4786,Q,Q
2023-03-14 18:06:08:18,0,-10.1024,-4.24633,68.4658,Q,Q
2023-03-14 18:06:08:28,0,-10.0898,-4.24677,68.4568,Q,Q
2023-03-14 18:06:08:38,0,-10.0698,-4.24767,68.4479,Q,Q
2023-03-14 18:06:08:48,0,-10.0486,-4.24761,68.4418,Q,Q
2023-03-14 18:06:08:58,0,-10.0243,-4.24289,68.433,Q,Q
2023-03-14 18:06:08:68,0,-10.0026,-4.2409,68.428,Q,Q
2023-03-14 18:06:08:78,0,-9.98111,-4.23839,68.4243,Q,Q
2023-03-14 18:06:08:88,0,-9.9635,-4.24178,68.4205,Q,Q
2023-03-14 18:06:08:98,0,-9.948,-4.24215,68.4178,Q,Q
2023-03-14 18:06:08:108,0,-9.93448,-4.24423,68.4165,Q,Q
2023-03-14 18:06:08:118,0,-9.92507,-4.24438,68.412,Q,Q
2023-03-14 18:06:08:128,0,-9.91388,-4.24117,68.409,Q,Q
2023-03-14 18:06:08:138,0,-9.90263,-4.23654,68.4026,Q,Q
2023-03-14 18:06:08:148,0,-9.89353,-4.23367,68.3994,Q,Q
2023-03-14 18:06:08:158,0,-9.88714,-4.22824,68.3978,Q,Q
2023-03-14 18:06:08:168,0,-9.87793,-4.22152,68.3934,Q,Q
2023-03-14 18:06:08:178,0,-9.86449,-4.21091,68.389,Q,Q
2023-03-14 18:06:08:188,0,-9.85152,-4.19934,68.3839,Q,Q
2023-03-14 18:06:08:197,0,-9.83821,-4.1867,68.3777,Q,Q
2023-03-14 18:06:08:207,0,-9.8296,-4.17424,68.3703,Q,Q
2023-03-14 18:06:08:218,0,-9.82251,-4.16204,68.3544,Q,Q
2023-03-14 18:06:08:228,0,-9.81782,-4.154,68.3431,Q,Q
2023-03-14 18:06:08:238,0,-9.81437,-4.14325,68.3291,Q,Q
2023-03-14 18:06:08:248,0,-9.81372,-4.1382,68.3128,Q,Q
2023-03-14 18:06:08:258,0,-9.81159,-4.13455,68.2942,Q,Q
2023-03-14 18:06:08:268,0,-9.80717,-4.12757,68.2716,Q,Q
2023-03-14 18:06:08:278,0,-9.79836,-4.12597,68.2478,Q,Q
2023-03-14 18:06:08:288,0,-9.7905,-4.12028,68.2268,Q,Q
2023-03-14 18:06:08:298,0,-9.77811,-4.11288,68.2059,Q,Q
2023-03-14 18:06:08:308,0,-9.76096,-4.10111,68.1889,Q,Q
2023-03-14 18:06:08:318,0,-9.74784,-4.09152,68.1754,Q,Q
2023-03-14 18:06:08:328,0,-9.73766,-4.07959,68.1617,Q,Q
2023-03-14 18:06:08:338,0,-9.72011,-4.06103,68.1544,Q,Q
2023-03-14 18:06:08:348,0,-9.70597,-4.06253,68.1463,Q,Q
2023-03-14 18:06:08:358,0,-9.69898,-4.05747,68.1469,Q,Q
2023-03-14 18:06:08:368,0,-9.69557,-4.05374,68.1492,Q,Q
2023-03-14 18:06:08:378,0,-9.69241,-4.05251,68.1518,Q,Q
2023-03-14 18:06:08:388,0,-9.68218,-4.04752,68.1578,Q,Q
2023-03-14 18:06:08:398,0,-9.6695,-4.04419,68.1638,Q,Q
2023-03-14 18:06:08:408,0,-9.65898,-4.03882,68.1695,Q,Q
2023-03-14 18:06:08:418,0,-9.64754,-4.03564,68.1743,Q,Q
2023-03-14 18:06:08:428,0,-9.64358,-4.03323,68.1791,Q,Q
2023-03-14 18:06:08:438,0,-9.63841,-4.02685,68.1804,Q,Q
2023-03-14 18:06:08:448,0,-9.62843,-4.02314,68.1742,Q,Q
2023-03-14 18:06:08:458,0,-9.62371,-4.01466,68.1669,Q,Q
2023-03-14 18:06:08:468,0,-9.61442,-4.00596,68.1577,Q,Q
2023-03-14 18:06:08:478,0,-9.60697,-4.00196,68.1478,Q,Q
2023-03-14 18:06:08:488,0,-9.60194,-3.99576,68.136,Q,Q
2023-03-14 18:06:08:498,0,-9.59519,-3.99119,68.1269,Q,Q
2023-03-14 18:06:08:508,0,-9.58507,-3.98391,68.1179,Q,Q
2023-03-14 18:06:08:518,0,-9.57377,-3.9784,68.1102,Q,Q
2023-03-14 18:06:08:528,0,-9.55949,-3.97811,68.1056,Q,Q
2023-03-14 18:06:08:538,0,-9.54733,-3.9753,68.1095,Q,Q
2023-03-14 18:06:08:548,0,-9.53842,-3.97486,68.1145,Q,Q
2023-03-14 18:06:08:558,0,-9.53006,-3.97686,68.1259,Q,Q
2023-03-14 18:06:08:568,0,-9.52329,-3.98347,68.1344,Q,Q
2023-03-14 18:06:08:578,0,-9.52185,-3.98961,68.1457,Q,Q
2023-03-14 18:06:08:588,0,-9.51791,-3.99793,68.1591,Q,Q
2023-03-14 18:06:08:598,0,-9.51352,-4.00303,68.1706,Q,Q
2023-03-14 18:06:08:608,0,-9.50741,-4.0057,68.1788,Q,Q
2023-03-14 18:06:08:618,0,-9.49935,-4.0085,68.1889,Q,Q
2023-03-14 18:06:08:628,0,-9.49181,-4.00338,68.193,Q,Q
2023-03-14 18:06:08:638,0,-9.48987,-3.99806,68.1982,Q,Q
2023-03-14 18:06:08:648,0,-9.48402,-3.99049,68.2021,Q,Q
2023-03-14 18:06:08:658,0,-9.48569,-3.98046,68.2008,Q,Q
2023-03-14 18:06:08:668,0,-9.48641,-3.9689,68.1984,Q,Q
2023-03-14 18:06:08:678,0,-9.48946,-3.9552,68.1947,Q,Q
2023-03-14 18:06:08:688,0,-9.49467,-3.94038,68.1891,Q,Q
2023-03-14 18:06:08:698,0,-9.50446,-3.92615,68.183,Q,Q
2023-03-14 18:06:08:708,0,-9.51669,-3.91813,68.1793,Q,Q
2023-03-14 18:06:08:718,0,-9.52972,-3.90798,68.1776,Q,Q
2023-03-14 18:06:08:728,0,-9.54012,-3.89715,68.1734,Q,Q
2023-03-14 18:06:08:738,0,-9.55359,-3.8927,68.172,Q,Q
2023-03-14 18:06:08:748,0,-9.56375,-3.88779,68.1701,Q,Q
2023-03-14 18:06:08:758,0,-9.57305,-3.88101,68.1692,Q,Q
2023-03-14 18:06:08:768,0,-9.56618,-3.87271,68.1685,Q,Q
2023-03-14 18:06:08:778,0,-9.56029,-3.86769,68.1731,Q,Q
2023-03-14 18:06:08:788,0,-9.55846,-3.86476,68.1769,Q,Q
2023-03-14 18:06:08:798,0,-9.5479,-3.85573,68.1848,Q,Q
2023-03-14 18:06:08:808,0,-9.53709,-3.85348,68.1948,Q,Q
2023-03-14 18:06:08:818,0,-9.52674,-3.85641,68.2069,Q,Q
2023-03-14 18:06:08:828,0,-9.51349,-3.83595,68.2192,Q,Q
2023-03-14 18:06:08:838,0,-9.4977,-3.83184,68.2316,Q,Q
2023-03-14 18:06:08:848,0,-9.49248,-3.83287,68.2441,Q,Q
2023-03-14 18:06:08:858,0,-9.49002,-3.83303,68.2544,Q,Q
2023-03-14 18:06:08:868,0,-9.48139,-3.8349,68.262,Q,Q
2023-03-14 18:06:08:878,0,-9.46916,-3.83904,68.2651,Q,Q
2023-03-14 18:06:08:888,0,-9.45195,-3.84356,68.2723,Q,Q
2023-03-14 18:06:08:898,0,-9.43696,-3.84775,68.282,Q,Q
2023-03-14 18:06:08:908,0,-9.42165,-3.84954,68.2866,Q,Q
2023-03-14 18:06:08:918,0,-9.40661,-3.84773,68.2938,Q,Q
2023-03-14 18:06:08:928,0,-9.37991,-3.83213,68.3021,Q,Q
2023-03-14 18:06:08:938,0,-9.34007,-3.80938,68.3073,Q,Q
2023-03-14 18:06:08:947,0,-9.30001,-3.80569,68.311,Q,Q
2023-03-14 18:06:08:958,0,-9.2767,-3.8055,68.3194,Q,Q
2023-03-14 18:06:08:968,0,-9.26427,-3.80463,68.3308,Q,Q
2023-03-14 18:06:08:978,0,-9.24749,-3.80929,68.341,Q,Q
2023-03-14 18:06:08:988,0,-9.23121,-3.80462,68.3513,Q,Q
2023-03-14 18:06:08:998,0,-9.21194,-3.79638,68.3614,Q,Q
2023-03-14 18:06:09:8,0,-9.1895,-3.78313,68.3714,Q,Q
2023-03-14 18:06:09:18,0,-9.17061,-3.76785,68.3826,Q,Q
2023-03-14 18:06:09:28,0,-9.15293,-3.7557,68.3961,Q,Q
2023-03-14 18:06:09:38,0,-9.12893,-3.74802,68.4068,Q,Q
2023-03-14 18:06:09:48,0,-9.10368,-3.73913,68.4154,Q,Q
2023-03-14 18:06:09:58,0,-9.08433,-3.731,68.424,Q,Q
2023-03-14 18:06:09:68,0,-9.07504,-3.72103,68.4328,Q,Q
2023-03-14 18:06:09:78,0,-9.07655,-3.71475,68.4409,Q,Q
2023-03-14 18:06:09:88,0,-9.07489,-3.70619,68.4439,Q,Q
2023-03-14 18:06:09:98,0,-9.06299,-3.69578,68.4482,Q,Q
2023-03-14 18:06:09:108,0,-9.04734,-3.67999,68.4493,Q,Q
2023-03-14 18:06:09:118,0,-9.02499,-3.66629,68.4488,Q,Q
2023-03-14 18:06:09:128,0,-9.00199,-3.64723,68.4509,Q,Q
2023-03-14 18:06:09:138,0,-8.97121,-3.63229,68.4498,Q,Q
2023-03-14 18:06:09:148,0,-8.93431,-3.6145,68.4487,Q,Q
2023-03-14 18:06:09:158,0,-8.89299,-3.59572,68.4453,Q,Q
2023-03-14 18:06:09:168,0,-8.85159,-3.57525,68.4439,Q,Q
2023-03-14 18:06:09:178,0,-8.81046,-3.55184,68.444,Q,Q
2023-03-14 18:06:09:188,0,-8.7705,-3.52913,68.445,Q,Q
2023-03-14 18:06:09:198,0,-8.72701,-3.50179,68.4479,Q,Q
2023-03-14 18:06:09:208,0,-8.68429,-3.47219,68.4484,Q,Q
2023-03-14 18:06:09:217,0,-8.63841,-3.4351,68.4538,Q,Q
2023-03-14 18:06:09:227,0,-8.58903,-3.39532,68.4597,Q,Q
2023-03-14 18:06:09:237,0,-8.53805,-3.349,68.4728,Q,Q
2023-03-14 18:06:09:247,0,-8.48694,-3.30216,68.4985,Q,Q
2023-03-14 18:06:09:258,0,-8.43621,-3.26393,68.5274,Q,Q
2023-03-14 18:06:09:268,0,-8.40724,-3.24412,68.568,Q,Q
2023-03-14 18:06:09:278,0,-8.39437,-3.2335,68.6217,Q,Q
2023-03-14 18:06:09:288,0,-8.38893,-3.23124,68.6797,Q,Q
2023-03-14 18:06:09:298,0,-8.38214,-3.23155,68.7413,Q,Q
2023-03-14 18:06:09:308,0,-8.37657,-3.23301,68.8054,Q,Q
2023-03-14 18:06:09:318,0,-8.3667,-3.24149,68.8662,Q,Q
2023-03-14 18:06:09:328,0,-8.36125,-3.25612,68.9331,Q,Q
2023-03-14 18:06:09:338,0,-8.36546,-3.27046,69.0044,Q,Q
2023-03-14 18:06:09:348,0,-8.38112,-3.29498,69.0738,Q,Q
2023-03-14 18:06:09:358,0,-8.40587,-3.32028,69.141,Q,Q
2023-03-14 18:06:09:368,0,-8.43989,-3.34441,69.2051,Q,Q
2023-03-14 18:06:09:378,0,-8.47585,-3.36763,69.2652,Q,Q
2023-03-14 18:06:09:388,0,-8.51702,-3.38738,69.319,Q,Q
2023-03-14 18:06:09:397,0,-8.55785,-3.40943,69.3659,Q,Q
2023-03-14 18:06:09:408,0,-8.60365,-3.43138,69.4027,Q,Q
2023-03-14 18:06:09:418,0,-8.65136,-3.45711,69.4341,Q,Q
2023-03-14 18:06:09:428,0,-8.69834,-3.48046,69.4545,Q,Q
2023-03-14 18:06:09:437,0,-8.74055,-3.50297,69.4657,Q,Q
2023-03-14 18:06:09:447,0,-8.77898,-3.52631,69.4689,Q,Q
2023-03-14 18:06:09:457,0,-8.81597,-3.54684,69.4617,Q,Q
2023-03-14 18:06:09:467,0,-8.84714,-3.55772,69.4458,Q,Q
2023-03-14 18:06:09:477,0,-8.87211,-3.56408,69.4246,Q,Q
2023-03-14 18:06:09:487,0,-8.88919,-3.5667,69.3999,Q,Q
2023-03-14 18:06:09:497,0,-8.89439,-3.56442,69.3765,Q,Q
2023-03-14 18:06:09:507,0,-8.89657,-3.56556,69.3664,Q,Q
2023-03-14 18:06:09:517,0,-8.90137,-3.57151,69.3694,Q,Q
2023-03-14 18:06:09:528,0,-8.91143,-3.57222,69.3779,Q,Q
2023-03-14 18:06:09:538,0,-8.9144,-3.56432,69.3876,Q,Q
2023-03-14 18:06:09:548,0,-8.90946,-3.55157,69.4004,Q,Q
2023-03-14 18:06:09:558,0,-8.8886,-3.54085,69.4195,Q,Q
2023-03-14 18:06:09:568,0,-8.86047,-3.53303,69.4471,Q,Q
2023-03-14 18:06:09:578,0,-8.82158,-3.53927,69.4916,Q,Q
2023-03-14 18:06:09:588,0,-8.77431,-3.5513,69.5492,Q,Q
2023-03-14 18:06:09:598,0,-8.72865,-3.57967,69.6232,Q,Q
2023-03-14 18:06:09:608,0,-8.68593,-3.62184,69.7118,Q,Q
2023-03-14 18:06:09:618,0,-8.64521,-3.67099,69.8029,Q,Q
2023-03-14 18:06:09:628,0,-8.61279,-3.72938,69.8898,Q,Q
2023-03-14 18:06:09:638,0,-8.59239,-3.78941,69.9653,Q,Q
2023-03-14 18:06:09:648,0,-8.58114,-3.85612,70.0267,Q,Q
2023-03-14 18:06:09:658,0,-8.56674,-3.92813,70.0816,Q,Q
2023-03-14 18:06:09:668,0,-8.55681,-4.00993,70.1329,Q,Q
2023-03-14 18:06:09:678,0,-8.55356,-4.10013,70.1783,Q,Q
2023-03-14 18:06:09:688,0,-8.54997,-4.20118,70.219,Q,Q
2023-03-14 18:06:09:698,0,-8.54787,-4.30604,70.2554,Q,Q
2023-03-14 18:06:09:708,0,-8.55582,-4.41409,70.2917,Q,Q
2023-03-14 18:06:09:718,0,-8.5789,-4.51997,70.3244,Q,Q
2023-03-14 18:06:09:728,0,-8.62211,-4.61127,70.3512,Q,Q
2023-03-14 18:06:09:737,0,-8.67963,-4.68305,70.3613,Q,Q
2023-03-14 18:06:09:747,0,-8.75187,-4.72683,70.3508,Q,Q
2023-03-14 18:06:09:757,0,-8.82955,-4.73507,70.3173,Q,Q
2023-03-14 18:06:09:768,0,-8.8973,-4.70648,70.259,Q,Q
2023-03-14 18:06:09:778,0,-8.94987,-4.64236,70.176,Q,Q
2023-03-14 18:06:09:788,0,-8.98251,-4.55237,70.0789,Q,Q
2023-03-14 18:06:09:797,0,-9.0028,-4.44748,69.9845,Q,Q
2023-03-14 18:06:09:808,0,-9.01739,-4.3286,69.8901,Q,Q
2023-03-14 18:06:09:818,0,-9.02128,-4.20471,69.8048,Q,Q
2023-03-14 18:06:09:828,0,-9.00481,-4.08614,69.7321,Q,Q
2023-03-14 18:06:09:838,0,-8.95619,-3.98465,69.6795,Q,Q
2023-03-14 18:06:09:848,0,-8.87173,-3.91101,69.6569,Q,Q
2023-03-14 18:06:09:858,0,-8.75842,-3.87358,69.6771,Q,Q
2023-03-14 18:06:09:868,0,-8.62822,-3.86866,69.7425,Q,Q
2023-03-14 18:06:09:878,0,-8.50127,-3.89406,69.8572,Q,Q
2023-03-14 18:06:09:888,0,-8.39641,-3.95147,70.022,Q,Q
2023-03-14 18:06:09:898,0,-8.33489,-4.0382,70.2306,Q,Q
2023-03-14 18:06:09:908,0,-8.3263,-4.15207,70.4672,Q,Q
2023-03-14 18:06:09:918,0,-8.3714,-4.26698,70.7121,Q,Q
2023-03-14 18:06:09:928,0,-8.44493,-4.36712,70.9535,Q,Q
2023-03-14 18:06:09:938,0,-8.54703,-4.44857,71.1903,Q,Q
2023-03-14 18:06:09:948,0,-8.67286,-4.50636,71.4122,Q,Q
2023-03-14 18:06:09:958,0,-8.80685,-4.52675,71.5949,Q,Q
2023-03-14 18:06:09:968,0,-8.93639,-4.51025,71.7388,Q,Q
2023-03-14 18:06:09:978,0,-9.04432,-4.46004,71.8324,Q,Q
2023-03-14 18:06:09:988,0,-9.1246,-4.3798,71.8795,Q,Q
2023-03-14 18:06:09:998,0,-9.17628,-4.2908,71.8884,Q,Q
2023-03-14 18:06:10:8,0,-9.20527,-4.19981,71.8579,Q,Q
2023-03-14 18:06:10:18,0,-9.21265,-4.1131,71.7972,Q,Q
2023-03-14 18:06:10:28,0,-9.20185,-4.04218,71.7181,Q,Q
2023-03-14 18:06:10:38,0,-9.17056,-3.99076,71.631,Q,Q
2023-03-14 18:06:10:48,0,-9.11934,-3.96054,71.5492,Q,Q
2023-03-14 18:06:10:58,0,-9.05806,-3.96087,71.48,Q,Q
2023-03-14 18:06:10:68,0,-8.99301,-3.98733,71.435,Q,Q
2023-03-14 18:06:10:78,0,-8.92899,-4.037,71.4095,Q,Q
2023-03-14 18:06:10:88,0,-8.88271,-4.106,71.4081,Q,Q
2023-03-14 18:06:10:98,0,-8.85305,-4.18465,71.4391,Q,Q
2023-03-14 18:06:10:108,0,-8.83475,-4.26992,71.4978,Q,Q
2023-03-14 18:06:10:118,0,-8.82094,-4.35829,71.5738,Q,Q
2023-03-14 18:06:10:128,0,-8.81879,-4.43717,71.6683,Q,Q
2023-03-14 18:06:10:138,0,-8.84074,-4.51049,71.7778,Q,Q
2023-03-14 18:06:10:148,0,-8.8835,-4.5758,71.8905,Q,Q
2023-03-14 18:06:10:158,0,-8.93935,-4.63045,71.9982,Q,Q
2023-03-14 18:06:10:168,0,-8.99222,-4.66752,72.0929,Q,Q
2023-03-14 18:06:10:178,0,-9.03329,-4.685,72.1722,Q,Q
2023-03-14 18:06:10:188,0,-9.06271,-4.68466,72.2339,Q,Q
2023-03-14 18:06:10:198,0,-9.08814,-4.67581,72.2795,Q,Q
2023-03-14 18:06:10:208,0,-9.11005,-4.66134,72.3152,Q,Q
2023-03-14 18:06:10:218,0,-9.12235,-4.64804,72.3367,Q,Q
2023-03-14 18:06:10:228,0,-9.11053,-4.62768,72.3409,Q,Q
2023-03-14 18:06:10:238,0,-9.07844,-4.60545,72.3317,Q,Q
2023-03-14 18:06:10:248,0,-9.03127,-4.57739,72.303,Q,Q
2023-03-14 18:06:10:258,0,-8.97456,-4.54445,72.2621,Q,Q
2023-03-14 18:06:10:268,0,-8.93052,-4.52212,72.216,Q,Q
2023-03-14 18:06:10:278,0,-8.89739,-4.51756,72.1617,Q,Q
2023-03-14 18:06:10:288,0,-8.86,-4.51154,72.0876,Q,Q
2023-03-14 18:06:10:298,0,-8.8125,-4.50692,71.9888,Q,Q
2023-03-14 18:06:10:308,0,-8.74871,-4.50742,71.8753,Q,Q
2023-03-14 18:06:10:318,0,-8.66841,-4.51483,71.7415,Q,Q
2023-03-14 18:06:10:328,0,-8.56939,-4.53256,71.5876,Q,Q
2023-03-14 18:06:10:338,0,-8.46036,-4.55438,71.3697,Q,Q
2023-03-14 18:06:10:348,0,-8.33832,-4.56327,71.0264,Q,Q
2023-03-14 18:06:10:358,0,-8.20517,-4.56163,70.5036,Q,Q
2023-03-14 18:06:10:368,0,-8.06052,-4.55853,69.7794,Q,Q
2023-03-14 18:06:10:378,0,-7.90931,-4.5686,68.8747,Q,Q
2023-03-14 18:06:10:388,0,-7.77217,-4.62192,67.8408,Q,Q
2023-03-14 18:06:10:398,0,-7.66497,-4.72039,66.685,Q,Q
2023-03-14 18:06:10:408,0,-7.58051,-4.83982,65.3622,Q,Q
2023-03-14 18:06:10:418,0,-7.49755,-4.96769,63.7838,Q,Q
2023-03-14 18:06:10:428,0,-7.36726,-5.07092,61.9021,Q,Q
2023-03-14 18:06:10:438,0,-7.16918,-5.13588,59.7718,Q,Q
2023-03-14 18:06:10:448,0,-6.92257,-5.17003,57.5189,Q,Q
2023-03-14 18:06:10:458,0,-6.67306,-5.19119,55.2535,Q,Q
2023-03-14 18:06:10:468,0,-6.43861,-5.21985,53.002,Q,Q
2023-03-14 18:06:10:478,0,-6.21972,-5.24162,50.7199,Q,Q
2023-03-14 18:06:10:488,0,-6.00312,-5.23428,48.3804,Q,Q
2023-03-14 18:06:10:498,0,-5.77936,-5.19734,46.0284,Q,Q
2023-03-14 18:06:10:508,0,-5.56162,-5.15674,43.7305,Q,Q
2023-03-14 18:06:10:518,0,-5.37146,-5.13936,41.5291,Q,Q
2023-03-14 18:06:10:528,0,-5.19429,-5.15537,39.4295,Q,Q
2023-03-14 18:06:10:538,0,-5.01874,-5.18885,37.413,Q,Q
2023-03-14 18:06:10:548,0,-4.84416,-5.20863,35.4953,Q,Q
2023-03-14 18:06:10:558,0,-4.67728,-5.22146,33.7016,Q,Q
2023-03-14 18:06:10:568,0,-4.51943,-5.22448,32.0503,Q,Q
2023-03-14 18:06:10:578,0,-4.37276,-5.22207,30.5567,Q,Q
2023-03-14 18:06:10:588,0,-4.23785,-5.21237,29.2314,Q,Q
2023-03-14 18:06:10:598,0,-4.12782,-5.18142,28.0592,Q,Q
2023-03-14 18:06:10:608,0,-4.04181,-5.12384,27.0142,Q,Q
2023-03-14 18:06:10:618,0,-3.97935,-5.04096,26.0973,Q,Q
2023-03-14 18:06:10:628,0,-3.94017,-4.96,25.3232,Q,Q
2023-03-14 18:06:10:638,0,-3.94167,-4.88696,24.6919,Q,Q
2023-03-14 18:06:10:648,0,-3.9757,-4.84085,24.1809,Q,Q
2023-03-14 18:06:10:658,0,-4.04016,-4.81268,23.7667,Q,Q
2023-03-14 18:06:10:668,0,-4.11295,-4.7905,23.4115,Q,Q
2023-03-14 18:06:10:678,0,-4.19037,-4.75928,23.0981,Q,Q
2023-03-14 18:06:10:688,0,-4.26784,-4.7151,22.807,Q,Q
2023-03-14 18:06:10:698,0,-4.32864,-4.66483,22.525,Q,Q
2023-03-14 18:06:10:708,0,-4.37318,-4.61224,22.2582,Q,Q
2023-03-14 18:06:10:718,0,-4.40606,-4.56683,22.0018,Q,Q
2023-03-14 18:06:10:728,0,-4.43533,-4.53717,21.7619,Q,Q
2023-03-14 18:06:10:738,0,-4.45999,-4.51781,21.5319,Q,Q
2023-03-14 18:06:10:748,0,-4.46955,-4.50736,21.2986,Q,Q
2023-03-14 18:06:10:758,0,-4.46305,-4.49179,21.0523,Q,Q
2023-03-14 18:06:10:767,0,-4.44125,-4.47509,20.8063,Q,Q
2023-03-14 18:06:10:778,0,-4.41357,-4.45315,20.5646,Q,Q
2023-03-14 18:06:10:788,0,-4.38134,-4.42798,20.3282,Q,Q
2023-03-14 18:06:10:798,0,-4.33578,-4.40437,20.0843,Q,Q
2023-03-14 18:06:10:808,0,-4.29114,-4.37867,19.8436,Q,Q
2023-03-14 18:06:10:818,0,-4.25142,-4.36212,19.6167,Q,Q
2023-03-14 18:06:10:828,0,-4.22898,-4.34959,19.411,Q,Q
2023-03-14 18:06:10:838,0,-4.22341,-4.3414,19.2261,Q,Q
2023-03-14 18:06:10:848,0,-4.2317,-4.33008,19.0546,Q,Q
2023-03-14 18:06:10:858,0,-4.24373,-4.31248,18.8943,Q,Q
2023-03-14 18:06:10:868,0,-4.24991,-4.28597,18.7317,Q,Q
2023-03-14 18:06:10:878,0,-4.25018,-4.25214,18.5627,Q,Q
2023-03-14 18:06:10:888,0,-4.24805,-4.22135,18.3932,Q,Q
2023-03-14 18:06:10:898,0,-4.24525,-4.18968,18.2186,Q,Q
2023-03-14 18:06:10:908,0,-4.24352,-4.1639,18.0418,Q,Q
2023-03-14 18:06:10:918,0,-4.24801,-4.14452,17.8677,Q,Q
2023-03-14 18:06:10:928,0,-4.25071,-4.13644,17.6926,Q,Q
2023-03-14 18:06:10:938,0,-4.247,-4.13649,17.5102,Q,Q
2023-03-14 18:06:10:948,0,-4.23171,-4.13842,17.3053,Q,Q
2023-03-14 18:06:10:958,0,-4.19179,-4.13195,17.059,Q,Q
2023-03-14 18:06:10:968,0,-4.13184,-4.11546,16.7768,Q,Q
2023-03-14 18:06:10:978,0,-4.05766,-4.09504,16.4765,Q,Q
2023-03-14 18:06:10:988,0,-3.96828,-4.08497,16.1628,Q,Q
2023-03-14 18:06:10:998,0,-3.87445,-4.08539,15.8315,Q,Q
2023-03-14 18:06:11:8,0,-3.77102,-4.09058,15.4744,Q,Q
2023-03-14 18:06:11:18,0,-3.65588,-4.10242,15.0851,Q,Q
2023-03-14 18:06:11:28,0,-3.53255,-4.11214,14.6666,Q,Q
2023-03-14 18:06:11:38,0,-3.40138,-4.12326,14.2259,Q,Q
2023-03-14 18:06:11:48,0,-3.27841,-4.13539,13.784,Q,Q
2023-03-14 18:06:11:58,0,-3.15491,-4.1628,13.3475,Q,Q
2023-03-14 18:06:11:68,0,-3.0361,-4.19428,12.907,Q,Q
2023-03-14 18:06:11:78,0,-2.91452,-4.22347,12.4658,Q,Q
2023-03-14 18:06:11:88,0,-2.79303,-4.24167,12.0185,Q,Q
2023-03-14 18:06:11:98,0,-2.67651,-4.25178,11.5785,Q,Q
2023-03-14 18:06:11:108,0,-2.56991,-4.26483,11.1513,Q,Q
2023-03-14 18:06:11:118,0,-2.47772,-4.28477,10.7427,Q,Q
2023-03-14 18:06:11:128,0,-2.39858,-4.31091,10.3589,Q,Q
2023-03-14 18:06:11:138,0,-2.3342,-4.34567,9.99611,Q,Q
2023-03-14 18:06:11:148,0,-2.27055,-4.38934,9.6523,Q,Q
2023-03-14 18:06:11:158,0,-2.20993,-4.43314,9.32002,Q,Q
2023-03-14 18:06:11:168,0,-2.14776,-4.47165,8.99164,Q,Q
2023-03-14 18:06:11:178,0,-2.09137,-4.50029,8.67392,Q,Q
2023-03-14 18:06:11:188,0,-2.04847,-4.52764,8.37926,Q,Q
2023-03-14 18:06:11:198,0,-2.0221,-4.55707,8.10736,Q,Q
2023-03-14 18:06:11:208,0,-2.01509,-4.59917,7.86066,Q,Q
2023-03-14 18:06:11:218,0,-2.02184,-4.64701,7.63738,Q,Q
2023-03-14 18:06:11:228,0,-2.03288,-4.68866,7.43321,Q,Q
2023-03-14 18:06:11:238,0,-2.04098,-4.72139,7.24538,Q,Q
2023-03-14 18:06:11:248,0,-2.04881,-4.74097,7.07315,Q,Q
2023-03-14 18:06:11:258,0,-2.05972,-4.75752,6.92423,Q,Q
2023-03-14 18:06:11:268,0,-2.07599,-4.77195,6.80854,Q,Q
2023-03-14 18:06:11:277,0,-2.10091,-4.78522,6.72943,Q,Q
2023-03-14 18:06:11:288,0,-2.14045,-4.80322,6.68677,Q,Q
2023-03-14 18:06:11:298,0,-2.18694,-4.82008,6.67423,Q,Q
2023-03-14 18:06:11:308,0,-2.24016,-4.82952,6.67401,Q,Q
2023-03-14 18:06:11:318,0,-2.29134,-4.82986,6.67792,Q,Q
2023-03-14 18:06:11:328,0,-2.3359,-4.82672,6.69123,Q,Q
2023-03-14 18:06:11:338,0,-2.37991,-4.82129,6.72043,Q,Q
2023-03-14 18:06:11:348,0,-2.42595,-4.82151,6.76009,Q,Q
2023-03-14 18:06:11:358,0,-2.47371,-4.82519,6.80649,Q,Q
2023-03-14 18:06:11:368,0,-2.52238,-4.8275,6.84687,Q,Q
2023-03-14 18:06:11:378,0,-2.56448,-4.83184,6.87773,Q,Q
2023-03-14 18:06:11:388,0,-2.59738,-4.8306,6.90911,Q,Q
2023-03-14 18:06:11:398,0,-2.62092,-4.82896,6.93693,Q,Q
2023-03-14 18:06:11:408,0,-2.63235,-4.83037,6.95931,Q,Q
2023-03-14 18:06:11:418,0,-2.63191,-4.82967,6.96782,Q,Q
2023-03-14 18:06:11:428,0,-2.62282,-4.82759,6.96255,Q,Q
2023-03-14 18:06:11:438,0,-2.60225,-4.82289,6.9484,Q,Q
2023-03-14 18:06:11:448,0,-2.58347,-4.8238,6.92886,Q,Q
2023-03-14 18:06:11:458,0,-2.5712,-4.82828,6.90358,Q,Q
2023-03-14 18:06:11:468,0,-2.56559,-4.83142,6.8659,Q,Q
2023-03-14 18:06:11:478,0,-2.56593,-4.84202,6.82783,Q,Q
2023-03-14 18:06:11:488,0,-2.57552,-4.85585,6.78746,Q,Q
2023-03-14 18:06:11:498,0,-2.58774,-4.86768,6.74389,Q,Q
2023-03-14 18:06:11:508,0,-2.5974,-4.87467,6.68891,Q,Q
2023-03-14 18:06:11:518,0,-2.60159,-4.87742,6.63236,Q,Q
2023-03-14 18:06:11:528,0,-2.60251,-4.88083,6.57567,Q,Q
2023-03-14 18:06:11:538,0,-2.60756,-4.88831,6.51975,Q,Q
2023-03-14 18:06:11:548,0,-2.61178,-4.89408,6.46837,Q,Q
2023-03-14 18:06:11:558,0,-2.62007,-4.90294,6.42295,Q,Q
2023-03-14 18:06:11:568,0,-2.63372,-4.91314,6.388,Q,Q
2023-03-14 18:06:11:578,0,-2.65241,-4.91986,6.36325,Q,Q
2023-03-14 18:06:11:588,0,-2.67258,-4.92192,6.335,Q,Q
2023-03-14 18:06:11:598,0,-2.68575,-4.91884,6.31143,Q,Q
2023-03-14 18:06:11:608,0,-2.69697,-4.91119,6.29584,Q,Q
2023-03-14 18:06:11:618,0,-2.70159,-4.9017,6.28222,Q,Q
2023-03-14 18:06:11:628,0,-2.71038,-4.89546,6.28134,Q,Q
2023-03-14 18:06:11:638,0,-2.72133,-4.89125,6.29425,Q,Q
2023-03-14 18:06:11:648,0,-2.73682,-4.88631,6.32163,Q,Q
2023-03-14 18:06:11:658,0,-2.74977,-4.88049,6.36177,Q,Q
2023-03-14 18:06:11:668,0,-2.77134,-4.87805,6.42321,Q,Q
2023-03-14 18:06:11:678,0,-2.79441,-4.87516,6.50828,Q,Q
2023-03-14 18:06:11:688,0,-2.81652,-4.86954,6.62123,Q,Q
2023-03-14 18:06:11:698,0,-2.83848,-4.86289,6.76133,Q,Q
2023-03-14 18:06:11:708,0,-2.86341,-4.85074,6.93652,Q,Q
2023-03-14 18:06:11:718,0,-2.89667,-4.83037,7.15953,Q,Q
2023-03-14 18:06:11:728,0,-2.93421,-4.80502,7.45013,Q,Q
2023-03-14 18:06:11:738,0,-2.98055,-4.76751,7.83593,Q,Q
2023-03-14 18:06:11:748,0,-3.03566,-4.71602,8.33524,Q,Q
2023-03-14 18:06:11:758,0,-3.10725,-4.64842,8.95854,Q,Q
2023-03-14 18:06:11:768,0,-3.1984,-4.55778,9.72146,Q,Q
2023-03-14 18:06:11:778,0,-3.31304,-4.44349,10.6318,Q,Q
2023-03-14 18:06:11:787,0,-3.46073,-4.30207,11.7021,Q,Q
2023-03-14 18:06:11:797,0,-3.6323,-4.13745,12.9466,Q,Q
2023-03-14 18:06:11:808,0,-3.82951,-3.95865,14.3729,Q,Q
2023-03-14 18:06:11:818,0,-4.04757,-3.76274,15.9664,Q,Q
2023-03-14 18:06:11:828,0,-4.27454,-3.55344,17.7153,Q,Q
2023-03-14 18:06:11:838,0,-4.49245,-3.32839,19.5918,Q,Q
2023-03-14 18:06:11:848,0,-4.70344,-3.07977,21.5859,Q,Q
2023-03-14 18:06:11:858,0,-4.90957,-2.80766,23.6904,Q,Q
2023-03-14 18:06:11:868,0,-5.12178,-2.5383,25.9094,Q,Q
2023-03-14 18:06:11:878,0,-5.33028,-2.27854,28.2312,Q,Q
2023-03-14 18:06:11:888,0,-5.5358,-2.03146,30.6285,Q,Q
2023-03-14 18:06:11:898,0,-5.70915,-1.79296,33.0757,Q,Q
2023-03-14 18:06:11:908,0,-5.82529,-1.55729,35.5366,Q,Q
2023-03-14 18:06:11:918,0,-5.86659,-1.32165,37.9821,Q,Q
2023-03-14 18:06:11:927,0,-5.84183,-1.09646,40.3857,Q,Q
2023-03-14 18:06:11:938,0,-5.7684,-0.888893,42.7277,Q,Q
2023-03-14 18:06:11:948,0,-5.67372,-0.717724,44.998,Q,Q
2023-03-14 18:06:11:958,0,-5.57023,-0.597717,47.1779,Q,Q
2023-03-14 18:06:11:968,0,-5.46658,-0.534199,49.2468,Q,Q
2023-03-14 18:06:11:978,0,-5.36483,-0.521455,51.1793,Q,Q
2023-03-14 18:06:11:988,0,-5.26083,-0.554571,52.9614,Q,Q
2023-03-14 18:06:11:998,0,-5.13836,-0.613495,54.5897,Q,Q
2023-03-14 18:06:12:8,0,-4.98626,-0.691898,56.0803,Q,Q
2023-03-14 18:06:12:18,0,-4.81324,-0.789936,57.4418,Q,Q
2023-03-14 18:06:12:28,0,-4.64365,-0.906815,58.6823,Q,Q
2023-03-14 18:06:12:38,0,-4.48944,-1.03144,59.8024,Q,Q
2023-03-14 18:06:12:48,0,-4.35411,-1.13536,60.8163,Q,Q
2023-03-14 18:06:12:58,0,-4.24084,-1.24461,61.7147,Q,Q
2023-03-14 18:06:12:68,0,-4.1558,-1.33462,62.5109,Q,Q
2023-03-14 18:06:12:78,0,-4.0919,-1.40617,63.2173,Q,Q
2023-03-14 18:06:12:88,0,-4.04977,-1.46394,63.8353,Q,Q
2023-03-14 18:06:12:98,0,-4.018,-1.4996,64.3669,Q,Q
2023-03-14 18:06:12:108,0,-3.99994,-1.52615,64.8237,Q,Q
2023-03-14 18:06:12:118,0,-3.98593,-1.54282,65.2171,Q,Q
2023-03-14 18:06:12:128,0,-3.96712,-1.55504,65.5572,Q,Q
2023-03-14 18:06:12:138,0,-3.93621,-1.56973,65.8471,Q,Q
2023-03-14 18:06:12:148,0,-3.89417,-1.57382,66.0966,Q,Q
2023-03-14 18:06:12:158,0,-3.84148,-1.58054,66.3109,Q,Q
2023-03-14 18:06:12:168,0,-3.77724,-1.59493,66.5016,Q,Q
2023-03-14 18:06:12:178,0,-3.70432,-1.61158,66.6782,Q,Q
2023-03-14 18:06:12:188,0,-3.61885,-1.63496,66.8429,Q,Q
2023-03-14 18:06:12:198,0,-3.53042,-1.66561,66.9953,Q,Q
2023-03-14 18:06:12:208,0,-3.45415,-1.69312,67.1352,Q,Q
2023-03-14 18:06:12:218,0,-3.38732,-1.71721,67.2589,Q,Q
2023-03-14 18:06:12:228,0,-3.32063,-1.74159,67.37,Q,Q
2023-03-14 18:06:12:238,0,-3.25349,-1.76902,67.4689,Q,Q
2023-03-14 18:06:12:248,0,-3.19083,-1.80001,67.5558,Q,Q
2023-03-14 18:06:12:258,0,-3.12138,-1.82781,67.6368,Q,Q
2023-03-14 18:06:12:268,0,-3.04828,-1.85963,67.7162,Q,Q
2023-03-14 18:06:12:278,0,-2.97092,-1.889,67.7858,Q,Q
2023-03-14 18:06:12:288,0,-2.89971,-1.92307,67.8537,Q,Q
2023-03-14 18:06:12:297,0,-2.83174,-1.95222,67.912,Q,Q
2023-03-14 18:06:12:308,0,-2.7765,-1.97865,67.9629,Q,Q
2023-03-14 18:06:12:318,0,-2.73568,-2.00318,68.0086,Q,Q
2023-03-14 18:06:12:328,0,-2.70818,-2.02307,68.0462,Q,Q
2023-03-14 18:06:12:338,0,-2.68767,-2.04429,68.0826,Q,Q
2023-03-14 18:06:12:348,0,-2.67526,-2.06382,68.1166,Q,Q
2023-03-14 18:06:12:358,0,-2.67282,-2.08474,68.1468,Q,Q
2023-03-14 18:06:12:368,0,-2.67699,-2.11187,68.1773,Q,Q
2023-03-14 18:06:12:378,0,-2.67784,-2.13836,68.2051,Q,Q
2023-03-14 18:06:12:388,0,-2.6867,-2.16652,68.233,Q,Q
2023-03-14 18:06:12:398,0,-2.69955,-2.18574,68.2592,Q,Q
2023-03-14 18:06:12:408,0,-2.71102,-2.2059,68.283,Q,Q
2023-03-14 18:06:12:418,0,-2.7192,-2.23164,68.3091,Q,Q
2023-03-14 18:06:12:428,0,-2.7336,-2.25664,68.3304,Q,Q
2023-03-14 18:06:12:438,0,-2.74513,-2.28826,68.3491,Q,Q
2023-03-14 18:06:12:448,0,-2.75825,-2.32529,68.367,Q,Q
2023-03-14 18:06:12:458,0,-2.77035,-2.36916,68.3868,Q,Q
2023-03-14 18:06:12:468,0,-2.78261,-2.41874,68.411,Q,Q
2023-03-14 18:06:12:478,0,-2.79657,-2.4733,68.4346,Q,Q
2023-03-14 18:06:12:488,0,-2.80818,-2.52987,68.4658,Q,Q
2023-03-14 18:06:12:498,0,-2.81504,-2.59139,68.4999,Q,Q
2023-03-14 18:06:12:508,0,-2.81598,-2.64635,68.5312,Q,Q
2023-03-14 18:06:12:518,0,-2.81078,-2.70046,68.5682,Q,Q
2023-03-14 18:06:12:528,0,-2.79415,-2.74357,68.6032,Q,Q
2023-03-14 18:06:12:538,0,-2.76448,-2.78173,68.6308,Q,Q
2023-03-14 18:06:12:548,0,-2.73125,-2.80712,68.6541,Q,Q
2023-03-14 18:06:12:557,0,-2.69158,-2.82747,68.6772,Q,Q
2023-03-14 18:06:12:568,0,-2.64985,-2.84037,68.6962,Q,Q
2023-03-14 18:06:12:578,0,-2.60543,-2.84875,68.717,Q,Q
2023-03-14 18:06:12:588,0,-2.55911,-2.85386,68.7361,Q,Q
2023-03-14 18:06:12:598,0,-2.5133,-2.85354,68.7509,Q,Q
2023-03-14 18:06:12:608,0,-2.47484,-2.85202,68.7646,Q,Q
2023-03-14 18:06:12:618,0,-2.4415,-2.84796,68.7741,Q,Q
2023-03-14 18:06:12:628,0,-2.41293,-2.8433,68.7865,Q,Q
2023-03-14 18:06:12:638,0,-2.39067,-2.83644,68.7941,Q,Q
2023-03-14 18:06:12:648,0,-2.36738,-2.83407,68.802,Q,Q
2023-03-14 18:06:12:658,0,-2.34369,-2.83203,68.811,Q,Q
2023-03-14 18:06:12:668,0,-2.31963,-2.82972,68.8297,Q,Q
2023-03-14 18:06:12:678,0,-2.29826,-2.82999,68.8502,Q,Q
2023-03-14 18:06:12:688,0,-2.27501,-2.82931,68.8733,Q,Q
2023-03-14 18:06:12:698,0,-2.25313,-2.82722,68.8975,Q,Q
2023-03-14 18:06:12:708,0,-2.23716,-2.82622,68.9272,Q,Q
2023-03-14 18:06:12:718,0,-2.22766,-2.82714,68.9628,Q,Q
2023-03-14 18:06:12:728,0,-2.22239,-2.82887,69.0021,Q,Q
2023-03-14 18:06:12:738,0,-2.22233,-2.83174,69.0453,Q,Q
2023-03-14 18:06:12:748,0,-2.22639,-2.83276,69.0916,Q,Q
2023-03-14 18:06:12:758,0,-2.22722,-2.83144,69.1416,Q,Q
2023-03-14 18:06:12:768,0,-2.23278,-2.83396,69.1972,Q,Q
2023-03-14 18:06:12:778,0,-2.23266,-2.83291,69.2538,Q,Q
2023-03-14 18:06:12:788,0,-2.22728,-2.82858,69.3073,Q,Q
2023-03-14 18:06:12:798,0,-2.22129,-2.82183,69.3618,Q,Q
2023-03-14 18:06:12:807,0,-2.21439,-2.81723,69.4137,Q,Q
2023-03-14 18:06:12:817,0,-2.19644,-2.81279,69.4647,Q,Q
2023-03-14 18:06:12:828,0,-2.17628,-2.81378,69.5179,Q,Q
2023-03-14 18:06:12:838,0,-2.15172,-2.8173,69.5643,Q,Q
2023-03-14 18:06:12:848,0,-2.12563,-2.82632,69.6149,Q,Q
2023-03-14 18:06:12:858,0,-2.10196,-2.84007,69.663,Q,Q
2023-03-14 18:06:12:868,0,-2.07922,-2.85718,69.7075,Q,Q
2023-03-14 18:06:12:878,0,-2.06005,-2.87624,69.7513,Q,Q
2023-03-14 18:06:12:888,0,-2.03329,-2.89581,69.7963,Q,Q
2023-03-14 18:06:12:898,0,-2.00795,-2.92017,69.838,Q,Q
2023-03-14 18:06:12:908,0,-1.9898,-2.94762,69.8793,Q,Q
2023-03-14 18:06:12:918,0,-1.97769,-2.97546,69.9165,Q,Q
2023-03-14 18:06:12:928,0,-1.96986,-3.00975,69.9544,Q,Q
2023-03-14 18:06:12:938,0,-1.96417,-3.04695,69.9901,Q,Q
2023-03-14 18:06:12:948,0,-1.95686,-3.08392,70.0278,Q,Q
2023-03-14 18:06:12:958,0,-1.95525,-3.12019,70.0699,Q,Q
2023-03-14 18:06:12:968,0,-1.95149,-3.15583,70.1123,Q,Q
2023-03-14 18:06:12:978,0,-1.94267,-3.18974,70.1557,Q,Q
2023-03-14 18:06:12:988,0,-1.93567,-3.21817,70.2086,Q,Q
2023-03-14 18:06:12:998,0,-1.92315,-3.24588,70.2593,Q,Q
2023-03-14 18:06:13:8,0,-1.90465,-3.26805,70.3078,Q,Q
2023-03-14 18:06:13:18,0,-1.88275,-3.28969,70.3572,Q,Q
2023-03-14 18:06:13:28,0,-1.86418,-3.30617,70.4075,Q,Q
2023-03-14 18:06:13:38,0,-1.84783,-3.32153,70.4518,Q,Q
2023-03-14 18:06:13:48,0,-1.8356,-3.34084,70.4906,Q,Q
2023-03-14 18:06:13:58,0,-1.82678,-3.36078,70.526,Q,Q
2023-03-14 18:06:13:68,0,-1.82056,-3.3872,70.5546,Q,Q
2023-03-14 18:06:13:78,0,-1.81853,-3.41268,70.5795,Q,Q
2023-03-14 18:06:13:88,0,-1.816,-3.43021,70.5977,Q,Q
2023-03-14 18:06:13:98,0,-1.81448,-3.4512,70.6119,Q,Q
2023-03-14 18:06:13:108,0,-1.81484,-3.46922,70.6216,Q,Q
2023-03-14 18:06:13:118,0,-1.81858,-3.48766,70.6292,Q,Q
2023-03-14 18:06:13:128,0,-1.82947,-3.50151,70.6311,Q,Q
2023-03-14 18:06:13:138,0,-1.83861,-3.50944,70.631,Q,Q
2023-03-14 18:06:13:148,0,-1.84932,-3.51795,70.6275,Q,Q
2023-03-14 18:06:13:158,0,-1.85205,-3.52353,70.6201,Q,Q
2023-03-14 18:06:13:168,0,-1.84974,-3.52822,70.6133,Q,Q
2023-03-14 18:06:13:178,0,-1.84067,-3.53342,70.6056,Q,Q
2023-03-14 18:06:13:188,0,-1.83314,-3.53429,70.5948,Q,Q
2023-03-14 18:06:13:198,0,-1.82506,-3.53296,70.5852,Q,Q
2023-03-14 18:06:13:208,0,-1.8108,-3.53082,70.5746,Q,Q
2023-03-14 18:06:13:218,0,-1.79494,-3.52461,70.5632,Q,Q
2023-03-14 18:06:13:228,0,-1.78068,-3.52235,70.5511,Q,Q
2023-03-14 18:06:13:238,0,-1.76937,-3.51694,70.5362,Q,Q
2023-03-14 18:06:13:248,0,-1.75612,-3.51456,70.5214,Q,Q
2023-03-14 18:06:13:258,0,-1.74009,-3.51043,70.5042,Q,Q
2023-03-14 18:06:13:268,0,-1.72703,-3.50724,70.4861,Q,Q
2023-03-14 18:06:13:278,0,-1.70818,-3.49708,70.4685,Q,Q
2023-03-14 18:06:13:288,0,-1.68356,-3.48736,70.4539,Q,Q
2023-03-14 18:06:13:298,0,-1.65251,-3.47731,70.4401,Q,Q
2023-03-14 18:06:13:308,0,-1.62072,-3.46945,70.4248,Q,Q
2023-03-14 18:06:13:318,0,-1.59678,-3.4619,70.4087,Q,Q
2023-03-14 18:06:13:328,0,-1.57517,-3.45717,70.3906,Q,Q
2023-03-14 18:06:13:338,0,-1.55711,-3.45392,70.3722,Q,Q
2023-03-14 18:06:13:348,0,-1.54193,-3.44715,70.3518,Q,Q
2023-03-14 18:06:13:358,0,-1.52916,-3.43808,70.3251,Q,Q
2023-03-14 18:06:13:368,0,-1.52073,-3.42776,70.2842,Q,Q
2023-03-14 18:06:13:378,0,-1.51709,-3.41956,70.2323,Q,Q
2023-03-14 18:06:13:388,0,-1.52224,-3.41007,70.1683,Q,Q
2023-03-14 18:06:13:398,0,-1.53584,-3.39855,70.0933,Q,Q
2023-03-14 18:06:13:408,0,-1.54816,-3.38921,70.0103,Q,Q
2023-03-14 18:06:13:418,0,-1.56586,-3.38459,69.9219,Q,Q
2023-03-14 18:06:13:428,0,-1.58132,-3.38376,69.8327,Q,Q
2023-03-14 18:06:13:438,0,-1.59824,-3.38299,69.7386,Q,Q
2023-03-14 18:06:13:448,0,-1.61724,-3.37865,69.638,Q,Q
2023-03-14 18:06:13:458,0,-1.63679,-3.36956,69.526,Q,Q
2023-03-14 18:06:13:468,0,-1.66519,-3.35497,69.405,Q,Q
2023-03-14 18:06:13:478,0,-1.6943,-3.33502,69.2733,Q,Q
2023-03-14 18:06:13:488,0,-1.72743,-3.32018,69.1384,Q,Q
2023-03-14 18:06:13:498,0,-1.76632,-3.31104,69.0037,Q,Q
2023-03-14 18:06:13:508,0,-1.80854,-3.31041,68.8632,Q,Q
2023-03-14 18:06:13:518,0,-1.8522,-3.30967,68.7208,Q,Q
2023-03-14 18:06:13:528,0,-1.89014,-3.30935,68.5761,Q,Q
2023-03-14 18:06:13:538,0,-1.92078,-3.30847,68.435,Q,Q
2023-03-14 18:06:13:548,0,-1.94863,-3.30871,68.2989,Q,Q
2023-03-14 18:06:13:558,0,-1.96946,-3.30908,68.1723,Q,Q
2023-03-14 18:06:13:568,0,-1.98854,-3.30648,68.0588,Q,Q
2023-03-14 18:06:13:578,0,-2.00665,-3.30783,67.9567,Q,Q
2023-03-14 18:06:13:588,0,-2.02188,-3.30528,67.866,Q,Q
2023-03-14 18:06:13:598,0,-2.03251,-3.30432,67.7825,Q,Q
2023-03-14 18:06:13:608,0,-2.04165,-3.30377,67.71,Q,Q
2023-03-14 18:06:13:618,0,-2.05423,-3.30186,67.6425,Q,Q
2023-03-14 18:06:13:628,0,-2.06454,-3.29952,67.5849,Q,Q
2023-03-14 18:06:13:638,0,-2.07481,-3.29766,67.5282,Q,Q
2023-03-14 18:06:13:648,0,-2.08571,-3.29801,67.4768,Q,Q
2023-03-14 18:06:13:658,0,-2.09709,-3.2965,67.4286,Q,Q
2023-03-14 18:06:13:668,0,-2.1089,-3.29619,67.3821,Q,Q
2023-03-14 18:06:13:678,0,-2.12357,-3.29391,67.3333,Q,Q
2023-03-14 18:06:13:688,0,-2.13477,-3.29089,67.2783,Q,Q
2023-03-14 18:06:13:698,0,-2.14612,-3.29008,67.2141,Q,Q
2023-03-14 18:06:13:708,0,-2.15824,-3.28843,67.1424,Q,Q
2023-03-14 18:06:13:718,0,-2.17216,-3.28781,67.0642,Q,Q
2023-03-14 18:06:13:728,0,-2.18084,-3.28237,66.9814,Q,Q
2023-03-14 18:06:13:738,0,-2.1863,-3.28017,66.8964,Q,Q
2023-03-14 18:06:13:748,0,-2.1896,-3.27913,66.8069,Q,Q
2023-03-14 18:06:13:758,0,-2.19033,-3.28381,66.7196,Q,Q
2023-03-14 18:06:13:768,0,-2.19376,-3.28445,66.6282,Q,Q
2023-03-14 18:06:13:778,0,-2.19328,-3.28753,66.5336,Q,Q
2023-03-14 18:06:13:788,0,-2.1967,-3.2887,66.4425,Q,Q
2023-03-14 18:06:13:798,0,-2.2049,-3.29217,66.3477,Q,Q
2023-03-14 18:06:13:808,0,-2.21621,-3.29851,66.2554,Q,Q
2023-03-14 18:06:13:818,0,-2.23267,-3.3066,66.163,Q,Q
2023-03-14 18:06:13:827,0,-2.24495,-3.30757,66.0736,Q,Q
2023-03-14 18:06:13:838,0,-2.25874,-3.30596,65.9804,Q,Q
2023-03-14 18:06:13:848,0,-2.27417,-3.30332,65.8885,Q,Q
2023-03-14 18:06:13:858,0,-2.2892,-3.29641,65.7907,Q,Q
2023-03-14 18:06:13:868,0,-2.30234,-3.29145,65.6744,Q,Q
2023-03-14 18:06:13:878,0,-2.31739,-3.28482,65.5335,Q,Q
2023-03-14 18:06:13:888,0,-2.33521,-3.27534,65.3671,Q,Q
2023-03-14 18:06:13:898,0,-2.36006,-3.27286,65.1709,Q,Q
2023-03-14 18:06:13:908,0,-2.39155,-3.2759,64.9401,Q,Q
2023-03-14 18:06:13:918,0,-2.42894,-3.28964,64.6579,Q,Q
2023-03-14 18:06:13:928,0,-2.47279,-3.30514,64.321,Q,Q
2023-03-14 18:06:13:938,0,-2.52524,-3.32998,63.9347,Q,Q
2023-03-14 18:06:13:948,0,-2.59563,-3.37532,63.5118,Q,Q
2023-03-14 18:06:13:958,0,-2.67513,-3.44424,63.0291,Q,Q
2023-03-14 18:06:13:968,0,-2.76481,-3.52712,62.4307,Q,Q
2023-03-14 18:06:13:978,0,-2.85166,-3.61112,61.6497,Q,Q
2023-03-14 18:06:13:988,0,-2.91479,-3.68945,60.6366,Q,Q
2023-03-14 18:06:13:998,0,-2.95109,-3.7767,59.4272,Q,Q
2023-03-14 18:06:14:8,0,-2.96654,-3.89771,58.0772,Q,Q
2023-03-14 18:06:14:18,0,-2.98568,-4.05558,56.6006,Q,Q
2023-03-14 18:06:14:28,0,-3.02845,-4.23643,54.9733,Q,Q
2023-03-14 18:06:14:38,0,-3.08229,-4.43108,53.1669,Q,Q
2023-03-14 18:06:14:48,0,-3.13797,-4.62887,51.1534,Q,Q
2023-03-14 18:06:14:58,0,-3.18293,-4.80573,48.9,Q,Q
2023-03-14 18:06:14:68,0,-3.18944,-4.95397,46.4275,Q,Q
2023-03-14 18:06:14:78,0,-3.15829,-5.08278,43.8127,Q,Q
2023-03-14 18:06:14:88,0,-3.11023,-5.2088,41.1438,Q,Q
2023-03-14 18:06:14:98,0,-3.07251,-5.33081,38.4573,Q,Q
2023-03-14 18:06:14:108,0,-3.07666,-5.44182,35.7675,Q,Q
2023-03-14 18:06:14:118,0,-3.12228,-5.53566,33.0841,Q,Q
2023-03-14 18:06:14:128,0,-3.19178,-5.61622,30.4277,Q,Q
2023-03-14 18:06:14:138,0,-3.2791,-5.6623,27.8323,Q,Q
2023-03-14 18:06:14:148,0,-3.36879,-5.67224,25.329,Q,Q
2023-03-14 18:06:14:158,0,-3.46242,-5.63491,22.9571,Q,Q
2023-03-14 18:06:14:168,0,-3.56526,-5.5496,20.771,Q,Q
2023-03-14 18:06:14:178,0,-3.68525,-5.42628,18.8055,Q,Q
2023-03-14 18:06:14:188,0,-3.83473,-5.26211,17.0758,Q,Q
2023-03-14 18:06:14:198,0,-4.02731,-5.06976,15.5754,Q,Q
2023-03-14 18:06:14:208,0,-4.27128,-4.85835,14.2794,Q,Q
2023-03-14 18:06:14:218,0,-4.57884,-4.64961,13.1783,Q,Q
2023-03-14 18:06:14:228,0,-4.94303,-4.45688,12.2425,Q,Q
2023-03-14 18:06:14:238,0,-5.3426,-4.28481,11.4406,Q,Q
2023-03-14 18:06:14:248,0,-5.78051,-4.13887,10.7506,Q,Q
2023-03-14 18:06:14:258,0,-6.25794,-4.01846,10.1538,Q,Q
2023-03-14 18:06:14:268,0,-6.76358,-3.9262,9.64241,Q,Q
2023-03-14 18:06:14:278,0,-7.2757,-3.85645,9.19318,Q,Q
2023-03-14 18:06:14:287,0,-7.74377,-3.80221,8.78102,Q,Q
2023-03-14 18:06:14:297,0,-8.131,-3.74819,8.39061,Q,Q
2023-03-14 18:06:14:308,0,-8.42091,-3.68963,8.01049,Q,Q
2023-03-14 18:06:14:318,0,-8.61373,-3.62911,7.63456,Q,Q
2023-03-14 18:06:14:328,0,-8.73781,-3.56596,7.26812,Q,Q
2023-03-14 18:06:14:338,0,-8.82377,-3.50812,6.91769,Q,Q
2023-03-14 18:06:14:348,0,-8.89134,-3.46836,6.59225,Q,Q
2023-03-14 18:06:14:358,0,-8.95425,-3.4457,6.2989,Q,Q
2023-03-14 18:06:14:368,0,-9.01754,-3.446,6.0411,Q,Q
2023-03-14 18:06:14:378,0,-9.07423,-3.46011,5.81576,Q,Q
2023-03-14 18:06:14:388,0,-9.11588,-3.47059,5.6125,Q,Q
2023-03-14 18:06:14:398,0,-9.12824,-3.47139,5.4249,Q,Q
2023-03-14 18:06:14:408,0,-9.11151,-3.46243,5.25664,Q,Q
2023-03-14 18:06:14:418,0,-9.07889,-3.44284,5.10893,Q,Q
2023-03-14 18:06:14:428,0,-9.04708,-3.41942,4.98987,Q,Q
2023-03-14 18:06:14:438,0,-9.01703,-3.39767,4.90387,Q,Q
2023-03-14 18:06:14:448,0,-8.99954,-3.37127,4.8434,Q,Q
2023-03-14 18:06:14:458,0,-8.98351,-3.33966,4.80074,Q,Q
2023-03-14 18:06:14:468,0,-8.96042,-3.30431,4.77141,Q,Q
2023-03-14 18:06:14:478,0,-8.922,-3.26361,4.74919,Q,Q
2023-03-14 18:06:14:488,0,-8.872,-3.21765,4.71803,Q,Q
2023-03-14 18:06:14:498,0,-8.81617,-3.16521,4.68718,Q,Q
2023-03-14 18:06:14:508,0,-8.7555,-3.11223,4.66014,Q,Q
2023-03-14 18:06:14:518,0,-8.70884,-3.06759,4.64807,Q,Q
2023-03-14 18:06:14:528,0,-8.67967,-3.02774,4.64019,Q,Q
2023-03-14 18:06:14:538,0,-8.6657,-2.99444,4.63473,Q,Q
2023-03-14 18:06:14:548,0,-8.66615,-2.95766,4.62666,Q,Q
2023-03-14 18:06:14:558,0,-8.66993,-2.91896,4.60375,Q,Q
2023-03-14 18:06:14:568,0,-8.67041,-2.87025,4.57691,Q,Q
2023-03-14 18:06:14:578,0,-8.66949,-2.81744,4.55298,Q,Q
2023-03-14 18:06:14:588,0,-8.66775,-2.75916,4.53778,Q,Q
2023-03-14 18:06:14:598,0,-8.674,-2.6927,4.53188,Q,Q
2023-03-14 18:06:14:608,0,-8.68831,-2.62033,4.53822,Q,Q
2023-03-14 18:06:14:618,0,-8.70696,-2.54809,4.54861,Q,Q
2023-03-14 18:06:14:628,0,-8.73397,-2.47325,4.56609,Q,Q
2023-03-14 18:06:14:638,0,-8.75661,-2.39472,4.58555,Q,Q
2023-03-14 18:06:14:648,0,-8.77506,-2.30515,4.60603,Q,Q
2023-03-14 18:06:14:658,0,-8.77839,-2.20136,4.63709,Q,Q
2023-03-14 18:06:14:668,0,-8.77187,-2.09262,4.68074,Q,Q
2023-03-14 18:06:14:678,0,-8.76041,-1.98234,4.73263,Q,Q
2023-03-14 18:06:14:688,0,-8.7395,-1.88325,4.79492,Q,Q
2023-03-14 18:06:14:698,0,-8.71711,-1.79289,4.85084,Q,Q
2023-03-14 18:06:14:708,0,-8.68176,-1.70268,4.88824,Q,Q
2023-03-14 18:06:14:718,0,-8.65642,-1.59527,4.91244,Q,Q
2023-03-14 18:06:14:728,0,-8.70201,-1.48364,4.95084,Q,Q
2023-03-14 18:06:14:738,0,-8.82398,-1.40726,5.00107,Q,Q
2023-03-14 18:06:14:748,0,-8.93991,-1.3743,5.05806,Q,Q
2023-03-14 18:06:14:758,0,-9.00738,-1.36099,5.11173,Q,Q
2023-03-14 18:06:14:768,0,-9.04202,-1.34154,5.14494,Q,Q
2023-03-14 18:06:14:778,0,-9.06961,-1.3198,5.15831,Q,Q
2023-03-14 18:06:14:788,0,-9.10494,-1.29995,5.16322,Q,Q
2023-03-14 18:06:14:798,0,-9.13124,-1.29008,5.15485,Q,Q
2023-03-14 18:06:14:808,0,-9.13447,-1.28231,5.12901,Q,Q
2023-03-14 18:06:14:818,0,-9.10968,-1.27593,5.08667,Q,Q
2023-03-14 18:06:14:828,0,-9.07426,-1.27291,5.04152,Q,Q
2023-03-14 18:06:14:838,0,-9.04061,-1.27581,4.99928,Q,Q
2023-03-14 18:06:14:848,0,-9.00717,-1.2845,4.95694,Q,Q
2023-03-14 18:06:14:857,0,-8.98426,-1.2911,4.90896,Q,Q
2023-03-14 18:06:14:867,0,-8.96647,-1.29655,4.8488,Q,Q
2023-03-14 18:06:14:878,0,-8.93891,-1.30822,4.78611,Q,Q
2023-03-14 18:06:14:888,0,-8.91037,-1.32025,4.71991,Q,Q
2023-03-14 18:06:14:898,0,-8.88629,-1.32541,4.64579,Q,Q
2023-03-14 18:06:14:908,0,-8.86349,-1.33452,4.5741,Q,Q
2023-03-14 18:06:14:918,0,-8.8453,-1.33765,4.50086,Q,Q
2023-03-14 18:06:14:928,0,-8.83043,-1.3331,4.42863,Q,Q
2023-03-14 18:06:14:938,0,-8.80977,-1.32572,4.35244,Q,Q
2023-03-14 18:06:14:948,0,-8.77789,-1.31074,4.27135,Q,Q
2023-03-14 18:06:14:958,0,-8.75556,-1.29177,4.19425,Q,Q
2023-03-14 18:06:14:968,0,-8.74821,-1.27231,4.12283,Q,Q
2023-03-14 18:06:14:978,0,-8.75958,-1.26016,4.06221,Q,Q
2023-03-14 18:06:14:988,0,-8.78168,-1.252,3.99432,Q,Q
2023-03-14 18:06:14:998,0,-8.79152,-1.2425,3.91681,Q,Q
2023-03-14 18:06:15:8,0,-8.78099,-1.23238,3.83446,Q,Q
2023-03-14 18:06:15:18,0,-8.76628,-1.21978,3.75638,Q,Q
2023-03-14 18:06:15:28,0,-8.75413,-1.20619,3.67345,Q,Q
2023-03-14 18:06:15:38,0,-8.74001,-1.19266,3.58832,Q,Q
2023-03-14 18:06:15:48,0,-8.73053,-1.18933,3.50444,Q,Q
2023-03-14 18:06:15:58,0,-8.72657,-1.19352,3.42895,Q,Q
2023-03-14 18:06:15:68,0,-8.72308,-1.19717,3.35565,Q,Q
2023-03-14 18:06:15:78,0,-8.71514,-1.20968,3.2773,Q,Q
2023-03-14 18:06:15:88,0,-8.70593,-1.22126,3.19769,Q,Q
2023-03-14 18:06:15:98,0,-8.69729,-1.23146,3.11291,Q,Q
2023-03-14 18:06:15:108,0,-8.69299,-1.24266,3.02672,Q,Q
2023-03-14 18:06:15:118,0,-8.69054,-1.25081,2.94305,Q,Q
2023-03-14 18:06:15:128,0,-8.69404,-1.26005,2.862,Q,Q
2023-03-14 18:06:15:138,0,-8.69713,-1.27322,2.7866,Q,Q
2023-03-14 18:06:15:148,0,-8.70268,-1.28381,2.71044,Q,Q
2023-03-14 18:06:15:158,0,-8.71772,-1.29354,2.63784,Q,Q
2023-03-14 18:06:15:168,0,-8.7343,-1.30112,2.56605,Q,Q
2023-03-14 18:06:15:178,0,-8.74963,-1.30386,2.49157,Q,Q
2023-03-14 18:06:15:188,0,-8.75939,-1.31001,2.41882,Q,Q
2023-03-14 18:06:15:198,0,-8.76693,-1.31725,2.35328,Q,Q
2023-03-14 18:06:15:208,0,-8.77373,-1.32562,2.28607,Q,Q
2023-03-14 18:06:15:218,0,-8.78306,-1.32881,2.22037,Q,Q
2023-03-14 18:06:15:228,0,-8.79367,-1.33165,2.15952,Q,Q
2023-03-14 18:06:15:238,0,-8.80975,-1.33449,2.10417,Q,Q
2023-03-14 18:06:15:248,0,-8.82957,-1.33962,2.05265,Q,Q
2023-03-14 18:06:15:258,0,-8.8443,-1.34599,2.00178,Q,Q
2023-03-14 18:06:15:268,0,-8.86383,-1.34805,1.95537,Q,Q
2023-03-14 18:06:15:278,0,-8.8844,-1.34552,1.91494,Q,Q
2023-03-14 18:06:15:288,0,-8.90152,-1.34395,1.87968,Q,Q
2023-03-14 18:06:15:298,0,-8.91317,-1.34278,1.83946,Q,Q
2023-03-14 18:06:15:308,0,-8.91953,-1.33886,1.79852,Q,Q
2023-03-14 18:06:15:318,0,-8.92746,-1.3383,1.76293,Q,Q
2023-03-14 18:06:15:328,0,-8.93206,-1.3387,1.72264,Q,Q
2023-03-14 18:06:15:338,0,-8.93241,-1.33986,1.67645,Q,Q
2023-03-14 18:06:15:348,0,-8.93464,-1.34532,1.62374,Q,Q
2023-03-14 18:06:15:358,0,-8.93676,-1.35366,1.5744,Q,Q
2023-03-14 18:06:15:368,0,-8.9457,-1.36587,1.52717,Q,Q
2023-03-14 18:06:15:378,0,-8.96042,-1.37733,1.48557,Q,Q
2023-03-14 18:06:15:388,0,-8.97573,-1.39143,1.45283,Q,Q
2023-03-14 18:06:15:398,0,-8.99313,-1.40086,1.41844,Q,Q
2023-03-14 18:06:15:408,0,-9.01088,-1.41088,1.38794,Q,Q
2023-03-14 18:06:15:418,0,-9.0318,-1.41804,1.35242,Q,Q
2023-03-14 18:06:15:428,0,-9.04758,-1.42362,1.31676,Q,Q
2023-03-14 18:06:15:438,0,-9.06185,-1.42789,1.28026,Q,Q
2023-03-14 18:06:15:448,0,-9.0787,-1.43633,1.24795,Q,Q
2023-03-14 18:06:15:458,0,-9.09323,-1.4521,1.21481,Q,Q
2023-03-14 18:06:15:468,0,-9.10726,-1.4668,1.18062,Q,Q
2023-03-14 18:06:15:478,0,-9.12059,-1.48099,1.14578,Q,Q
2023-03-14 18:06:15:488,0,-9.13525,-1.49419,1.11673,Q,Q
2023-03-14 18:06:15:498,0,-9.14773,-1.50295,1.08996,Q,Q
2023-03-14 18:06:15:508,0,-9.15844,-1.51659,1.07192,Q,Q
2023-03-14 18:06:15:518,0,-9.17072,-1.52815,1.06458,Q,Q
2023-03-14 18:06:15:528,0,-9.18347,-1.53882,1.05793,Q,Q
2023-03-14 18:06:15:538,0,-9.19989,-1.55052,1.05493,Q,Q
2023-03-14 18:06:15:548,0,-9.21219,-1.55932,1.05461,Q,Q
2023-03-14 18:06:15:558,0,-9.22623,-1.56364,1.05484,Q,Q
2023-03-14 18:06:15:568,0,-9.24368,-1.57392,1.05125,Q,Q
2023-03-14 18:06:15:578,0,-9.25472,-1.57459,1.04237,Q,Q
2023-03-14 18:06:15:588,0,-9.261,-1.57645,1.02922,Q,Q
2023-03-14 18:06:15:598,0,-9.27048,-1.58325,1.01361,Q,Q
2023-03-14 18:06:15:608,0,-9.28106,-1.59167,0.996792,Q,Q
2023-03-14 18:06:15:618,0,-9.28934,-1.60153,0.977279,Q,Q
2023-03-14 18:06:15:628,0,-9.29544,-1.60606,0.955564,Q,Q
2023-03-14 18:06:15:638,0,-9.30391,-1.61368,0.934233,Q,Q
2023-03-14 18:06:15:648,0,-9.31403,-1.6208,0.91385,Q,Q
2023-03-14 18:06:15:658,0,-9.3238,-1.62918,0.889703,Q,Q
2023-03-14 18:06:15:668,0,-9.33148,-1.63831,0.861302,Q,Q
2023-03-14 18:06:15:678,0,-9.33873,-1.64342,0.827038,Q,Q
2023-03-14 18:06:15:688,0,-9.34253,-1.64873,0.794475,Q,Q
2023-03-14 18:06:15:698,0,-9.33487,-1.65772,0.766021,Q,Q
2023-03-14 18:06:15:708,0,-9.3259,-1.66452,0.743561,Q,Q
2023-03-14 18:06:15:718,0,-9.32122,-1.66846,0.717225,Q,Q
2023-03-14 18:06:15:728,0,-9.31939,-1.67086,0.690026,Q,Q
2023-03-14 18:06:15:738,0,-9.3183,-1.66831,0.661343,Q,Q
2023-03-14 18:06:15:748,0,-9.31183,-1.66463,0.630548,Q,Q
2023-03-14 18:06:15:758,0,-9.30371,-1.66555,0.604196,Q,Q
2023-03-14 18:06:15:768,0,-9.29225,-1.66881,0.575611,Q,Q
2023-03-14 18:06:15:778,0,-9.28253,-1.6701,0.545928,Q,Q
2023-03-14 18:06:15:788,0,-9.27645,-1.67187,0.513449,Q,Q
2023-03-14 18:06:15:798,0,-9.27261,-1.67836,0.484148,Q,Q
2023-03-14 18:06:15:808,0,-9.27272,-1.68568,0.459344,Q,Q
2023-03-14 18:06:15:818,0,-9.2799,-1.6921,0.437676,Q,Q
2023-03-14 18:06:15:828,0,-9.28793,-1.69901,0.408602,Q,Q
2023-03-14 18:06:15:838,0,-9.29477,-1.70488,0.374483,Q,Q
2023-03-14 18:06:15:848,0,-9.29749,-1.7132,0.342388,Q,Q
2023-03-14 18:06:15:858,0,-9.29915,-1.72231,0.307488,Q,Q
2023-03-14 18:06:15:868,0,-9.30422,-1.72992,0.271913,Q,Q
2023-03-14 18:06:15:877,0,-9.30828,-1.74179,0.232541,Q,Q
2023-03-14 18:06:15:887,0,-9.31265,-1.75158,0.195712,Q,Q
2023-03-14 18:06:15:898,0,-9.3162,-1.76493,0.15885,Q,Q
2023-03-14 18:06:15:908,0,-9.31968,-1.77873,0.124437,Q,Q
2023-03-14 18:06:15:918,0,-9.32205,-1.78903,0.085607,Q,Q
2023-03-14 18:06:15:928,0,-9.32598,-1.80178,0.0517094,Q,Q
2023-03-14 18:06:15:938,0,-9.32538,-1.81242,0.0177446,Q,Q
2023-03-14 18:06:15:948,0,-9.32764,-1.82048,-0.0135775,Q,Q
2023-03-14 18:06:15:958,0,-9.33258,-1.83525,-0.0485141,Q,Q
2023-03-14 18:06:15:968,0,-9.33911,-1.85242,-0.0826049,Q,Q
2023-03-14 18:06:15:978,0,-9.34189,-1.86803,-0.117117,Q,Q
2023-03-14 18:06:15:988,0,-9.34472,-1.88093,-0.150368,Q,Q
2023-03-14 18:06:15:998,0,-9.3491,-1.89499,-0.18294,Q,Q
2023-03-14 18:06:16:8,0,-9.35016,-1.91183,-0.215396,Q,Q
2023-03-14 18:06:16:18,0,-9.35193,-1.93189,-0.245157,Q,Q
2023-03-14 18:06:16:28,0,-9.35807,-1.95293,-0.27585,Q,Q
2023-03-14 18:06:16:38,0,-9.35976,-1.97202,-0.312242,Q,Q
2023-03-14 18:06:16:48,0,-9.36394,-1.98657,-0.346159,Q,Q
2023-03-14 18:06:16:58,0,-9.36556,-2.00346,-0.380016,Q,Q
2023-03-14 18:06:16:68,0,-9.36817,-2.01838,-0.415433,Q,Q
2023-03-14 18:06:16:78,0,-9.37145,-2.03499,-0.451953,Q,Q
2023-03-14 18:06:16:88,0,-9.37513,-2.04523,-0.484483,Q,Q
2023-03-14 18:06:16:98,0,-9.37245,-2.05615,-0.514663,Q,Q
2023-03-14 18:06:16:108,0,-9.37409,-2.06887,-0.546486,Q,Q
2023-03-14 18:06:16:117,0,-9.3775,-2.0807,-0.581959,Q,Q
2023-03-14 18:06:16:128,0,-9.38182,-2.09521,-0.618618,Q,Q
2023-03-14 18:06:16:138,0,-9.38834,-2.1102,-0.652102,Q,Q
2023-03-14 18:06:16:148,0,-9.39007,-2.12598,-0.688446,Q,Q
2023-03-14 18:06:16:158,0,-9.39363,-2.1429,-0.725346,Q,Q
2023-03-14 18:06:16:168,0,-9.40044,-2.16056,-0.757046,Q,Q
2023-03-14 18:06:16:178,0,-9.40545,-2.17905,-0.784827,Q,Q
2023-03-14 18:06:16:188,0,-9.41528,-2.19274,-0.807597,Q,Q
2023-03-14 18:06:16:198,0,-9.4287,-2.20938,-0.830664,Q,Q
2023-03-14 18:06:16:208,0,-9.4417,-2.22125,-0.850655,Q,Q
2023-03-14 18:06:16:218,0,-9.45427,-2.23431,-0.87061,Q,Q
2023-03-14 18:06:16:228,0,-9.46496,-2.24983,-0.892098,Q,Q
2023-03-14 18:06:16:238,0,-9.47446,-2.26295,-0.916227,Q,Q
2023-03-14 18:06:16:248,0,-9.48315,-2.27129,-0.941818,Q,Q
2023-03-14 18:06:16:258,0,-9.49048,-2.28076,-0.969997,Q,Q
2023-03-14 18:06:16:268,0,-9.49639,-2.28954,-1.00051,Q,Q
2023-03-14 18:06:16:278,0,-9.49998,-2.30096,-1.03006,Q,Q
2023-03-14 18:06:16:288,0,-9.5045,-2.31269,-1.05879,Q,Q
2023-03-14 18:06:16:298,0,-9.50956,-2.32107,-1.08592,Q,Q
2023-03-14 18:06:16:308,0,-9.50928,-2.33008,-1.11722,Q,Q
2023-03-14 18:06:16:318,0,-9.51463,-2.3374,-1.1473,Q,Q
2023-03-14 18:06:16:328,0,-9.52332,-2.3437,-1.17535,Q,Q
