Timestamp_cmd,imu_cmd,roll_delta,pitch_delta,yaw_delta,voice_type,voice_length
2023-03-14 21:53:12:194,0,-9.83316,-2.0066,36.5476,Q,Q
2023-03-14 21:53:12:202,0,-9.83297,-2.01734,36.59,Q,Q
2023-03-14 21:53:12:212,0,-9.8247,-2.02958,36.6292,Q,Q
2023-03-14 21:53:12:223,0,-9.8028,-2.03647,36.6634,Q,Q
2023-03-14 21:53:12:233,0,-9.77793,-2.04608,36.6899,Q,Q
2023-03-14 21:53:12:243,0,-9.74352,-2.05101,36.7031,Q,Q
2023-03-14 21:53:12:253,0,-9.70857,-2.05248,36.7073,Q,Q
2023-03-14 21:53:12:263,0,-9.68042,-2.05327,36.7072,Q,Q
2023-03-14 21:53:12:272,0,-9.65829,-2.05342,36.6993,Q,Q
2023-03-14 21:53:12:283,0,-9.64303,-2.04412,36.6904,Q,Q
2023-03-14 21:53:12:293,0,-9.6294,-2.0282,36.6815,Q,Q
2023-03-14 21:53:12:303,0,-9.61932,-2.01457,36.6765,Q,Q
2023-03-14 21:53:12:313,0,-9.61033,-2.00498,36.6695,Q,Q
2023-03-14 21:53:12:323,0,-9.61104,-1.99463,36.6591,Q,Q
2023-03-14 21:53:12:333,0,-9.608,-1.97842,36.6422,Q,Q
2023-03-14 21:53:12:343,0,-9.60288,-1.96307,36.6167,Q,Q
2023-03-14 21:53:12:353,0,-9.59481,-1.94142,36.584,Q,Q
2023-03-14 21:53:12:363,0,-9.58841,-1.92054,36.5517,Q,Q
2023-03-14 21:53:12:373,0,-9.57809,-1.89684,36.5149,Q,Q
2023-03-14 21:53:12:383,0,-9.56721,-1.87876,36.4811,Q,Q
2023-03-14 21:53:12:393,0,-9.56,-1.8609,36.4464,Q,Q
2023-03-14 21:53:12:403,0,-9.55704,-1.84745,36.4179,Q,Q
2023-03-14 21:53:12:413,0,-9.55474,-1.83443,36.3976,Q,Q
2023-03-14 21:53:12:423,0,-9.56288,-1.82453,36.3862,Q,Q
2023-03-14 21:53:12:433,0,-9.57953,-1.81588,36.3846,Q,Q
2023-03-14 21:53:12:443,0,-9.60394,-1.81827,36.3939,Q,Q
2023-03-14 21:53:12:453,0,-9.63587,-1.82949,36.4156,Q,Q
2023-03-14 21:53:12:463,0,-9.66884,-1.85324,36.4536,Q,Q
2023-03-14 21:53:12:473,0,-9.7035,-1.88541,36.5004,Q,Q
2023-03-14 21:53:12:483,0,-9.73118,-1.91631,36.5595,Q,Q
2023-03-14 21:53:12:493,0,-9.75084,-1.95147,36.6235,Q,Q
2023-03-14 21:53:12:503,0,-9.7644,-1.98947,36.686,Q,Q
2023-03-14 21:53:12:513,0,-9.77457,-2.02929,36.7528,Q,Q
2023-03-14 21:53:12:523,0,-9.7801,-2.06594,36.8117,Q,Q
2023-03-14 21:53:12:533,0,-9.78221,-2.10001,36.8711,Q,Q
2023-03-14 21:53:12:543,0,-9.77494,-2.13718,36.9223,Q,Q
2023-03-14 21:53:12:553,0,-9.76236,-2.17387,36.9714,Q,Q
2023-03-14 21:53:12:563,0,-9.74358,-2.20403,37.0119,Q,Q
2023-03-14 21:53:12:573,0,-9.71663,-2.22607,37.0442,Q,Q
2023-03-14 21:53:12:582,0,-9.68518,-2.24317,37.0738,Q,Q
2023-03-14 21:53:12:592,0,-9.65109,-2.2528,37.0972,Q,Q
2023-03-14 21:53:12:602,0,-9.61809,-2.25542,37.1125,Q,Q
2023-03-14 21:53:12:612,0,-9.58457,-2.23757,37.1224,Q,Q
2023-03-14 21:53:12:622,0,-9.54641,-2.21893,37.126,Q,Q
2023-03-14 21:53:12:632,0,-9.51598,-2.2023,37.1252,Q,Q
2023-03-14 21:53:12:642,0,-9.49056,-2.18432,37.1211,Q,Q
2023-03-14 21:53:12:652,0,-9.47679,-2.17214,37.112,Q,Q
2023-03-14 21:53:12:662,0,-9.46901,-2.16073,37.1002,Q,Q
2023-03-14 21:53:12:672,0,-9.46021,-2.1495,37.0806,Q,Q
2023-03-14 21:53:12:682,0,-9.45599,-2.13815,37.0557,Q,Q
2023-03-14 21:53:12:693,0,-9.4595,-2.12475,37.034,Q,Q
2023-03-14 21:53:12:702,0,-9.46441,-2.11403,37.0106,Q,Q
2023-03-14 21:53:12:713,0,-9.47135,-2.10404,36.9852,Q,Q
2023-03-14 21:53:12:722,0,-9.47761,-2.09834,36.9602,Q,Q
2023-03-14 21:53:12:733,0,-9.48845,-2.10121,36.9427,Q,Q
2023-03-14 21:53:12:742,0,-9.50095,-2.1115,36.9307,Q,Q
2023-03-14 21:53:12:753,0,-9.51444,-2.12538,36.923,Q,Q
2023-03-14 21:53:12:763,0,-9.52877,-2.13965,36.9236,Q,Q
2023-03-14 21:53:12:772,0,-9.54519,-2.15305,36.9285,Q,Q
2023-03-14 21:53:12:782,0,-9.565,-2.16755,36.941,Q,Q
2023-03-14 21:53:12:792,0,-9.58451,-2.18182,36.9557,Q,Q
2023-03-14 21:53:12:802,0,-9.60127,-2.19618,36.9752,Q,Q
2023-03-14 21:53:12:812,0,-9.61975,-2.215,36.9979,Q,Q
2023-03-14 21:53:12:823,0,-9.63012,-2.23396,37.0228,Q,Q
2023-03-14 21:53:12:832,0,-9.64116,-2.25151,37.0481,Q,Q
2023-03-14 21:53:12:843,0,-9.65212,-2.26685,37.0693,Q,Q
2023-03-14 21:53:12:852,0,-9.66004,-2.28449,37.0891,Q,Q
2023-03-14 21:53:12:863,0,-9.66733,-2.29988,37.1059,Q,Q
2023-03-14 21:53:12:873,0,-9.67197,-2.31516,37.1178,Q,Q
2023-03-14 21:53:12:883,0,-9.66737,-2.33386,37.1286,Q,Q
2023-03-14 21:53:12:893,0,-9.6611,-2.35253,37.1406,Q,Q
2023-03-14 21:53:12:902,0,-9.6599,-2.36957,37.1512,Q,Q
2023-03-14 21:53:12:912,0,-9.65886,-2.38742,37.161,Q,Q
2023-03-14 21:53:12:922,0,-9.659,-2.40084,37.1702,Q,Q
2023-03-14 21:53:12:933,0,-9.66106,-2.41356,37.1796,Q,Q
2023-03-14 21:53:12:942,0,-9.65893,-2.42213,37.1839,Q,Q
2023-03-14 21:53:12:953,0,-9.65854,-2.42835,37.1887,Q,Q
2023-03-14 21:53:12:963,0,-9.65039,-2.43748,37.1926,Q,Q
2023-03-14 21:53:12:973,0,-9.64204,-2.44888,37.1886,Q,Q
2023-03-14 21:53:12:983,0,-9.62897,-2.46306,37.1844,Q,Q
2023-03-14 21:53:12:992,0,-9.61157,-2.47748,37.1766,Q,Q
2023-03-14 21:53:13:2,0,-9.5949,-2.49439,37.1609,Q,Q
2023-03-14 21:53:13:13,0,-9.57854,-2.51284,37.1412,Q,Q
2023-03-14 21:53:13:23,0,-9.56308,-2.52808,37.1185,Q,Q
2023-03-14 21:53:13:32,0,-9.55076,-2.54075,37.088,Q,Q
2023-03-14 21:53:13:43,0,-9.53484,-2.55353,37.0512,Q,Q
2023-03-14 21:53:13:53,0,-9.5195,-2.56813,37.0109,Q,Q
2023-03-14 21:53:13:63,0,-9.50192,-2.57555,36.9675,Q,Q
2023-03-14 21:53:13:73,0,-9.48595,-2.58471,36.9212,Q,Q
2023-03-14 21:53:13:82,0,-9.47499,-2.58974,36.8754,Q,Q
2023-03-14 21:53:13:93,0,-9.46761,-2.59065,36.8274,Q,Q
2023-03-14 21:53:13:102,0,-9.46212,-2.59201,36.7796,Q,Q
2023-03-14 21:53:13:113,0,-9.45596,-2.58693,36.7309,Q,Q
2023-03-14 21:53:13:123,0,-9.45593,-2.57962,36.6849,Q,Q
2023-03-14 21:53:13:133,0,-9.45418,-2.57411,36.6377,Q,Q
2023-03-14 21:53:13:143,0,-9.45396,-2.57014,36.5967,Q,Q
2023-03-14 21:53:13:153,0,-9.45485,-2.57089,36.5608,Q,Q
2023-03-14 21:53:13:163,0,-9.44507,-2.57967,36.5315,Q,Q
2023-03-14 21:53:13:173,0,-9.43981,-2.58485,36.5099,Q,Q
2023-03-14 21:53:13:183,0,-9.42801,-2.59105,36.4887,Q,Q
2023-03-14 21:53:13:193,0,-9.41613,-2.59443,36.47,Q,Q
2023-03-14 21:53:13:203,0,-9.40437,-2.59534,36.4492,Q,Q
2023-03-14 21:53:13:213,0,-9.39194,-2.59467,36.4294,Q,Q
2023-03-14 21:53:13:223,0,-9.38438,-2.5918,36.4098,Q,Q
2023-03-14 21:53:13:233,0,-9.38343,-2.58724,36.385,Q,Q
2023-03-14 21:53:13:243,0,-9.38555,-2.57596,36.3639,Q,Q
2023-03-14 21:53:13:253,0,-9.39217,-2.55795,36.3441,Q,Q
2023-03-14 21:53:13:262,0,-9.40575,-2.54174,36.3259,Q,Q
2023-03-14 21:53:13:273,0,-9.42122,-2.52297,36.3099,Q,Q
2023-03-14 21:53:13:282,0,-9.44106,-2.50268,36.2933,Q,Q
2023-03-14 21:53:13:293,0,-9.45599,-2.48341,36.2767,Q,Q
2023-03-14 21:53:13:303,0,-9.47128,-2.46074,36.2577,Q,Q
2023-03-14 21:53:13:312,0,-9.48685,-2.43549,36.2462,Q,Q
2023-03-14 21:53:13:322,0,-9.50781,-2.41622,36.2378,Q,Q
2023-03-14 21:53:13:332,0,-9.52888,-2.39317,36.23,Q,Q
2023-03-14 21:53:13:342,0,-9.55065,-2.37464,36.2291,Q,Q
2023-03-14 21:53:13:353,0,-9.57472,-2.36329,36.2336,Q,Q
2023-03-14 21:53:13:363,0,-9.59738,-2.34936,36.2398,Q,Q
2023-03-14 21:53:13:372,0,-9.61249,-2.33344,36.2431,Q,Q
2023-03-14 21:53:13:382,0,-9.62013,-2.31967,36.2463,Q,Q
2023-03-14 21:53:13:392,0,-9.62583,-2.30948,36.26,Q,Q
2023-03-14 21:53:13:402,0,-9.62421,-2.30373,36.2774,Q,Q
2023-03-14 21:53:13:412,0,-9.62587,-2.29137,36.2969,Q,Q
2023-03-14 21:53:13:422,0,-9.62723,-2.27583,36.3169,Q,Q
2023-03-14 21:53:13:432,0,-9.62754,-2.25361,36.3404,Q,Q
2023-03-14 21:53:13:442,0,-9.62768,-2.22439,36.3671,Q,Q
2023-03-14 21:53:13:452,0,-9.62847,-2.19134,36.4017,Q,Q
2023-03-14 21:53:13:462,0,-9.6297,-2.15767,36.4424,Q,Q
2023-03-14 21:53:13:472,0,-9.62913,-2.11936,36.4964,Q,Q
2023-03-14 21:53:13:482,0,-9.63032,-2.07664,36.5667,Q,Q
2023-03-14 21:53:13:492,0,-9.62959,-2.02628,36.6553,Q,Q
2023-03-14 21:53:13:502,0,-9.62887,-1.96799,36.7651,Q,Q
2023-03-14 21:53:13:512,0,-9.62585,-1.89839,36.898,Q,Q
2023-03-14 21:53:13:522,0,-9.6241,-1.8178,37.0499,Q,Q
2023-03-14 21:53:13:532,0,-9.61654,-1.72551,37.2186,Q,Q
2023-03-14 21:53:13:542,0,-9.61135,-1.63231,37.3992,Q,Q
2023-03-14 21:53:13:552,0,-9.61634,-1.5373,37.5936,Q,Q
2023-03-14 21:53:13:562,0,-9.6367,-1.44181,37.8009,Q,Q
2023-03-14 21:53:13:572,0,-9.66635,-1.35533,38.0118,Q,Q
2023-03-14 21:53:13:583,0,-9.69358,-1.27436,38.226,Q,Q
2023-03-14 21:53:13:592,0,-9.71826,-1.20107,38.4412,Q,Q
2023-03-14 21:53:13:603,0,-9.74171,-1.13097,38.6606,Q,Q
2023-03-14 21:53:13:612,0,-9.76564,-1.06683,38.8847,Q,Q
2023-03-14 21:53:13:622,0,-9.79009,-1.00857,39.1028,Q,Q
2023-03-14 21:53:13:632,0,-9.82263,-0.95994,39.3157,Q,Q
2023-03-14 21:53:13:642,0,-9.86512,-0.925678,39.5146,Q,Q
2023-03-14 21:53:13:652,0,-9.91877,-0.90568,39.695,Q,Q
2023-03-14 21:53:13:662,0,-9.9811,-0.899518,39.8465,Q,Q
2023-03-14 21:53:13:672,0,-10.0455,-0.907978,39.9578,Q,Q
2023-03-14 21:53:13:682,0,-10.1099,-0.936354,40.0466,Q,Q
2023-03-14 21:53:13:692,0,-10.1732,-0.986733,40.1171,Q,Q
2023-03-14 21:53:13:702,0,-10.2318,-1.05017,40.1731,Q,Q
2023-03-14 21:53:13:712,0,-10.2844,-1.11547,40.2036,Q,Q
2023-03-14 21:53:13:722,0,-10.3224,-1.17536,40.2171,Q,Q
2023-03-14 21:53:13:732,0,-10.3548,-1.22921,40.2146,Q,Q
2023-03-14 21:53:13:742,0,-10.3855,-1.27483,40.1962,Q,Q
2023-03-14 21:53:13:752,0,-10.4135,-1.31851,40.165,Q,Q
2023-03-14 21:53:13:763,0,-10.4275,-1.35248,40.1201,Q,Q
2023-03-14 21:53:13:773,0,-10.4344,-1.37853,40.063,Q,Q
2023-03-14 21:53:13:783,0,-10.4294,-1.40499,39.9996,Q,Q
2023-03-14 21:53:13:793,0,-10.4189,-1.42979,39.9355,Q,Q
2023-03-14 21:53:13:803,0,-10.4049,-1.4477,39.8709,Q,Q
2023-03-14 21:53:13:813,0,-10.3867,-1.45905,39.805,Q,Q
2023-03-14 21:53:13:823,0,-10.3724,-1.46058,39.7427,Q,Q
2023-03-14 21:53:13:833,0,-10.3623,-1.45553,39.6796,Q,Q
2023-03-14 21:53:13:843,0,-10.3572,-1.4429,39.6175,Q,Q
2023-03-14 21:53:13:853,0,-10.3569,-1.4268,39.5546,Q,Q
2023-03-14 21:53:13:863,0,-10.3643,-1.41408,39.4916,Q,Q
2023-03-14 21:53:13:873,0,-10.3792,-1.40685,39.4363,Q,Q
2023-03-14 21:53:13:883,0,-10.3946,-1.39925,39.3852,Q,Q
2023-03-14 21:53:13:893,0,-10.4022,-1.3877,39.3307,Q,Q
2023-03-14 21:53:13:903,0,-10.4011,-1.36626,39.28,Q,Q
2023-03-14 21:53:13:913,0,-10.3961,-1.34574,39.2307,Q,Q
2023-03-14 21:53:13:922,0,-10.391,-1.32359,39.1834,Q,Q
2023-03-14 21:53:13:932,0,-10.3875,-1.30411,39.1367,Q,Q
2023-03-14 21:53:13:943,0,-10.3881,-1.28798,39.0873,Q,Q
2023-03-14 21:53:13:952,0,-10.403,-1.281,39.0328,Q,Q
2023-03-14 21:53:13:962,0,-10.421,-1.276,38.978,Q,Q
2023-03-14 21:53:13:972,0,-10.438,-1.27201,38.9205,Q,Q
2023-03-14 21:53:13:982,0,-10.4454,-1.2677,38.8651,Q,Q
2023-03-14 21:53:13:992,0,-10.4505,-1.26438,38.8123,Q,Q
2023-03-14 21:53:14:2,0,-10.4561,-1.26538,38.7578,Q,Q
2023-03-14 21:53:14:12,0,-10.4656,-1.27183,38.7066,Q,Q
2023-03-14 21:53:14:23,0,-10.4811,-1.27603,38.6545,Q,Q
2023-03-14 21:53:14:32,0,-10.4941,-1.28267,38.5993,Q,Q
2023-03-14 21:53:14:42,0,-10.5065,-1.2982,38.5412,Q,Q
2023-03-14 21:53:14:52,0,-10.5212,-1.31525,38.4808,Q,Q
2023-03-14 21:53:14:62,0,-10.5325,-1.33592,38.4169,Q,Q
2023-03-14 21:53:14:73,0,-10.5424,-1.35877,38.3485,Q,Q
2023-03-14 21:53:14:83,0,-10.554,-1.38179,38.275,Q,Q
2023-03-14 21:53:14:93,0,-10.5711,-1.40741,38.1922,Q,Q
2023-03-14 21:53:14:103,0,-10.5951,-1.42693,38.1038,Q,Q
2023-03-14 21:53:14:112,0,-10.6301,-1.44542,38.0068,Q,Q
2023-03-14 21:53:14:123,0,-10.6746,-1.47305,37.9007,Q,Q
2023-03-14 21:53:14:133,0,-10.7371,-1.50504,37.7948,Q,Q
2023-03-14 21:53:14:143,0,-10.8106,-1.53828,37.6825,Q,Q
2023-03-14 21:53:14:153,0,-10.8884,-1.57025,37.5617,Q,Q
2023-03-14 21:53:14:163,0,-10.9647,-1.59452,37.4343,Q,Q
2023-03-14 21:53:14:173,0,-11.0487,-1.61505,37.306,Q,Q
2023-03-14 21:53:14:183,0,-11.1355,-1.63055,37.179,Q,Q
2023-03-14 21:53:14:193,0,-11.2269,-1.65042,37.0572,Q,Q
2023-03-14 21:53:14:203,0,-11.3241,-1.67667,36.9407,Q,Q
2023-03-14 21:53:14:213,0,-11.4342,-1.71325,36.829,Q,Q
2023-03-14 21:53:14:223,0,-11.5523,-1.75287,36.7295,Q,Q
2023-03-14 21:53:14:233,0,-11.6758,-1.79355,36.6444,Q,Q
2023-03-14 21:53:14:243,0,-11.7998,-1.84241,36.5663,Q,Q
2023-03-14 21:53:14:252,0,-11.9162,-1.89182,36.4983,Q,Q
2023-03-14 21:53:14:263,0,-12.0197,-1.94311,36.443,Q,Q
2023-03-14 21:53:14:273,0,-12.1115,-2.00249,36.4006,Q,Q
2023-03-14 21:53:14:283,0,-12.2001,-2.06241,36.3683,Q,Q
2023-03-14 21:53:14:292,0,-12.293,-2.12831,36.3501,Q,Q
2023-03-14 21:53:14:303,0,-12.3951,-2.19236,36.3349,Q,Q
2023-03-14 21:53:14:313,0,-12.5022,-2.25738,36.3247,Q,Q
2023-03-14 21:53:14:323,0,-12.6096,-2.32264,36.3184,Q,Q
2023-03-14 21:53:14:333,0,-12.7021,-2.38316,36.3155,Q,Q
2023-03-14 21:53:14:343,0,-12.7786,-2.44013,36.3172,Q,Q
2023-03-14 21:53:14:353,0,-12.8366,-2.49161,36.3181,Q,Q
2023-03-14 21:53:14:363,0,-12.8819,-2.52818,36.3227,Q,Q
2023-03-14 21:53:14:373,0,-12.9214,-2.55394,36.33,Q,Q
2023-03-14 21:53:14:383,0,-12.9658,-2.57275,36.3396,Q,Q
2023-03-14 21:53:14:393,0,-13.0149,-2.57835,36.3472,Q,Q
2023-03-14 21:53:14:403,0,-13.074,-2.57533,36.3501,Q,Q
2023-03-14 21:53:14:413,0,-13.1433,-2.56521,36.3581,Q,Q
2023-03-14 21:53:14:423,0,-13.2208,-2.55419,36.3661,Q,Q
2023-03-14 21:53:14:433,0,-13.3127,-2.54131,36.3779,Q,Q
2023-03-14 21:53:14:443,0,-13.4128,-2.53045,36.3927,Q,Q
2023-03-14 21:53:14:453,0,-13.516,-2.51948,36.4078,Q,Q
2023-03-14 21:53:14:463,0,-13.6172,-2.50484,36.4232,Q,Q
2023-03-14 21:53:14:473,0,-13.7195,-2.48786,36.4384,Q,Q
2023-03-14 21:53:14:483,0,-13.8131,-2.46862,36.4497,Q,Q
2023-03-14 21:53:14:493,0,-13.8992,-2.44569,36.457,Q,Q
2023-03-14 21:53:14:503,0,-13.9767,-2.42032,36.4628,Q,Q
2023-03-14 21:53:14:513,0,-14.0481,-2.39621,36.4686,Q,Q
2023-03-14 21:53:14:523,0,-14.1155,-2.37894,36.4735,Q,Q
2023-03-14 21:53:14:533,0,-14.1727,-2.36587,36.4763,Q,Q
2023-03-14 21:53:14:543,0,-14.2209,-2.35542,36.4748,Q,Q
2023-03-14 21:53:14:553,0,-14.258,-2.33734,36.4772,Q,Q
2023-03-14 21:53:14:563,0,-14.2838,-2.32538,36.4812,Q,Q
2023-03-14 21:53:14:573,0,-14.3062,-2.30802,36.4903,Q,Q
2023-03-14 21:53:14:583,0,-14.3318,-2.28803,36.4963,Q,Q
2023-03-14 21:53:14:593,0,-14.3511,-2.26435,36.5081,Q,Q
2023-03-14 21:53:14:603,0,-14.3677,-2.23758,36.5171,Q,Q
2023-03-14 21:53:14:613,0,-14.3773,-2.20797,36.5254,Q,Q
2023-03-14 21:53:14:623,0,-14.3807,-2.1736,36.5314,Q,Q
2023-03-14 21:53:14:633,0,-14.3731,-2.13759,36.5365,Q,Q
2023-03-14 21:53:14:643,0,-14.3608,-2.10477,36.5408,Q,Q
2023-03-14 21:53:14:653,0,-14.3426,-2.08471,36.5502,Q,Q
2023-03-14 21:53:14:663,0,-14.3229,-2.06567,36.5625,Q,Q
2023-03-14 21:53:14:673,0,-14.3027,-2.04822,36.5761,Q,Q
2023-03-14 21:53:14:683,0,-14.2858,-2.02765,36.5871,Q,Q
2023-03-14 21:53:14:693,0,-14.2643,-2.01109,36.5978,Q,Q
2023-03-14 21:53:14:703,0,-14.2393,-1.99402,36.6024,Q,Q
2023-03-14 21:53:14:713,0,-14.2105,-1.98749,36.6005,Q,Q
2023-03-14 21:53:14:723,0,-14.175,-1.98502,36.5885,Q,Q
2023-03-14 21:53:14:733,0,-14.1401,-1.9887,36.5646,Q,Q
2023-03-14 21:53:14:743,0,-14.1096,-1.99993,36.5342,Q,Q
2023-03-14 21:53:14:753,0,-14.0835,-2.01609,36.4935,Q,Q
2023-03-14 21:53:14:763,0,-14.0565,-2.03798,36.4337,Q,Q
2023-03-14 21:53:14:773,0,-14.0325,-2.07103,36.3651,Q,Q
2023-03-14 21:53:14:783,0,-14.004,-2.10591,36.2842,Q,Q
2023-03-14 21:53:14:793,0,-13.9645,-2.1438,36.1891,Q,Q
2023-03-14 21:53:14:803,0,-13.9161,-2.19234,36.086,Q,Q
2023-03-14 21:53:14:813,0,-13.8642,-2.23997,35.9802,Q,Q
2023-03-14 21:53:14:823,0,-13.8136,-2.29342,35.8692,Q,Q
2023-03-14 21:53:14:833,0,-13.7612,-2.35285,35.7549,Q,Q
2023-03-14 21:53:14:843,0,-13.7145,-2.41769,35.6401,Q,Q
2023-03-14 21:53:14:853,0,-13.6664,-2.4815,35.5212,Q,Q
2023-03-14 21:53:14:863,0,-13.6105,-2.54163,35.4003,Q,Q
2023-03-14 21:53:14:873,0,-13.5479,-2.59755,35.2792,Q,Q
2023-03-14 21:53:14:883,0,-13.4808,-2.64834,35.1538,Q,Q
2023-03-14 21:53:14:893,0,-13.4063,-2.69827,35.0365,Q,Q
2023-03-14 21:53:14:903,0,-13.3255,-2.74396,34.9196,Q,Q
2023-03-14 21:53:14:913,0,-13.247,-2.79492,34.8142,Q,Q
2023-03-14 21:53:14:923,0,-13.1773,-2.84267,34.7128,Q,Q
2023-03-14 21:53:14:933,0,-13.1137,-2.88983,34.619,Q,Q
2023-03-14 21:53:14:943,0,-13.0584,-2.93596,34.5373,Q,Q
2023-03-14 21:53:14:952,0,-13.0113,-2.97717,34.4637,Q,Q
2023-03-14 21:53:14:962,0,-12.9725,-3.01035,34.3993,Q,Q
2023-03-14 21:53:14:972,0,-12.9443,-3.04155,34.3442,Q,Q
2023-03-14 21:53:14:983,0,-12.9183,-3.07602,34.2934,Q,Q
2023-03-14 21:53:14:993,0,-12.8936,-3.10438,34.2551,Q,Q
2023-03-14 21:53:15:3,0,-12.8726,-3.13076,34.2259,Q,Q
2023-03-14 21:53:15:13,0,-12.8613,-3.15147,34.2101,Q,Q
2023-03-14 21:53:15:23,0,-12.8575,-3.16971,34.2042,Q,Q
2023-03-14 21:53:15:33,0,-12.8578,-3.18108,34.2045,Q,Q
2023-03-14 21:53:15:43,0,-12.8572,-3.1873,34.2063,Q,Q
2023-03-14 21:53:15:52,0,-12.8622,-3.18788,34.2081,Q,Q
2023-03-14 21:53:15:62,0,-12.867,-3.18832,34.2136,Q,Q
2023-03-14 21:53:15:73,0,-12.8735,-3.1867,34.2175,Q,Q
2023-03-14 21:53:15:83,0,-12.8762,-3.18322,34.2175,Q,Q
2023-03-14 21:53:15:93,0,-12.8771,-3.17739,34.2149,Q,Q
2023-03-14 21:53:15:103,0,-12.8773,-3.16905,34.2112,Q,Q
2023-03-14 21:53:15:113,0,-12.8827,-3.16377,34.2056,Q,Q
2023-03-14 21:53:15:123,0,-12.8895,-3.16237,34.1974,Q,Q
2023-03-14 21:53:15:133,0,-12.8862,-3.16473,34.1889,Q,Q
2023-03-14 21:53:15:143,0,-12.8773,-3.16446,34.1805,Q,Q
2023-03-14 21:53:15:153,0,-12.8634,-3.1653,34.1722,Q,Q
2023-03-14 21:53:15:163,0,-12.8437,-3.1686,34.167,Q,Q
2023-03-14 21:53:15:173,0,-12.8251,-3.1677,34.1622,Q,Q
2023-03-14 21:53:15:183,0,-12.8089,-3.1647,34.1643,Q,Q
2023-03-14 21:53:15:193,0,-12.7984,-3.15648,34.1677,Q,Q
2023-03-14 21:53:15:203,0,-12.776,-3.12968,34.1665,Q,Q
2023-03-14 21:53:15:213,0,-12.7424,-3.10108,34.1627,Q,Q
2023-03-14 21:53:15:223,0,-12.7008,-3.06894,34.1604,Q,Q
2023-03-14 21:53:15:233,0,-12.6594,-3.03688,34.1618,Q,Q
2023-03-14 21:53:15:243,0,-12.6219,-3.0068,34.1653,Q,Q
2023-03-14 21:53:15:253,0,-12.5896,-2.98236,34.1665,Q,Q
2023-03-14 21:53:15:263,0,-12.5639,-2.95677,34.1684,Q,Q
2023-03-14 21:53:15:273,0,-12.5437,-2.93395,34.1733,Q,Q
2023-03-14 21:53:15:283,0,-12.5338,-2.90583,34.1716,Q,Q
2023-03-14 21:53:15:293,0,-12.5423,-2.88378,34.1715,Q,Q
2023-03-14 21:53:15:303,0,-12.5582,-2.86831,34.1631,Q,Q
2023-03-14 21:53:15:313,0,-12.5676,-2.86111,34.1508,Q,Q
2023-03-14 21:53:15:323,0,-12.5636,-2.86168,34.1293,Q,Q
2023-03-14 21:53:15:333,0,-12.5528,-2.8633,34.1054,Q,Q
2023-03-14 21:53:15:343,0,-12.543,-2.86688,34.0745,Q,Q
2023-03-14 21:53:15:353,0,-12.536,-2.86804,34.0367,Q,Q
2023-03-14 21:53:15:363,0,-12.5357,-2.87044,33.996,Q,Q
2023-03-14 21:53:15:373,0,-12.5311,-2.87843,33.9583,Q,Q
2023-03-14 21:53:15:382,0,-12.5223,-2.88726,33.9212,Q,Q
2023-03-14 21:53:15:393,0,-12.5112,-2.89756,33.8898,Q,Q
2023-03-14 21:53:15:403,0,-12.4979,-2.90557,33.8626,Q,Q
2023-03-14 21:53:15:413,0,-12.4902,-2.91447,33.8404,Q,Q
2023-03-14 21:53:15:423,0,-12.4904,-2.92716,33.8236,Q,Q
2023-03-14 21:53:15:433,0,-12.4947,-2.94025,33.8109,Q,Q
2023-03-14 21:53:15:443,0,-12.4996,-2.95082,33.8045,Q,Q
2023-03-14 21:53:15:453,0,-12.5085,-2.96437,33.7993,Q,Q
2023-03-14 21:53:15:463,0,-12.5157,-2.97878,33.7997,Q,Q
2023-03-14 21:53:15:473,0,-12.5257,-2.99653,33.7989,Q,Q
2023-03-14 21:53:15:483,0,-12.5331,-3.01231,33.7986,Q,Q
2023-03-14 21:53:15:493,0,-12.5383,-3.02776,33.7997,Q,Q
2023-03-14 21:53:15:503,0,-12.5414,-3.04085,33.801,Q,Q
2023-03-14 21:53:15:513,0,-12.5436,-3.05053,33.8005,Q,Q
2023-03-14 21:53:15:523,0,-12.5395,-3.06262,33.8056,Q,Q
2023-03-14 21:53:15:533,0,-12.5362,-3.07385,33.8149,Q,Q
2023-03-14 21:53:15:543,0,-12.5313,-3.08917,33.825,Q,Q
2023-03-14 21:53:15:553,0,-12.5221,-3.10215,33.8393,Q,Q
2023-03-14 21:53:15:563,0,-12.5127,-3.11051,33.8516,Q,Q
2023-03-14 21:53:15:573,0,-12.5037,-3.11612,33.8669,Q,Q
2023-03-14 21:53:15:583,0,-12.4993,-3.12245,33.8832,Q,Q
2023-03-14 21:53:15:593,0,-12.5009,-3.12499,33.8995,Q,Q
2023-03-14 21:53:15:603,0,-12.5048,-3.12487,33.9144,Q,Q
2023-03-14 21:53:15:613,0,-12.5146,-3.1226,33.9298,Q,Q
2023-03-14 21:53:15:623,0,-12.5237,-3.11972,33.9411,Q,Q
2023-03-14 21:53:15:633,0,-12.5288,-3.11555,33.9502,Q,Q
2023-03-14 21:53:15:643,0,-12.5329,-3.11017,33.9569,Q,Q
2023-03-14 21:53:15:653,0,-12.5309,-3.10477,33.9612,Q,Q
2023-03-14 21:53:15:663,0,-12.5297,-3.09702,33.9688,Q,Q
2023-03-14 21:53:15:673,0,-12.5322,-3.08763,33.9756,Q,Q
2023-03-14 21:53:15:683,0,-12.534,-3.0699,33.9868,Q,Q
2023-03-14 21:53:15:693,0,-12.5301,-3.05209,33.9932,Q,Q
2023-03-14 21:53:15:703,0,-12.5274,-3.03543,34.0006,Q,Q
2023-03-14 21:53:15:713,0,-12.5255,-3.02223,34.0125,Q,Q
2023-03-14 21:53:15:723,0,-12.5213,-3.01433,34.026,Q,Q
2023-03-14 21:53:15:733,0,-12.52,-3.01257,34.0356,Q,Q
2023-03-14 21:53:15:743,0,-12.5203,-3.01559,34.0457,Q,Q
2023-03-14 21:53:15:753,0,-12.5292,-3.02115,34.0543,Q,Q
2023-03-14 21:53:15:763,0,-12.5411,-3.02997,34.0615,Q,Q
2023-03-14 21:53:15:773,0,-12.5542,-3.04177,34.0674,Q,Q
2023-03-14 21:53:15:783,0,-12.5698,-3.05342,34.0725,Q,Q
2023-03-14 21:53:15:793,0,-12.5948,-3.06642,34.0704,Q,Q
2023-03-14 21:53:15:803,0,-12.6176,-3.08354,34.0696,Q,Q
2023-03-14 21:53:15:813,0,-12.6468,-3.11243,34.0708,Q,Q
2023-03-14 21:53:15:823,0,-12.6866,-3.13685,34.0791,Q,Q
2023-03-14 21:53:15:833,0,-12.7222,-3.15322,34.0914,Q,Q
2023-03-14 21:53:15:843,0,-12.7535,-3.16603,34.1111,Q,Q
2023-03-14 21:53:15:853,0,-12.7769,-3.17214,34.1381,Q,Q
2023-03-14 21:53:15:863,0,-12.794,-3.18014,34.1753,Q,Q
2023-03-14 21:53:15:873,0,-12.8052,-3.1833,34.2227,Q,Q
2023-03-14 21:53:15:883,0,-12.8123,-3.18669,34.2729,Q,Q
2023-03-14 21:53:15:893,0,-12.8176,-3.20029,34.3202,Q,Q
2023-03-14 21:53:15:903,0,-12.8305,-3.21777,34.3771,Q,Q
2023-03-14 21:53:15:913,0,-12.8457,-3.23774,34.4428,Q,Q
2023-03-14 21:53:15:923,0,-12.8561,-3.25607,34.509,Q,Q
2023-03-14 21:53:15:933,0,-12.8664,-3.27211,34.579,Q,Q
2023-03-14 21:53:15:943,0,-12.8738,-3.28528,34.65,Q,Q
2023-03-14 21:53:15:953,0,-12.885,-3.29646,34.7218,Q,Q
2023-03-14 21:53:15:963,0,-12.9011,-3.31049,34.7874,Q,Q
2023-03-14 21:53:15:973,0,-12.9202,-3.32553,34.8484,Q,Q
2023-03-14 21:53:15:983,0,-12.9403,-3.34279,34.9022,Q,Q
2023-03-14 21:53:15:992,0,-12.9529,-3.36341,34.9582,Q,Q
2023-03-14 21:53:16:3,0,-12.9586,-3.37992,35.0151,Q,Q
2023-03-14 21:53:16:13,0,-12.957,-3.40061,35.0688,Q,Q
2023-03-14 21:53:16:23,0,-12.952,-3.41911,35.1226,Q,Q
2023-03-14 21:53:16:33,0,-12.9468,-3.43112,35.1708,Q,Q
2023-03-14 21:53:16:43,0,-12.9453,-3.44058,35.2172,Q,Q
2023-03-14 21:53:16:53,0,-12.9496,-3.45183,35.2576,Q,Q
2023-03-14 21:53:16:63,0,-12.9581,-3.45995,35.2923,Q,Q
2023-03-14 21:53:16:73,0,-12.9663,-3.46035,35.3328,Q,Q
2023-03-14 21:53:16:83,0,-12.9673,-3.4605,35.3727,Q,Q
2023-03-14 21:53:16:93,0,-12.9678,-3.4607,35.4135,Q,Q
2023-03-14 21:53:16:103,0,-12.9716,-3.45879,35.4537,Q,Q
2023-03-14 21:53:16:113,0,-12.9795,-3.45244,35.4986,Q,Q
2023-03-14 21:53:16:123,0,-12.9929,-3.43969,35.5428,Q,Q
2023-03-14 21:53:16:133,0,-13.0054,-3.42782,35.5833,Q,Q
2023-03-14 21:53:16:143,0,-13.0168,-3.40796,35.6183,Q,Q
2023-03-14 21:53:16:153,0,-13.0275,-3.39035,35.6489,Q,Q
2023-03-14 21:53:16:163,0,-13.0378,-3.36991,35.6788,Q,Q
2023-03-14 21:53:16:173,0,-13.0495,-3.35057,35.6981,Q,Q
2023-03-14 21:53:16:183,0,-13.0601,-3.3331,35.7177,Q,Q
2023-03-14 21:53:16:193,0,-13.0662,-3.31739,35.7309,Q,Q
2023-03-14 21:53:16:203,0,-13.0753,-3.30671,35.7456,Q,Q
2023-03-14 21:53:16:213,0,-13.0811,-3.30322,35.7593,Q,Q
2023-03-14 21:53:16:223,0,-13.0923,-3.30192,35.7668,Q,Q
2023-03-14 21:53:16:233,0,-13.1019,-3.30293,35.7718,Q,Q
2023-03-14 21:53:16:243,0,-13.1095,-3.30517,35.7769,Q,Q
2023-03-14 21:53:16:253,0,-13.117,-3.31624,35.7836,Q,Q
2023-03-14 21:53:16:263,0,-13.1265,-3.32738,35.7939,Q,Q
2023-03-14 21:53:16:273,0,-13.1335,-3.34206,35.8061,Q,Q
2023-03-14 21:53:16:283,0,-13.1385,-3.35669,35.8125,Q,Q
2023-03-14 21:53:16:293,0,-13.1406,-3.37072,35.8221,Q,Q
2023-03-14 21:53:16:303,0,-13.1429,-3.38171,35.8301,Q,Q
2023-03-14 21:53:16:313,0,-13.1392,-3.3942,35.8417,Q,Q
2023-03-14 21:53:16:323,0,-13.1387,-3.40444,35.8537,Q,Q
2023-03-14 21:53:16:333,0,-13.1379,-3.41763,35.8647,Q,Q
2023-03-14 21:53:16:343,0,-13.1393,-3.43303,35.8784,Q,Q
2023-03-14 21:53:16:353,0,-13.141,-3.45164,35.8952,Q,Q
2023-03-14 21:53:16:363,0,-13.1421,-3.46516,35.9069,Q,Q
2023-03-14 21:53:16:373,0,-13.1403,-3.48297,35.921,Q,Q
2023-03-14 21:53:16:383,0,-13.1392,-3.50012,35.9318,Q,Q
2023-03-14 21:53:16:393,0,-13.1313,-3.51288,35.9415,Q,Q
2023-03-14 21:53:16:403,0,-13.1246,-3.52577,35.9502,Q,Q
2023-03-14 21:53:16:413,0,-13.1187,-3.53738,35.9613,Q,Q
2023-03-14 21:53:16:423,0,-13.1115,-3.5498,35.9782,Q,Q
2023-03-14 21:53:16:433,0,-13.1113,-3.55953,35.996,Q,Q
2023-03-14 21:53:16:443,0,-13.1105,-3.57134,36.0148,Q,Q
2023-03-14 21:53:16:453,0,-13.1095,-3.58457,36.0297,Q,Q
2023-03-14 21:53:16:463,0,-13.1075,-3.58918,36.0435,Q,Q
2023-03-14 21:53:16:473,0,-13.1081,-3.59475,36.0564,Q,Q
2023-03-14 21:53:16:482,0,-13.1097,-3.59631,36.0695,Q,Q
2023-03-14 21:53:16:492,0,-13.1091,-3.60144,36.0834,Q,Q
2023-03-14 21:53:16:503,0,-13.1074,-3.60564,36.0952,Q,Q
2023-03-14 21:53:16:513,0,-13.1035,-3.6107,36.1049,Q,Q
2023-03-14 21:53:16:523,0,-13.097,-3.61289,36.1109,Q,Q
2023-03-14 21:53:16:533,0,-13.0946,-3.61403,36.1174,Q,Q
2023-03-14 21:53:16:543,0,-13.0914,-3.61758,36.1214,Q,Q
2023-03-14 21:53:16:553,0,-13.0855,-3.61746,36.1227,Q,Q
2023-03-14 21:53:16:563,0,-13.0783,-3.61957,36.1201,Q,Q
2023-03-14 21:53:16:573,0,-13.073,-3.61991,36.1135,Q,Q
2023-03-14 21:53:16:583,0,-13.0691,-3.62356,36.1079,Q,Q
2023-03-14 21:53:16:593,0,-13.0687,-3.6259,36.103,Q,Q
2023-03-14 21:53:16:603,0,-13.0648,-3.62921,36.089,Q,Q
2023-03-14 21:53:16:613,0,-13.0637,-3.63272,36.0783,Q,Q
2023-03-14 21:53:16:623,0,-13.0641,-3.63934,36.0709,Q,Q
2023-03-14 21:53:16:633,0,-13.0581,-3.64508,36.0612,Q,Q
2023-03-14 21:53:16:643,0,-13.0481,-3.64784,36.0557,Q,Q
2023-03-14 21:53:16:653,0,-13.0395,-3.64995,36.0524,Q,Q
2023-03-14 21:53:16:663,0,-13.0247,-3.65153,36.0446,Q,Q
2023-03-14 21:53:16:673,0,-13.0189,-3.65489,36.0417,Q,Q
2023-03-14 21:53:16:683,0,-13.0107,-3.65558,36.0415,Q,Q
2023-03-14 21:53:16:693,0,-13.0033,-3.65685,36.0422,Q,Q
2023-03-14 21:53:16:703,0,-13.0007,-3.65623,36.0413,Q,Q
2023-03-14 21:53:16:713,0,-12.9981,-3.65904,36.0389,Q,Q
2023-03-14 21:53:16:723,0,-12.9945,-3.66279,36.0416,Q,Q
2023-03-14 21:53:16:733,0,-12.9881,-3.66432,36.0452,Q,Q
2023-03-14 21:53:16:743,0,-12.9814,-3.66984,36.0514,Q,Q
2023-03-14 21:53:16:753,0,-12.9781,-3.67673,36.0584,Q,Q
2023-03-14 21:53:16:763,0,-12.9714,-3.68236,36.0639,Q,Q
2023-03-14 21:53:16:773,0,-12.9643,-3.68878,36.0721,Q,Q
2023-03-14 21:53:16:783,0,-12.9556,-3.69253,36.0771,Q,Q
2023-03-14 21:53:16:793,0,-12.9506,-3.6961,36.0824,Q,Q
2023-03-14 21:53:16:803,0,-12.9478,-3.69835,36.0832,Q,Q
2023-03-14 21:53:16:813,0,-12.9476,-3.69968,36.0882,Q,Q
2023-03-14 21:53:16:823,0,-12.9499,-3.69773,36.091,Q,Q
2023-03-14 21:53:16:833,0,-12.9526,-3.69303,36.0936,Q,Q
2023-03-14 21:53:16:843,0,-12.9544,-3.6867,36.0955,Q,Q
2023-03-14 21:53:16:853,0,-12.9532,-3.687,36.0987,Q,Q
2023-03-14 21:53:16:863,0,-12.9546,-3.69345,36.1063,Q,Q
2023-03-14 21:53:16:873,0,-12.9563,-3.70244,36.1217,Q,Q
2023-03-14 21:53:16:883,0,-12.9624,-3.70729,36.1357,Q,Q
2023-03-14 21:53:16:893,0,-12.9652,-3.71101,36.1472,Q,Q
2023-03-14 21:53:16:903,0,-12.9692,-3.71362,36.1538,Q,Q
2023-03-14 21:53:16:913,0,-12.9694,-3.71057,36.1605,Q,Q
2023-03-14 21:53:16:923,0,-12.9673,-3.70761,36.1669,Q,Q
2023-03-14 21:53:16:933,0,-12.9708,-3.7044,36.178,Q,Q
2023-03-14 21:53:16:943,0,-12.9684,-3.69964,36.186,Q,Q
2023-03-14 21:53:16:953,0,-12.9651,-3.69534,36.1933,Q,Q
2023-03-14 21:53:16:963,0,-12.9624,-3.68767,36.1975,Q,Q
2023-03-14 21:53:16:973,0,-12.9657,-3.67899,36.2004,Q,Q
2023-03-14 21:53:16:983,0,-12.9672,-3.67102,36.2019,Q,Q
2023-03-14 21:53:16:993,0,-12.9727,-3.66124,36.2053,Q,Q
2023-03-14 21:53:17:2,0,-12.9812,-3.65476,36.2087,Q,Q
2023-03-14 21:53:17:12,0,-12.9892,-3.6482,36.2134,Q,Q
2023-03-14 21:53:17:23,0,-12.9982,-3.63959,36.2169,Q,Q
2023-03-14 21:53:17:33,0,-13.0061,-3.6326,36.2192,Q,Q
2023-03-14 21:53:17:43,0,-13.0092,-3.62622,36.2251,Q,Q
2023-03-14 21:53:17:53,0,-13.0115,-3.61557,36.2332,Q,Q
2023-03-14 21:53:17:63,0,-13.0138,-3.611,36.2424,Q,Q
2023-03-14 21:53:17:73,0,-13.0133,-3.60599,36.2498,Q,Q
2023-03-14 21:53:17:83,0,-13.012,-3.59939,36.2639,Q,Q
2023-03-14 21:53:17:93,0,-13.0081,-3.58875,36.2773,Q,Q
2023-03-14 21:53:17:103,0,-12.9983,-3.5787,36.2912,Q,Q
2023-03-14 21:53:17:113,0,-12.9865,-3.56437,36.3162,Q,Q
2023-03-14 21:53:17:123,0,-12.9779,-3.55473,36.3501,Q,Q
2023-03-14 21:53:17:133,0,-12.9652,-3.54979,36.3961,Q,Q
2023-03-14 21:53:17:143,0,-12.9613,-3.53911,36.4451,Q,Q
2023-03-14 21:53:17:153,0,-12.9618,-3.52697,36.499,Q,Q
2023-03-14 21:53:17:163,0,-12.9687,-3.51206,36.5569,Q,Q
2023-03-14 21:53:17:173,0,-12.9798,-3.49103,36.6163,Q,Q
2023-03-14 21:53:17:183,0,-12.997,-3.47105,36.6779,Q,Q
2023-03-14 21:53:17:193,0,-13.0071,-3.4502,36.7413,Q,Q
2023-03-14 21:53:17:203,0,-13.015,-3.42954,36.805,Q,Q
2023-03-14 21:53:17:213,0,-13.024,-3.41,36.8628,Q,Q
2023-03-14 21:53:17:223,0,-13.0257,-3.39015,36.9204,Q,Q
2023-03-14 21:53:17:233,0,-13.0217,-3.36684,36.9769,Q,Q
2023-03-14 21:53:17:243,0,-13.0093,-3.34907,37.0278,Q,Q
2023-03-14 21:53:17:253,0,-12.998,-3.33643,37.075,Q,Q
2023-03-14 21:53:17:263,0,-12.9982,-3.3275,37.1211,Q,Q
2023-03-14 21:53:17:273,0,-13.0047,-3.32204,37.1607,Q,Q
2023-03-14 21:53:17:283,0,-13.0117,-3.32317,37.1943,Q,Q
2023-03-14 21:53:17:293,0,-13.019,-3.32338,37.2214,Q,Q
2023-03-14 21:53:17:303,0,-13.0287,-3.32568,37.2403,Q,Q
2023-03-14 21:53:17:313,0,-13.042,-3.33305,37.256,Q,Q
2023-03-14 21:53:17:323,0,-13.0526,-3.33926,37.2667,Q,Q
2023-03-14 21:53:17:332,0,-13.0632,-3.3486,37.2675,Q,Q
2023-03-14 21:53:17:343,0,-13.07,-3.35897,37.2648,Q,Q
2023-03-14 21:53:17:352,0,-13.0759,-3.36746,37.2581,Q,Q
2023-03-14 21:53:17:363,0,-13.0805,-3.37288,37.2485,Q,Q
2023-03-14 21:53:17:373,0,-13.0834,-3.37228,37.2351,Q,Q
2023-03-14 21:53:17:383,0,-13.0858,-3.37058,37.2178,Q,Q
2023-03-14 21:53:17:393,0,-13.0942,-3.36848,37.2008,Q,Q
2023-03-14 21:53:17:403,0,-13.1013,-3.36041,37.1829,Q,Q
2023-03-14 21:53:17:413,0,-13.1065,-3.35571,37.1652,Q,Q
2023-03-14 21:53:17:423,0,-13.1119,-3.346,37.1474,Q,Q
2023-03-14 21:53:17:433,0,-13.1156,-3.33605,37.1302,Q,Q
2023-03-14 21:53:17:443,0,-13.1183,-3.32828,37.116,Q,Q
2023-03-14 21:53:17:453,0,-13.1197,-3.32156,37.1013,Q,Q
2023-03-14 21:53:17:463,0,-13.1159,-3.31415,37.0888,Q,Q
2023-03-14 21:53:17:472,0,-13.1127,-3.30781,37.0786,Q,Q
2023-03-14 21:53:17:483,0,-13.1084,-3.30382,37.0691,Q,Q
2023-03-14 21:53:17:493,0,-13.1043,-3.30176,37.0654,Q,Q
2023-03-14 21:53:17:503,0,-13.1008,-3.30008,37.0618,Q,Q
2023-03-14 21:53:17:512,0,-13.0993,-3.30242,37.0593,Q,Q
2023-03-14 21:53:17:523,0,-13.0937,-3.30268,37.0558,Q,Q
2023-03-14 21:53:17:533,0,-13.0901,-3.30502,37.051,Q,Q
2023-03-14 21:53:17:543,0,-13.0881,-3.31037,37.0463,Q,Q
2023-03-14 21:53:17:553,0,-13.086,-3.31769,37.044,Q,Q
2023-03-14 21:53:17:563,0,-13.0839,-3.32481,37.0401,Q,Q
2023-03-14 21:53:17:573,0,-13.0812,-3.33301,37.0343,Q,Q
2023-03-14 21:53:17:583,0,-13.0825,-3.33608,37.0321,Q,Q
2023-03-14 21:53:17:593,0,-13.0833,-3.33974,37.0354,Q,Q
2023-03-14 21:53:17:603,0,-13.0832,-3.34424,37.037,Q,Q
2023-03-14 21:53:17:613,0,-13.081,-3.35218,37.0366,Q,Q
2023-03-14 21:53:17:623,0,-13.0746,-3.35429,37.0416,Q,Q
2023-03-14 21:53:17:632,0,-13.0726,-3.3566,37.0454,Q,Q
2023-03-14 21:53:17:643,0,-13.0712,-3.35873,37.0528,Q,Q
2023-03-14 21:53:17:653,0,-13.0706,-3.35822,37.0584,Q,Q
2023-03-14 21:53:17:663,0,-13.0671,-3.35781,37.0637,Q,Q
2023-03-14 21:53:17:673,0,-13.0601,-3.35701,37.0637,Q,Q
2023-03-14 21:53:17:683,0,-13.0597,-3.36157,37.0693,Q,Q
2023-03-14 21:53:17:693,0,-13.0552,-3.36281,37.0639,Q,Q
2023-03-14 21:53:17:703,0,-13.0532,-3.3643,37.0556,Q,Q
2023-03-14 21:53:17:713,0,-13.0498,-3.36451,37.0444,Q,Q
2023-03-14 21:53:17:723,0,-13.043,-3.37071,37.0352,Q,Q
2023-03-14 21:53:17:733,0,-13.036,-3.38271,37.0285,Q,Q
2023-03-14 21:53:17:743,0,-13.0307,-3.39471,37.0249,Q,Q
2023-03-14 21:53:17:753,0,-13.0275,-3.40592,37.0186,Q,Q
2023-03-14 21:53:17:763,0,-13.0286,-3.41227,37.0071,Q,Q
2023-03-14 21:53:17:773,0,-13.0246,-3.41797,36.9987,Q,Q
2023-03-14 21:53:17:783,0,-13.0233,-3.42203,36.9867,Q,Q
2023-03-14 21:53:17:793,0,-13.0198,-3.42504,36.9787,Q,Q
2023-03-14 21:53:17:803,0,-13.0126,-3.4261,36.9729,Q,Q
2023-03-14 21:53:17:813,0,-13.0046,-3.4298,36.9657,Q,Q
2023-03-14 21:53:17:823,0,-12.9935,-3.42853,36.9592,Q,Q
2023-03-14 21:53:17:833,0,-12.9859,-3.42564,36.9495,Q,Q
2023-03-14 21:53:17:843,0,-12.9822,-3.42099,36.9432,Q,Q
2023-03-14 21:53:17:853,0,-12.9784,-3.41636,36.9335,Q,Q
2023-03-14 21:53:17:863,0,-12.978,-3.40579,36.9246,Q,Q
2023-03-14 21:53:17:873,0,-12.9832,-3.39177,36.9145,Q,Q
2023-03-14 21:53:17:883,0,-12.9874,-3.37686,36.9076,Q,Q
2023-03-14 21:53:17:893,0,-12.9957,-3.36715,36.9005,Q,Q
2023-03-14 21:53:17:903,0,-13.0052,-3.35624,36.8938,Q,Q
2023-03-14 21:53:17:913,0,-13.0176,-3.34549,36.8915,Q,Q
2023-03-14 21:53:17:923,0,-13.0259,-3.33728,36.8876,Q,Q
2023-03-14 21:53:17:933,0,-13.0337,-3.33285,36.8859,Q,Q
2023-03-14 21:53:17:943,0,-13.041,-3.32971,36.8813,Q,Q
2023-03-14 21:53:17:953,0,-13.0468,-3.32412,36.8807,Q,Q
2023-03-14 21:53:17:963,0,-13.0523,-3.31836,36.8782,Q,Q
2023-03-14 21:53:17:973,0,-13.0561,-3.31653,36.8733,Q,Q
2023-03-14 21:53:17:983,0,-13.056,-3.31793,36.8686,Q,Q
2023-03-14 21:53:17:993,0,-13.0572,-3.32395,36.8672,Q,Q
2023-03-14 21:53:18:3,0,-13.0594,-3.33005,36.8657,Q,Q
2023-03-14 21:53:18:13,0,-13.0623,-3.33458,36.8641,Q,Q
2023-03-14 21:53:18:23,0,-13.0693,-3.33465,36.8609,Q,Q
2023-03-14 21:53:18:32,0,-13.0753,-3.33116,36.8569,Q,Q
2023-03-14 21:53:18:43,0,-13.0844,-3.32648,36.8484,Q,Q
2023-03-14 21:53:18:52,0,-13.095,-3.32135,36.8385,Q,Q
2023-03-14 21:53:18:63,0,-13.0982,-3.31503,36.8263,Q,Q
2023-03-14 21:53:18:73,0,-13.099,-3.31015,36.8143,Q,Q
2023-03-14 21:53:18:83,0,-13.0936,-3.30607,36.8035,Q,Q
2023-03-14 21:53:18:93,0,-13.0882,-3.30266,36.7962,Q,Q
2023-03-14 21:53:18:103,0,-13.083,-3.29898,36.7896,Q,Q
2023-03-14 21:53:18:113,0,-13.0762,-3.2966,36.7843,Q,Q
2023-03-14 21:53:18:123,0,-13.0755,-3.29441,36.7805,Q,Q
2023-03-14 21:53:18:133,0,-13.0759,-3.28865,36.7773,Q,Q
2023-03-14 21:53:18:143,0,-13.0751,-3.28774,36.7745,Q,Q
2023-03-14 21:53:18:153,0,-13.0737,-3.2847,36.7785,Q,Q
2023-03-14 21:53:18:163,0,-13.0773,-3.27891,36.7845,Q,Q
2023-03-14 21:53:18:173,0,-13.0826,-3.27283,36.7953,Q,Q
2023-03-14 21:53:18:183,0,-13.0897,-3.27286,36.8109,Q,Q
2023-03-14 21:53:18:193,0,-13.1019,-3.27468,36.8309,Q,Q
2023-03-14 21:53:18:203,0,-13.124,-3.27619,36.8552,Q,Q
2023-03-14 21:53:18:213,0,-13.1428,-3.27973,36.8799,Q,Q
2023-03-14 21:53:18:223,0,-13.1567,-3.28439,36.9015,Q,Q
2023-03-14 21:53:18:232,0,-13.1693,-3.28791,36.9135,Q,Q
2023-03-14 21:53:18:242,0,-13.1735,-3.29182,36.9248,Q,Q
2023-03-14 21:53:18:252,0,-13.1747,-3.29792,36.9314,Q,Q
2023-03-14 21:53:18:262,0,-13.1714,-3.30454,36.9304,Q,Q
2023-03-14 21:53:18:272,0,-13.1656,-3.30938,36.9217,Q,Q
2023-03-14 21:53:18:282,0,-13.1612,-3.31206,36.9073,Q,Q
2023-03-14 21:53:18:292,0,-13.1588,-3.31234,36.8864,Q,Q
2023-03-14 21:53:18:303,0,-13.1585,-3.31596,36.8608,Q,Q
2023-03-14 21:53:18:313,0,-13.158,-3.3141,36.8281,Q,Q
2023-03-14 21:53:18:322,0,-13.1562,-3.30909,36.7934,Q,Q
2023-03-14 21:53:18:333,0,-13.1544,-3.30117,36.7586,Q,Q
2023-03-14 21:53:18:343,0,-13.1495,-3.29112,36.724,Q,Q
2023-03-14 21:53:18:353,0,-13.1419,-3.28251,36.6959,Q,Q
2023-03-14 21:53:18:363,0,-13.1382,-3.27532,36.674,Q,Q
2023-03-14 21:53:18:373,0,-13.1325,-3.26885,36.657,Q,Q
2023-03-14 21:53:18:383,0,-13.129,-3.26177,36.6487,Q,Q
2023-03-14 21:53:18:393,0,-13.1267,-3.25286,36.6424,Q,Q
2023-03-14 21:53:18:403,0,-13.1235,-3.24656,36.6441,Q,Q
2023-03-14 21:53:18:413,0,-13.12,-3.24058,36.6505,Q,Q
2023-03-14 21:53:18:423,0,-13.1162,-3.2363,36.6555,Q,Q
2023-03-14 21:53:18:433,0,-13.1125,-3.23401,36.6654,Q,Q
2023-03-14 21:53:18:443,0,-13.1073,-3.23507,36.6722,Q,Q
2023-03-14 21:53:18:453,0,-13.1025,-3.23879,36.6784,Q,Q
2023-03-14 21:53:18:463,0,-13.1023,-3.24441,36.6827,Q,Q
2023-03-14 21:53:18:473,0,-13.1006,-3.24844,36.6857,Q,Q
2023-03-14 21:53:18:483,0,-13.1001,-3.25217,36.6854,Q,Q
2023-03-14 21:53:18:493,0,-13.105,-3.2548,36.6823,Q,Q
2023-03-14 21:53:18:503,0,-13.1078,-3.25689,36.6774,Q,Q
2023-03-14 21:53:18:513,0,-13.1113,-3.25854,36.6753,Q,Q
2023-03-14 21:53:18:523,0,-13.1139,-3.26013,36.6707,Q,Q
2023-03-14 21:53:18:533,0,-13.1208,-3.26218,36.6701,Q,Q
2023-03-14 21:53:18:542,0,-13.1265,-3.26375,36.6724,Q,Q
2023-03-14 21:53:18:553,0,-13.1321,-3.2637,36.6734,Q,Q
2023-03-14 21:53:18:563,0,-13.1349,-3.26625,36.6766,Q,Q
2023-03-14 21:53:18:573,0,-13.1349,-3.26789,36.6823,Q,Q
2023-03-14 21:53:18:583,0,-13.1286,-3.26724,36.6813,Q,Q
2023-03-14 21:53:18:593,0,-13.1231,-3.26853,36.6802,Q,Q
2023-03-14 21:53:18:603,0,-13.1188,-3.27001,36.6816,Q,Q
2023-03-14 21:53:18:613,0,-13.1137,-3.26766,36.6815,Q,Q
2023-03-14 21:53:18:623,0,-13.1073,-3.26746,36.678,Q,Q
2023-03-14 21:53:18:633,0,-13.1056,-3.2654,36.6755,Q,Q
2023-03-14 21:53:18:643,0,-13.1024,-3.26163,36.6684,Q,Q
2023-03-14 21:53:18:653,0,-13.1033,-3.26006,36.6645,Q,Q
2023-03-14 21:53:18:663,0,-13.098,-3.26355,36.6623,Q,Q
2023-03-14 21:53:18:673,0,-13.0985,-3.27161,36.667,Q,Q
2023-03-14 21:53:18:683,0,-13.0982,-3.27897,36.6713,Q,Q
2023-03-14 21:53:18:693,0,-13.0971,-3.28574,36.6775,Q,Q
2023-03-14 21:53:18:703,0,-13.0964,-3.29031,36.6815,Q,Q
2023-03-14 21:53:18:713,0,-13.0955,-3.29112,36.6844,Q,Q
2023-03-14 21:53:18:723,0,-13.0986,-3.29425,36.6916,Q,Q
2023-03-14 21:53:18:733,0,-13.0988,-3.29679,36.7011,Q,Q
2023-03-14 21:53:18:743,0,-13.0962,-3.30255,36.7054,Q,Q
2023-03-14 21:53:18:753,0,-13.0946,-3.31138,36.7102,Q,Q
2023-03-14 21:53:18:763,0,-13.0983,-3.31632,36.7152,Q,Q
2023-03-14 21:53:18:773,0,-13.1073,-3.31737,36.7187,Q,Q
2023-03-14 21:53:18:783,0,-13.1167,-3.31882,36.7157,Q,Q
2023-03-14 21:53:18:793,0,-13.1293,-3.31968,36.7136,Q,Q
2023-03-14 21:53:18:803,0,-13.1402,-3.31754,36.7095,Q,Q
2023-03-14 21:53:18:813,0,-13.1518,-3.312,36.7034,Q,Q
2023-03-14 21:53:18:823,0,-13.1612,-3.30536,36.6956,Q,Q
2023-03-14 21:53:18:833,0,-13.167,-3.30073,36.6852,Q,Q
2023-03-14 21:53:18:843,0,-13.1721,-3.29702,36.6781,Q,Q
2023-03-14 21:53:18:853,0,-13.1796,-3.28869,36.6676,Q,Q
2023-03-14 21:53:18:863,0,-13.1889,-3.28331,36.6576,Q,Q
2023-03-14 21:53:18:873,0,-13.1948,-3.27769,36.6462,Q,Q
2023-03-14 21:53:18:883,0,-13.1955,-3.27247,36.6346,Q,Q
2023-03-14 21:53:18:893,0,-13.1979,-3.2668,36.6208,Q,Q
2023-03-14 21:53:18:903,0,-13.1982,-3.25806,36.6057,Q,Q
2023-03-14 21:53:18:913,0,-13.1991,-3.24861,36.5922,Q,Q
2023-03-14 21:53:18:923,0,-13.2,-3.24389,36.5825,Q,Q
2023-03-14 21:53:18:933,0,-13.1978,-3.2444,36.5732,Q,Q
2023-03-14 21:53:18:943,0,-13.1946,-3.24336,36.5697,Q,Q
2023-03-14 21:53:18:953,0,-13.1966,-3.24407,36.5658,Q,Q
2023-03-14 21:53:18:963,0,-13.1988,-3.24537,36.5614,Q,Q
2023-03-14 21:53:18:973,0,-13.2001,-3.24366,36.5589,Q,Q
2023-03-14 21:53:18:983,0,-13.2033,-3.23905,36.5547,Q,Q
2023-03-14 21:53:18:993,0,-13.2057,-3.23734,36.5528,Q,Q
2023-03-14 21:53:19:3,0,-13.2051,-3.23599,36.5514,Q,Q
2023-03-14 21:53:19:13,0,-13.2008,-3.23716,36.5497,Q,Q
2023-03-14 21:53:19:23,0,-13.1952,-3.24104,36.5449,Q,Q
2023-03-14 21:53:19:33,0,-13.1882,-3.24477,36.5393,Q,Q
2023-03-14 21:53:19:43,0,-13.1816,-3.24886,36.5369,Q,Q
2023-03-14 21:53:19:53,0,-13.1749,-3.25714,36.5385,Q,Q
2023-03-14 21:53:19:62,0,-13.167,-3.26669,36.537,Q,Q
2023-03-14 21:53:19:73,0,-13.159,-3.27482,36.5381,Q,Q
2023-03-14 21:53:19:83,0,-13.1528,-3.28291,36.5392,Q,Q
2023-03-14 21:53:19:93,0,-13.1502,-3.28979,36.5431,Q,Q
2023-03-14 21:53:19:103,0,-13.1485,-3.2972,36.5501,Q,Q
2023-03-14 21:53:19:113,0,-13.1494,-3.30711,36.5562,Q,Q
2023-03-14 21:53:19:123,0,-13.1494,-3.31347,36.5563,Q,Q
2023-03-14 21:53:19:133,0,-13.1522,-3.31816,36.5611,Q,Q
2023-03-14 21:53:19:143,0,-13.1559,-3.32376,36.5651,Q,Q
2023-03-14 21:53:19:153,0,-13.1614,-3.32728,36.5646,Q,Q
2023-03-14 21:53:19:163,0,-13.1642,-3.32909,36.5575,Q,Q
2023-03-14 21:53:19:173,0,-13.167,-3.33134,36.5455,Q,Q
2023-03-14 21:53:19:183,0,-13.1672,-3.33217,36.5301,Q,Q
2023-03-14 21:53:19:193,0,-13.1648,-3.33223,36.5139,Q,Q
2023-03-14 21:53:19:203,0,-13.1593,-3.33473,36.4965,Q,Q
2023-03-14 21:53:19:213,0,-13.1546,-3.33696,36.4781,Q,Q
2023-03-14 21:53:19:223,0,-13.1516,-3.33834,36.4594,Q,Q
2023-03-14 21:53:19:233,0,-13.1489,-3.33875,36.4374,Q,Q
2023-03-14 21:53:19:243,0,-13.144,-3.33867,36.4162,Q,Q
2023-03-14 21:53:19:253,0,-13.1409,-3.34047,36.396,Q,Q
2023-03-14 21:53:19:263,0,-13.1399,-3.34314,36.3744,Q,Q
2023-03-14 21:53:19:273,0,-13.1386,-3.34455,36.351,Q,Q
2023-03-14 21:53:19:283,0,-13.1368,-3.34632,36.3307,Q,Q
2023-03-14 21:53:19:293,0,-13.1305,-3.35062,36.3099,Q,Q
2023-03-14 21:53:19:303,0,-13.1222,-3.35374,36.2893,Q,Q
2023-03-14 21:53:19:313,0,-13.1165,-3.35729,36.2699,Q,Q
2023-03-14 21:53:19:323,0,-13.1078,-3.35889,36.2518,Q,Q
2023-03-14 21:53:19:333,0,-13.0959,-3.36138,36.2377,Q,Q
2023-03-14 21:53:19:343,0,-13.0909,-3.36263,36.2275,Q,Q
2023-03-14 21:53:19:353,0,-13.0875,-3.36109,36.2178,Q,Q
2023-03-14 21:53:19:363,0,-13.0821,-3.35887,36.2131,Q,Q
2023-03-14 21:53:19:373,0,-13.0805,-3.35583,36.2088,Q,Q
2023-03-14 21:53:19:383,0,-13.0764,-3.35752,36.2046,Q,Q
2023-03-14 21:53:19:393,0,-13.0746,-3.35466,36.1996,Q,Q
2023-03-14 21:53:19:403,0,-13.068,-3.35725,36.1955,Q,Q
2023-03-14 21:53:19:413,0,-13.0636,-3.35532,36.192,Q,Q
2023-03-14 21:53:19:423,0,-13.0616,-3.35399,36.191,Q,Q
2023-03-14 21:53:19:433,0,-13.06,-3.35354,36.1844,Q,Q
2023-03-14 21:53:19:443,0,-13.0596,-3.35397,36.1825,Q,Q
2023-03-14 21:53:19:453,0,-13.0647,-3.35432,36.1818,Q,Q
2023-03-14 21:53:19:463,0,-13.0723,-3.35276,36.184,Q,Q
2023-03-14 21:53:19:473,0,-13.0774,-3.34821,36.1849,Q,Q
2023-03-14 21:53:19:483,0,-13.0799,-3.34705,36.1849,Q,Q
2023-03-14 21:53:19:493,0,-13.0819,-3.34501,36.1836,Q,Q
2023-03-14 21:53:19:503,0,-13.0816,-3.34648,36.1841,Q,Q
2023-03-14 21:53:19:513,0,-13.0747,-3.34241,36.1829,Q,Q
2023-03-14 21:53:19:523,0,-13.072,-3.34112,36.1828,Q,Q
2023-03-14 21:53:19:533,0,-13.0693,-3.34025,36.1815,Q,Q
2023-03-14 21:53:19:543,0,-13.074,-3.33456,36.1805,Q,Q
2023-03-14 21:53:19:553,0,-13.0824,-3.3286,36.1801,Q,Q
2023-03-14 21:53:19:563,0,-13.0891,-3.32367,36.1755,Q,Q
2023-03-14 21:53:19:572,0,-13.0916,-3.3198,36.1784,Q,Q
2023-03-14 21:53:19:583,0,-13.092,-3.31631,36.1753,Q,Q
2023-03-14 21:53:19:593,0,-13.0901,-3.313,36.1759,Q,Q
2023-03-14 21:53:19:603,0,-13.084,-3.31089,36.1777,Q,Q
2023-03-14 21:53:19:613,0,-13.0831,-3.30809,36.1826,Q,Q
2023-03-14 21:53:19:623,0,-13.0835,-3.30776,36.1824,Q,Q
2023-03-14 21:53:19:633,0,-13.0877,-3.30435,36.189,Q,Q
2023-03-14 21:53:19:643,0,-13.0906,-3.30953,36.1949,Q,Q
2023-03-14 21:53:19:653,0,-13.0975,-3.31371,36.2017,Q,Q
2023-03-14 21:53:19:663,0,-13.1079,-3.32041,36.2144,Q,Q
2023-03-14 21:53:19:673,0,-13.1164,-3.32333,36.2237,Q,Q
2023-03-14 21:53:19:683,0,-13.1221,-3.3328,36.2309,Q,Q
2023-03-14 21:53:19:693,0,-13.1319,-3.34769,36.2413,Q,Q
2023-03-14 21:53:19:703,0,-13.1487,-3.35749,36.2518,Q,Q
2023-03-14 21:53:19:713,0,-13.1593,-3.36648,36.262,Q,Q
2023-03-14 21:53:19:723,0,-13.1619,-3.37574,36.2727,Q,Q
2023-03-14 21:53:19:733,0,-13.167,-3.38542,36.2823,Q,Q
2023-03-14 21:53:19:743,0,-13.1708,-3.38884,36.2946,Q,Q
2023-03-14 21:53:19:753,0,-13.1744,-3.39142,36.3051,Q,Q
2023-03-14 21:53:19:763,0,-13.174,-3.38991,36.3128,Q,Q
2023-03-14 21:53:19:773,0,-13.169,-3.38772,36.319,Q,Q
2023-03-14 21:53:19:783,0,-13.1641,-3.38216,36.323,Q,Q
2023-03-14 21:53:19:793,0,-13.1574,-3.37218,36.3231,Q,Q
2023-03-14 21:53:19:803,0,-13.149,-3.36003,36.3193,Q,Q
2023-03-14 21:53:19:813,0,-13.1383,-3.34615,36.3122,Q,Q
2023-03-14 21:53:19:823,0,-13.1322,-3.33366,36.3055,Q,Q
2023-03-14 21:53:19:833,0,-13.1304,-3.32562,36.2965,Q,Q
2023-03-14 21:53:19:843,0,-13.1347,-3.32236,36.2901,Q,Q
2023-03-14 21:53:19:853,0,-13.1391,-3.32075,36.2846,Q,Q
2023-03-14 21:53:19:863,0,-13.1396,-3.32043,36.285,Q,Q
2023-03-14 21:53:19:873,0,-13.136,-3.32226,36.2853,Q,Q
2023-03-14 21:53:19:883,0,-13.1318,-3.3277,36.2888,Q,Q
2023-03-14 21:53:19:893,0,-13.1233,-3.32831,36.2935,Q,Q
2023-03-14 21:53:19:903,0,-13.1109,-3.33167,36.3019,Q,Q
2023-03-14 21:53:19:913,0,-13.0993,-3.33014,36.3105,Q,Q
2023-03-14 21:53:19:923,0,-13.0907,-3.32966,36.3191,Q,Q
2023-03-14 21:53:19:933,0,-13.0828,-3.32917,36.322,Q,Q
2023-03-14 21:53:19:943,0,-13.0709,-3.32645,36.3195,Q,Q
2023-03-14 21:53:19:953,0,-13.0604,-3.32429,36.3154,Q,Q
2023-03-14 21:53:19:963,0,-13.0497,-3.32756,36.312,Q,Q
2023-03-14 21:53:19:973,0,-13.0397,-3.32939,36.3067,Q,Q
2023-03-14 21:53:19:983,0,-13.0352,-3.33389,36.3003,Q,Q
2023-03-14 21:53:19:993,0,-13.0299,-3.33668,36.2922,Q,Q
2023-03-14 21:53:20:3,0,-13.0317,-3.33505,36.2883,Q,Q
2023-03-14 21:53:20:13,0,-13.0366,-3.33151,36.2867,Q,Q
2023-03-14 21:53:20:23,0,-13.046,-3.32557,36.2903,Q,Q
2023-03-14 21:53:20:33,0,-13.0543,-3.32309,36.2958,Q,Q
2023-03-14 21:53:20:43,0,-13.0684,-3.32209,36.3032,Q,Q
2023-03-14 21:53:20:53,0,-13.0797,-3.32007,36.3142,Q,Q
2023-03-14 21:53:20:63,0,-13.0818,-3.3161,36.3276,Q,Q
2023-03-14 21:53:20:73,0,-13.0808,-3.3219,36.3416,Q,Q
2023-03-14 21:53:20:83,0,-13.0813,-3.32717,36.3575,Q,Q
2023-03-14 21:53:20:93,0,-13.0814,-3.33029,36.3756,Q,Q
2023-03-14 21:53:20:103,0,-13.0827,-3.3359,36.3904,Q,Q
2023-03-14 21:53:20:113,0,-13.0826,-3.34634,36.4068,Q,Q
2023-03-14 21:53:20:123,0,-13.0797,-3.35482,36.4193,Q,Q
2023-03-14 21:53:20:133,0,-13.0751,-3.36054,36.4268,Q,Q
2023-03-14 21:53:20:143,0,-13.0721,-3.3676,36.4354,Q,Q
2023-03-14 21:53:20:153,0,-13.0684,-3.37221,36.4419,Q,Q
2023-03-14 21:53:20:163,0,-13.0628,-3.37973,36.4467,Q,Q
2023-03-14 21:53:20:173,0,-13.0536,-3.38303,36.4488,Q,Q
2023-03-14 21:53:20:183,0,-13.0427,-3.38888,36.4467,Q,Q
2023-03-14 21:53:20:193,0,-13.03,-3.39556,36.4439,Q,Q
2023-03-14 21:53:20:203,0,-13.0125,-3.40535,36.4362,Q,Q
2023-03-14 21:53:20:213,0,-12.9892,-3.41511,36.424,Q,Q
2023-03-14 21:53:20:223,0,-12.9638,-3.42557,36.4097,Q,Q
2023-03-14 21:53:20:233,0,-12.9311,-3.44004,36.3884,Q,Q
2023-03-14 21:53:20:243,0,-12.8888,-3.44344,36.3676,Q,Q
2023-03-14 21:53:20:253,0,-12.8335,-3.43547,36.3493,Q,Q
2023-03-14 21:53:20:263,0,-12.7723,-3.43522,36.3292,Q,Q
2023-03-14 21:53:20:273,0,-12.7196,-3.43576,36.3135,Q,Q
2023-03-14 21:53:20:283,0,-12.6714,-3.44016,36.2994,Q,Q
2023-03-14 21:53:20:293,0,-12.635,-3.45028,36.2858,Q,Q
2023-03-14 21:53:20:303,0,-12.6073,-3.45932,36.278,Q,Q
2023-03-14 21:53:20:313,0,-12.5825,-3.46744,36.2735,Q,Q
2023-03-14 21:53:20:323,0,-12.5603,-3.47118,36.2709,Q,Q
2023-03-14 21:53:20:333,0,-12.538,-3.4721,36.2712,Q,Q
2023-03-14 21:53:20:343,0,-12.5051,-3.46957,36.2702,Q,Q
2023-03-14 21:53:20:353,0,-12.4737,-3.46835,36.2678,Q,Q
2023-03-14 21:53:20:363,0,-12.4474,-3.46993,36.2674,Q,Q
2023-03-14 21:53:20:373,0,-12.4238,-3.47623,36.265,Q,Q
2023-03-14 21:53:20:383,0,-12.4155,-3.48788,36.2637,Q,Q
2023-03-14 21:53:20:393,0,-12.4115,-3.49569,36.262,Q,Q
2023-03-14 21:53:20:403,0,-12.4084,-3.49825,36.259,Q,Q
2023-03-14 21:53:20:413,0,-12.3968,-3.50113,36.2496,Q,Q
2023-03-14 21:53:20:423,0,-12.3774,-3.50025,36.239,Q,Q
2023-03-14 21:53:20:432,0,-12.3557,-3.49932,36.2259,Q,Q
2023-03-14 21:53:20:442,0,-12.3383,-3.4967,36.2107,Q,Q
2023-03-14 21:53:20:452,0,-12.3288,-3.49533,36.192,Q,Q
2023-03-14 21:53:20:463,0,-12.3278,-3.49718,36.1686,Q,Q
2023-03-14 21:53:20:472,0,-12.3278,-3.49661,36.1442,Q,Q
2023-03-14 21:53:20:483,0,-12.3302,-3.49447,36.1188,Q,Q
2023-03-14 21:53:20:492,0,-12.3318,-3.49382,36.0958,Q,Q
2023-03-14 21:53:20:502,0,-12.3334,-3.49343,36.0669,Q,Q
2023-03-14 21:53:20:513,0,-12.3356,-3.49162,36.0392,Q,Q
2023-03-14 21:53:20:523,0,-12.3393,-3.48706,36.0132,Q,Q
2023-03-14 21:53:20:533,0,-12.3431,-3.4836,35.9865,Q,Q
2023-03-14 21:53:20:543,0,-12.3499,-3.4744,35.9583,Q,Q
2023-03-14 21:53:20:553,0,-12.356,-3.47006,35.9379,Q,Q
2023-03-14 21:53:20:563,0,-12.364,-3.46237,35.9097,Q,Q
2023-03-14 21:53:20:573,0,-12.373,-3.45476,35.8867,Q,Q
2023-03-14 21:53:20:583,0,-12.3821,-3.44688,35.8623,Q,Q
2023-03-14 21:53:20:593,0,-12.3902,-3.43976,35.8419,Q,Q
2023-03-14 21:53:20:602,0,-12.398,-3.43364,35.8221,Q,Q
2023-03-14 21:53:20:612,0,-12.4008,-3.42823,35.8058,Q,Q
2023-03-14 21:53:20:622,0,-12.4032,-3.42571,35.7898,Q,Q
2023-03-14 21:53:20:633,0,-12.4071,-3.42043,35.7726,Q,Q
2023-03-14 21:53:20:643,0,-12.4136,-3.4151,35.7598,Q,Q
2023-03-14 21:53:20:653,0,-12.42,-3.40363,35.7479,Q,Q
2023-03-14 21:53:20:663,0,-12.4287,-3.391,35.7373,Q,Q
2023-03-14 21:53:20:673,0,-12.4385,-3.38114,35.7271,Q,Q
2023-03-14 21:53:20:683,0,-12.4487,-3.36428,35.7144,Q,Q
2023-03-14 21:53:20:693,0,-12.4554,-3.35687,35.7046,Q,Q
2023-03-14 21:53:20:703,0,-12.4581,-3.34862,35.6947,Q,Q
2023-03-14 21:53:20:713,0,-12.464,-3.34353,35.6928,Q,Q
2023-03-14 21:53:20:723,0,-12.4711,-3.34135,35.6929,Q,Q
2023-03-14 21:53:20:733,0,-12.4799,-3.33302,35.6883,Q,Q
2023-03-14 21:53:20:743,0,-12.4816,-3.32637,35.6898,Q,Q
2023-03-14 21:53:20:753,0,-12.4839,-3.31932,35.6867,Q,Q
2023-03-14 21:53:20:763,0,-12.4837,-3.31552,35.6862,Q,Q
2023-03-14 21:53:20:773,0,-12.4809,-3.31312,35.6859,Q,Q
2023-03-14 21:53:20:783,0,-12.4744,-3.30564,35.6873,Q,Q
2023-03-14 21:53:20:793,0,-12.4697,-3.30205,35.6868,Q,Q
2023-03-14 21:53:20:803,0,-12.4643,-3.29491,35.6872,Q,Q
2023-03-14 21:53:20:813,0,-12.4589,-3.2878,35.6883,Q,Q
2023-03-14 21:53:20:823,0,-12.4561,-3.28024,35.689,Q,Q
2023-03-14 21:53:20:833,0,-12.4616,-3.27154,35.6889,Q,Q
2023-03-14 21:53:20:843,0,-12.4763,-3.27607,35.686,Q,Q
2023-03-14 21:53:20:853,0,-12.5108,-3.27636,35.6844,Q,Q
2023-03-14 21:53:20:862,0,-12.5459,-3.27541,35.6783,Q,Q
2023-03-14 21:53:20:873,0,-12.572,-3.27258,35.6683,Q,Q
2023-03-14 21:53:20:883,0,-12.5868,-3.26167,35.6587,Q,Q
2023-03-14 21:53:20:893,0,-12.5946,-3.24247,35.6458,Q,Q
2023-03-14 21:53:20:903,0,-12.5962,-3.22653,35.6316,Q,Q
2023-03-14 21:53:20:913,0,-12.5968,-3.21041,35.6227,Q,Q
2023-03-14 21:53:20:923,0,-12.5966,-3.19782,35.6107,Q,Q
2023-03-14 21:53:20:933,0,-12.6064,-3.18747,35.6013,Q,Q
2023-03-14 21:53:20:943,0,-12.6224,-3.18746,35.5841,Q,Q
2023-03-14 21:53:20:953,0,-12.6402,-3.18559,35.5739,Q,Q
2023-03-14 21:53:20:963,0,-12.6569,-3.18374,35.5637,Q,Q
2023-03-14 21:53:20:973,0,-12.6622,-3.18284,35.5575,Q,Q
2023-03-14 21:53:20:983,0,-12.6623,-3.17924,35.5538,Q,Q
2023-03-14 21:53:20:993,0,-12.6586,-3.17594,35.5492,Q,Q
2023-03-14 21:53:21:3,0,-12.6613,-3.17121,35.5468,Q,Q
2023-03-14 21:53:21:13,0,-12.6623,-3.16404,35.5439,Q,Q
2023-03-14 21:53:21:23,0,-12.6649,-3.15746,35.5409,Q,Q
2023-03-14 21:53:21:33,0,-12.6724,-3.15461,35.5333,Q,Q
2023-03-14 21:53:21:43,0,-12.6802,-3.15487,35.5245,Q,Q
2023-03-14 21:53:21:53,0,-12.6852,-3.15303,35.5166,Q,Q
2023-03-14 21:53:21:63,0,-12.6834,-3.1531,35.509,Q,Q
2023-03-14 21:53:21:73,0,-12.6814,-3.15545,35.4969,Q,Q
2023-03-14 21:53:21:83,0,-12.6746,-3.15821,35.4895,Q,Q
2023-03-14 21:53:21:93,0,-12.6733,-3.16017,35.4824,Q,Q
2023-03-14 21:53:21:103,0,-12.6712,-3.15863,35.4746,Q,Q
2023-03-14 21:53:21:112,0,-12.671,-3.16016,35.4684,Q,Q
2023-03-14 21:53:21:123,0,-12.6725,-3.15962,35.4696,Q,Q
2023-03-14 21:53:21:133,0,-12.6727,-3.1648,35.4697,Q,Q
2023-03-14 21:53:21:143,0,-12.674,-3.16745,35.4674,Q,Q
2023-03-14 21:53:21:153,0,-12.6773,-3.1688,35.4648,Q,Q
2023-03-14 21:53:21:163,0,-12.6819,-3.17082,35.465,Q,Q
2023-03-14 21:53:21:173,0,-12.6803,-3.17154,35.4623,Q,Q
2023-03-14 21:53:21:183,0,-12.686,-3.17207,35.4621,Q,Q
2023-03-14 21:53:21:193,0,-12.6907,-3.1746,35.459,Q,Q
2023-03-14 21:53:21:203,0,-12.6945,-3.17565,35.4584,Q,Q
2023-03-14 21:53:21:213,0,-12.6948,-3.17189,35.4529,Q,Q
2023-03-14 21:53:21:223,0,-12.6963,-3.16684,35.4445,Q,Q
2023-03-14 21:53:21:233,0,-12.6935,-3.16271,35.4367,Q,Q
2023-03-14 21:53:21:243,0,-12.6962,-3.16029,35.4279,Q,Q
2023-03-14 21:53:21:253,0,-12.6958,-3.15715,35.417,Q,Q
2023-03-14 21:53:21:263,0,-12.6952,-3.15348,35.4023,Q,Q
2023-03-14 21:53:21:273,0,-12.6959,-3.14774,35.3923,Q,Q
2023-03-14 21:53:21:283,0,-12.6983,-3.14752,35.3803,Q,Q
2023-03-14 21:53:21:293,0,-12.6989,-3.14345,35.3718,Q,Q
2023-03-14 21:53:21:303,0,-12.7012,-3.14153,35.3608,Q,Q
2023-03-14 21:53:21:313,0,-12.6997,-3.13936,35.3512,Q,Q
2023-03-14 21:53:21:323,0,-12.7006,-3.13257,35.3438,Q,Q
2023-03-14 21:53:21:333,0,-12.7019,-3.13102,35.3362,Q,Q
2023-03-14 21:53:21:343,0,-12.7031,-3.12993,35.3323,Q,Q
2023-03-14 21:53:21:353,0,-12.7051,-3.12905,35.3293,Q,Q
2023-03-14 21:53:21:363,0,-12.7051,-3.13096,35.3287,Q,Q
2023-03-14 21:53:21:373,0,-12.7121,-3.12982,35.3289,Q,Q
2023-03-14 21:53:21:383,0,-12.7231,-3.13315,35.3343,Q,Q
2023-03-14 21:53:21:393,0,-12.7441,-3.1427,35.3458,Q,Q
2023-03-14 21:53:21:403,0,-12.7676,-3.15973,35.3681,Q,Q
2023-03-14 21:53:21:413,0,-12.7965,-3.18478,35.3978,Q,Q
2023-03-14 21:53:21:423,0,-12.8347,-3.22011,35.4276,Q,Q
2023-03-14 21:53:21:433,0,-12.878,-3.25691,35.444,Q,Q
2023-03-14 21:53:21:443,0,-12.9162,-3.28441,35.4505,Q,Q
2023-03-14 21:53:21:453,0,-12.9358,-3.2988,35.4336,Q,Q
2023-03-14 21:53:21:463,0,-12.9342,-3.30644,35.4037,Q,Q
2023-03-14 21:53:21:473,0,-12.9125,-3.31685,35.3625,Q,Q
2023-03-14 21:53:21:483,0,-12.8891,-3.32203,35.319,Q,Q
2023-03-14 21:53:21:493,0,-12.8607,-3.32274,35.2722,Q,Q
2023-03-14 21:53:21:503,0,-12.8318,-3.32748,35.2241,Q,Q
2023-03-14 21:53:21:513,0,-12.8111,-3.32073,35.1773,Q,Q
2023-03-14 21:53:21:523,0,-12.7952,-3.30542,35.1317,Q,Q
2023-03-14 21:53:21:533,0,-12.7863,-3.28309,35.0955,Q,Q
2023-03-14 21:53:21:543,0,-12.7831,-3.25506,35.0682,Q,Q
2023-03-14 21:53:21:553,0,-12.7887,-3.22619,35.0529,Q,Q
2023-03-14 21:53:21:563,0,-12.8012,-3.2039,35.0435,Q,Q
2023-03-14 21:53:21:573,0,-12.8284,-3.19862,35.0345,Q,Q
2023-03-14 21:53:21:583,0,-12.8724,-3.20557,35.0395,Q,Q
2023-03-14 21:53:21:593,0,-12.9203,-3.22623,35.0463,Q,Q
2023-03-14 21:53:21:603,0,-12.9672,-3.25838,35.0566,Q,Q
2023-03-14 21:53:21:613,0,-13.0071,-3.3025,35.0628,Q,Q
2023-03-14 21:53:21:623,0,-13.0356,-3.36123,35.0745,Q,Q
2023-03-14 21:53:21:632,0,-13.0622,-3.43402,35.0863,Q,Q
2023-03-14 21:53:21:643,0,-13.0865,-3.52284,35.1032,Q,Q
2023-03-14 21:53:21:653,0,-13.1077,-3.63624,35.1153,Q,Q
2023-03-14 21:53:21:663,0,-13.1351,-3.75657,35.1272,Q,Q
2023-03-14 21:53:21:673,0,-13.1627,-3.87632,35.1309,Q,Q
2023-03-14 21:53:21:683,0,-13.1849,-3.99046,35.1262,Q,Q
2023-03-14 21:53:21:693,0,-13.1985,-4.08966,35.1151,Q,Q
2023-03-14 21:53:21:703,0,-13.2002,-4.16955,35.0989,Q,Q
2023-03-14 21:53:21:713,0,-13.1981,-4.23144,35.0815,Q,Q
2023-03-14 21:53:21:723,0,-13.1954,-4.27839,35.0665,Q,Q
2023-03-14 21:53:21:733,0,-13.2076,-4.31054,35.0527,Q,Q
2023-03-14 21:53:21:743,0,-13.2228,-4.33287,35.0407,Q,Q
2023-03-14 21:53:21:753,0,-13.2521,-4.35065,35.0316,Q,Q
2023-03-14 21:53:21:763,0,-13.2891,-4.35487,35.0291,Q,Q
2023-03-14 21:53:21:773,0,-13.3273,-4.35083,35.0269,Q,Q
2023-03-14 21:53:21:783,0,-13.3718,-4.33894,35.024,Q,Q
2023-03-14 21:53:21:793,0,-13.4091,-4.31671,35.0243,Q,Q
2023-03-14 21:53:21:803,0,-13.4421,-4.28961,35.0262,Q,Q
2023-03-14 21:53:21:813,0,-13.4714,-4.25859,35.0258,Q,Q
2023-03-14 21:53:21:823,0,-13.5058,-4.24084,35.0202,Q,Q
2023-03-14 21:53:21:833,0,-13.5459,-4.22683,35.0088,Q,Q
2023-03-14 21:53:21:843,0,-13.5939,-4.21748,34.9926,Q,Q
2023-03-14 21:53:21:853,0,-13.6425,-4.21755,34.9643,Q,Q
2023-03-14 21:53:21:863,0,-13.6841,-4.21563,34.929,Q,Q
2023-03-14 21:53:21:873,0,-13.7254,-4.20408,34.8886,Q,Q
2023-03-14 21:53:21:883,0,-13.7564,-4.19405,34.8454,Q,Q
2023-03-14 21:53:21:893,0,-13.7861,-4.19196,34.7988,Q,Q
2023-03-14 21:53:21:903,0,-13.823,-4.19822,34.7526,Q,Q
2023-03-14 21:53:21:913,0,-13.8608,-4.21422,34.7107,Q,Q
2023-03-14 21:53:21:923,0,-13.9019,-4.24102,34.6774,Q,Q
2023-03-14 21:53:21:933,0,-13.9468,-4.26832,34.6484,Q,Q
2023-03-14 21:53:21:943,0,-13.9813,-4.29766,34.6242,Q,Q
2023-03-14 21:53:21:953,0,-14.0173,-4.31969,34.6037,Q,Q
2023-03-14 21:53:21:963,0,-14.0503,-4.33804,34.5848,Q,Q
2023-03-14 21:53:21:973,0,-14.0797,-4.3593,34.5673,Q,Q
2023-03-14 21:53:21:983,0,-14.1064,-4.38338,34.5497,Q,Q
2023-03-14 21:53:21:993,0,-14.1249,-4.41037,34.5299,Q,Q
2023-03-14 21:53:22:3,0,-14.1393,-4.43767,34.5119,Q,Q
2023-03-14 21:53:22:13,0,-14.1488,-4.46802,34.4956,Q,Q
2023-03-14 21:53:22:23,0,-14.1468,-4.50188,34.4764,Q,Q
2023-03-14 21:53:22:32,0,-14.1496,-4.53486,34.4543,Q,Q
2023-03-14 21:53:22:43,0,-14.1604,-4.55843,34.4381,Q,Q
2023-03-14 21:53:22:53,0,-14.1847,-4.57951,34.4155,Q,Q
2023-03-14 21:53:22:63,0,-14.2196,-4.59497,34.3988,Q,Q
2023-03-14 21:53:22:73,0,-14.264,-4.61266,34.3832,Q,Q
2023-03-14 21:53:22:83,0,-14.31,-4.63676,34.3681,Q,Q
2023-03-14 21:53:22:93,0,-14.3551,-4.6731,34.3501,Q,Q
2023-03-14 21:53:22:103,0,-14.4049,-4.70892,34.3349,Q,Q
2023-03-14 21:53:22:113,0,-14.454,-4.74183,34.3177,Q,Q
2023-03-14 21:53:22:123,0,-14.4987,-4.76551,34.3007,Q,Q
2023-03-14 21:53:22:132,0,-14.54,-4.77858,34.2842,Q,Q
2023-03-14 21:53:22:142,0,-14.5791,-4.78607,34.2667,Q,Q
2023-03-14 21:53:22:153,0,-14.6155,-4.78141,34.2482,Q,Q
2023-03-14 21:53:22:163,0,-14.655,-4.77203,34.2258,Q,Q
2023-03-14 21:53:22:173,0,-14.7049,-4.76749,34.1981,Q,Q
2023-03-14 21:53:22:183,0,-14.7485,-4.75607,34.1678,Q,Q
2023-03-14 21:53:22:193,0,-14.7924,-4.74943,34.1333,Q,Q
2023-03-14 21:53:22:203,0,-14.8296,-4.7453,34.0976,Q,Q
2023-03-14 21:53:22:213,0,-14.8614,-4.73849,34.0568,Q,Q
2023-03-14 21:53:22:223,0,-14.8852,-4.72933,34.0127,Q,Q
2023-03-14 21:53:22:233,0,-14.9016,-4.71863,33.9653,Q,Q
2023-03-14 21:53:22:243,0,-14.9152,-4.70845,33.9105,Q,Q
2023-03-14 21:53:22:253,0,-14.9222,-4.6971,33.8525,Q,Q
2023-03-14 21:53:22:263,0,-14.9304,-4.68875,33.7889,Q,Q
2023-03-14 21:53:22:273,0,-14.9372,-4.67661,33.7186,Q,Q
2023-03-14 21:53:22:283,0,-14.9371,-4.66551,33.648,Q,Q
2023-03-14 21:53:22:293,0,-14.9375,-4.65969,33.5691,Q,Q
2023-03-14 21:53:22:303,0,-14.9384,-4.65644,33.4875,Q,Q
2023-03-14 21:53:22:313,0,-14.9431,-4.65681,33.4069,Q,Q
2023-03-14 21:53:22:323,0,-14.949,-4.66624,33.3245,Q,Q
2023-03-14 21:53:22:333,0,-14.9674,-4.67986,33.2441,Q,Q
2023-03-14 21:53:22:343,0,-14.9847,-4.70272,33.1723,Q,Q
2023-03-14 21:53:22:353,0,-15.0122,-4.73222,33.0998,Q,Q
2023-03-14 21:53:22:363,0,-15.0489,-4.76727,33.031,Q,Q
2023-03-14 21:53:22:373,0,-15.0868,-4.80339,32.9677,Q,Q
2023-03-14 21:53:22:383,0,-15.121,-4.83624,32.9057,Q,Q
2023-03-14 21:53:22:393,0,-15.1485,-4.86772,32.8441,Q,Q
2023-03-14 21:53:22:403,0,-15.1647,-4.89019,32.7807,Q,Q
2023-03-14 21:53:22:413,0,-15.1731,-4.91489,32.7212,Q,Q
2023-03-14 21:53:22:423,0,-15.1746,-4.93409,32.662,Q,Q
2023-03-14 21:53:22:433,0,-15.1748,-4.95159,32.6112,Q,Q
2023-03-14 21:53:22:443,0,-15.178,-4.97482,32.5646,Q,Q
2023-03-14 21:53:22:453,0,-15.1782,-5.00137,32.5147,Q,Q
2023-03-14 21:53:22:463,0,-15.1784,-5.02503,32.4609,Q,Q
2023-03-14 21:53:22:473,0,-15.1711,-5.04837,32.3926,Q,Q
2023-03-14 21:53:22:483,0,-15.1597,-5.06689,32.3117,Q,Q
2023-03-14 21:53:22:493,0,-15.1417,-5.07733,32.2173,Q,Q
2023-03-14 21:53:22:503,0,-15.1196,-5.07469,32.1154,Q,Q
2023-03-14 21:53:22:513,0,-15.0959,-5.07792,32.0091,Q,Q
2023-03-14 21:53:22:523,0,-15.0722,-5.0906,31.9033,Q,Q
2023-03-14 21:53:22:533,0,-15.0592,-5.10391,31.8021,Q,Q
2023-03-14 21:53:22:543,0,-15.0516,-5.12031,31.7051,Q,Q
2023-03-14 21:53:22:553,0,-15.0495,-5.13115,31.6044,Q,Q
2023-03-14 21:53:22:563,0,-15.0502,-5.14003,31.5092,Q,Q
2023-03-14 21:53:22:573,0,-15.0533,-5.15037,31.4222,Q,Q
2023-03-14 21:53:22:583,0,-15.056,-5.15254,31.3383,Q,Q
2023-03-14 21:53:22:593,0,-15.0621,-5.15197,31.2683,Q,Q
2023-03-14 21:53:22:603,0,-15.0626,-5.15066,31.2012,Q,Q
2023-03-14 21:53:22:613,0,-15.0644,-5.15094,31.1404,Q,Q
2023-03-14 21:53:22:623,0,-15.0677,-5.15151,31.0873,Q,Q
2023-03-14 21:53:22:633,0,-15.0666,-5.15322,31.0422,Q,Q
2023-03-14 21:53:22:643,0,-15.0614,-5.1528,31.0036,Q,Q
2023-03-14 21:53:22:653,0,-15.0481,-5.14848,30.969,Q,Q
2023-03-14 21:53:22:663,0,-15.0267,-5.14086,30.946,Q,Q
2023-03-14 21:53:22:673,0,-14.9964,-5.13603,30.9274,Q,Q
2023-03-14 21:53:22:682,0,-14.9609,-5.13248,30.9153,Q,Q
2023-03-14 21:53:22:693,0,-14.9232,-5.12792,30.9058,Q,Q
2023-03-14 21:53:22:703,0,-14.8833,-5.12246,30.8984,Q,Q
2023-03-14 21:53:22:713,0,-14.8411,-5.11714,30.8875,Q,Q
2023-03-14 21:53:22:723,0,-14.7952,-5.1065,30.876,Q,Q
2023-03-14 21:53:22:733,0,-14.7454,-5.09887,30.8629,Q,Q
2023-03-14 21:53:22:743,0,-14.6975,-5.09288,30.8525,Q,Q
2023-03-14 21:53:22:753,0,-14.6466,-5.09429,30.8471,Q,Q
2023-03-14 21:53:22:763,0,-14.5972,-5.09939,30.8365,Q,Q
2023-03-14 21:53:22:773,0,-14.5483,-5.10887,30.8262,Q,Q
