Timestamp_cmd,imu_cmd,roll_delta,pitch_delta,yaw_delta,voice_type,voice_length
2023-03-15 13:40:41:377,0,1.76832,-3.60795,54.9679,Q,Q
2023-03-15 13:40:41:385,0,1.74632,-3.58293,54.9241,Q,Q
2023-03-15 13:40:41:395,0,1.7152,-3.56832,54.897,Q,Q
2023-03-15 13:40:41:405,0,1.68014,-3.55279,54.8797,Q,Q
2023-03-15 13:40:41:415,0,1.63635,-3.53897,54.8776,Q,Q
2023-03-15 13:40:41:425,0,1.58462,-3.52018,54.8924,Q,Q
2023-03-15 13:40:41:435,0,1.52091,-3.50518,54.9265,Q,Q
2023-03-15 13:40:41:445,0,1.44166,-3.48574,54.9748,Q,Q
2023-03-15 13:40:41:455,0,1.35922,-3.46491,55.0266,Q,Q
2023-03-15 13:40:41:465,0,1.2775,-3.44237,55.0783,Q,Q
2023-03-15 13:40:41:475,0,1.2073,-3.42501,55.1303,Q,Q
2023-03-15 13:40:41:485,0,1.15226,-3.41039,55.1714,Q,Q
2023-03-15 13:40:41:495,0,1.11806,-3.39458,55.2057,Q,Q
2023-03-15 13:40:41:505,0,1.10612,-3.37715,55.2252,Q,Q
2023-03-15 13:40:41:515,0,1.11471,-3.35823,55.2298,Q,Q
2023-03-15 13:40:41:525,0,1.13703,-3.32615,55.2085,Q,Q
2023-03-15 13:40:41:535,0,1.16697,-3.27892,55.1601,Q,Q
2023-03-15 13:40:41:545,0,1.19979,-3.22653,55.0952,Q,Q
2023-03-15 13:40:41:555,0,1.21848,-3.16897,55.0197,Q,Q
2023-03-15 13:40:41:565,0,1.22152,-3.11524,54.9427,Q,Q
2023-03-15 13:40:41:575,0,1.20937,-3.06994,54.8727,Q,Q
2023-03-15 13:40:41:585,0,1.18367,-3.03164,54.8137,Q,Q
2023-03-15 13:40:41:595,0,1.1456,-2.99195,54.7602,Q,Q
2023-03-15 13:40:41:605,0,1.09535,-2.94972,54.7147,Q,Q
2023-03-15 13:40:41:615,0,1.02862,-2.91198,54.6866,Q,Q
2023-03-15 13:40:41:625,0,0.946608,-2.88686,54.6825,Q,Q
2023-03-15 13:40:41:635,0,0.84957,-2.88048,54.7054,Q,Q
2023-03-15 13:40:41:645,0,0.739981,-2.89116,54.7742,Q,Q
2023-03-15 13:40:41:655,0,0.621084,-2.92131,54.8797,Q,Q
2023-03-15 13:40:41:665,0,0.498891,-2.96009,55.0111,Q,Q
2023-03-15 13:40:41:675,0,0.375577,-2.99906,55.1625,Q,Q
2023-03-15 13:40:41:685,0,0.264128,-3.04985,55.3233,Q,Q
2023-03-15 13:40:41:695,0,0.166691,-3.10707,55.488,Q,Q
2023-03-15 13:40:41:705,0,0.0896347,-3.17913,55.6637,Q,Q
2023-03-15 13:40:41:715,0,0.0300225,-3.25471,55.8375,Q,Q
2023-03-15 13:40:41:725,0,-0.00731628,-3.33005,56.0078,Q,Q
2023-03-15 13:40:41:735,0,-0.0242916,-3.39537,56.1645,Q,Q
2023-03-15 13:40:41:745,0,-0.019129,-3.45028,56.3085,Q,Q
2023-03-15 13:40:41:755,0,-0.00738279,-3.50343,56.4384,Q,Q
2023-03-15 13:40:41:765,0,0.0211398,-3.54704,56.5553,Q,Q
2023-03-15 13:40:41:775,0,0.0597439,-3.58265,56.6544,Q,Q
2023-03-15 13:40:41:785,0,0.106727,-3.60736,56.7387,Q,Q
2023-03-15 13:40:41:795,0,0.157209,-3.61946,56.8052,Q,Q
2023-03-15 13:40:41:805,0,0.206997,-3.61956,56.8571,Q,Q
2023-03-15 13:40:41:815,0,0.249337,-3.61819,56.8965,Q,Q
2023-03-15 13:40:41:825,0,0.286056,-3.61422,56.9281,Q,Q
2023-03-15 13:40:41:835,0,0.309556,-3.60988,56.956,Q,Q
2023-03-15 13:40:41:845,0,0.326474,-3.60464,56.9812,Q,Q
2023-03-15 13:40:41:855,0,0.335058,-3.59777,57.0008,Q,Q
2023-03-15 13:40:41:865,0,0.336519,-3.59753,57.0241,Q,Q
2023-03-15 13:40:41:875,0,0.33638,-3.6045,57.0392,Q,Q
2023-03-15 13:40:41:885,0,0.332581,-3.61054,57.0579,Q,Q
2023-03-15 13:40:41:895,0,0.32463,-3.62346,57.0739,Q,Q
2023-03-15 13:40:41:905,0,0.315367,-3.64061,57.0943,Q,Q
2023-03-15 13:40:41:915,0,0.307362,-3.66555,57.1142,Q,Q
2023-03-15 13:40:41:925,0,0.29956,-3.69578,57.1398,Q,Q
2023-03-15 13:40:41:935,0,0.297118,-3.73223,57.1649,Q,Q
2023-03-15 13:40:41:945,0,0.297154,-3.76675,57.1918,Q,Q
2023-03-15 13:40:41:955,0,0.301204,-3.80588,57.2205,Q,Q
2023-03-15 13:40:41:964,0,0.31492,-3.84523,57.2534,Q,Q
2023-03-15 13:40:41:974,0,0.326145,-3.88374,57.2868,Q,Q
2023-03-15 13:40:41:984,0,0.328688,-3.9204,57.3189,Q,Q
2023-03-15 13:40:41:994,0,0.33217,-3.95186,57.3545,Q,Q
2023-03-15 13:40:42:4,0,0.331557,-3.98454,57.3888,Q,Q
2023-03-15 13:40:42:14,0,0.322109,-4.00642,57.42,Q,Q
2023-03-15 13:40:42:24,0,0.314934,-4.02347,57.4541,Q,Q
2023-03-15 13:40:42:34,0,0.312823,-4.03609,57.4861,Q,Q
2023-03-15 13:40:42:45,0,0.316801,-4.04004,57.519,Q,Q
2023-03-15 13:40:42:54,0,0.32675,-4.03921,57.557,Q,Q
2023-03-15 13:40:42:64,0,0.340395,-4.03285,57.5919,Q,Q
2023-03-15 13:40:42:74,0,0.360806,-4.02389,57.6368,Q,Q
2023-03-15 13:40:42:85,0,0.384829,-4.01659,57.6807,Q,Q
2023-03-15 13:40:42:95,0,0.408675,-4.00728,57.7268,Q,Q
2023-03-15 13:40:42:105,0,0.43527,-3.98845,57.7764,Q,Q
2023-03-15 13:40:42:115,0,0.455727,-3.96855,57.8277,Q,Q
2023-03-15 13:40:42:125,0,0.47493,-3.9449,57.8783,Q,Q
2023-03-15 13:40:42:135,0,0.486813,-3.91748,57.9234,Q,Q
2023-03-15 13:40:42:145,0,0.494932,-3.89051,57.9655,Q,Q
2023-03-15 13:40:42:155,0,0.502307,-3.86206,58.0081,Q,Q
2023-03-15 13:40:42:165,0,0.509484,-3.83202,58.0455,Q,Q
2023-03-15 13:40:42:175,0,0.520997,-3.80541,58.078,Q,Q
2023-03-15 13:40:42:185,0,0.533659,-3.78548,58.105,Q,Q
2023-03-15 13:40:42:194,0,0.544943,-3.76633,58.1262,Q,Q
2023-03-15 13:40:42:205,0,0.557888,-3.75989,58.1451,Q,Q
2023-03-15 13:40:42:215,0,0.576033,-3.75825,58.1611,Q,Q
2023-03-15 13:40:42:225,0,0.597102,-3.76255,58.1726,Q,Q
2023-03-15 13:40:42:235,0,0.612863,-3.77001,58.1847,Q,Q
2023-03-15 13:40:42:245,0,0.624248,-3.77732,58.1889,Q,Q
2023-03-15 13:40:42:255,0,0.641205,-3.78107,58.187,Q,Q
2023-03-15 13:40:42:265,0,0.65857,-3.78167,58.1801,Q,Q
2023-03-15 13:40:42:275,0,0.678263,-3.77663,58.165,Q,Q
2023-03-15 13:40:42:285,0,0.702491,-3.77056,58.1535,Q,Q
2023-03-15 13:40:42:295,0,0.725854,-3.76307,58.1419,Q,Q
2023-03-15 13:40:42:305,0,0.747345,-3.75267,58.1341,Q,Q
2023-03-15 13:40:42:315,0,0.762773,-3.7439,58.1295,Q,Q
2023-03-15 13:40:42:325,0,0.775031,-3.73197,58.1328,Q,Q
2023-03-15 13:40:42:335,0,0.781771,-3.72252,58.1378,Q,Q
2023-03-15 13:40:42:345,0,0.786441,-3.71253,58.1451,Q,Q
2023-03-15 13:40:42:355,0,0.78307,-3.70512,58.1607,Q,Q
2023-03-15 13:40:42:364,0,0.773011,-3.70323,58.1795,Q,Q
2023-03-15 13:40:42:375,0,0.762877,-3.70293,58.2064,Q,Q
2023-03-15 13:40:42:384,0,0.745897,-3.70537,58.2342,Q,Q
2023-03-15 13:40:42:395,0,0.725622,-3.71343,58.2664,Q,Q
2023-03-15 13:40:42:405,0,0.704307,-3.71657,58.297,Q,Q
2023-03-15 13:40:42:415,0,0.692089,-3.71705,58.3236,Q,Q
2023-03-15 13:40:42:425,0,0.684565,-3.7229,58.3482,Q,Q
2023-03-15 13:40:42:435,0,0.680249,-3.72709,58.3703,Q,Q
2023-03-15 13:40:42:445,0,0.682161,-3.73242,58.3902,Q,Q
2023-03-15 13:40:42:455,0,0.68669,-3.73709,58.4128,Q,Q
2023-03-15 13:40:42:465,0,0.694722,-3.74046,58.4329,Q,Q
2023-03-15 13:40:42:475,0,0.70636,-3.74246,58.4505,Q,Q
2023-03-15 13:40:42:485,0,0.717397,-3.73892,58.463,Q,Q
2023-03-15 13:40:42:495,0,0.728585,-3.72796,58.4712,Q,Q
2023-03-15 13:40:42:505,0,0.737956,-3.71196,58.4765,Q,Q
2023-03-15 13:40:42:515,0,0.74987,-3.69609,58.4812,Q,Q
2023-03-15 13:40:42:525,0,0.763926,-3.67874,58.4805,Q,Q
2023-03-15 13:40:42:535,0,0.778185,-3.66105,58.4823,Q,Q
2023-03-15 13:40:42:545,0,0.78796,-3.63966,58.4817,Q,Q
2023-03-15 13:40:42:555,0,0.794674,-3.61877,58.4857,Q,Q
2023-03-15 13:40:42:564,0,0.797636,-3.59998,58.4893,Q,Q
2023-03-15 13:40:42:574,0,0.794012,-3.58149,58.4938,Q,Q
2023-03-15 13:40:42:584,0,0.78356,-3.56213,58.4987,Q,Q
2023-03-15 13:40:42:594,0,0.761359,-3.5444,58.5112,Q,Q
2023-03-15 13:40:42:605,0,0.739295,-3.53444,58.5265,Q,Q
2023-03-15 13:40:42:615,0,0.715451,-3.52509,58.5445,Q,Q
2023-03-15 13:40:42:625,0,0.695044,-3.52276,58.5658,Q,Q
2023-03-15 13:40:42:635,0,0.679287,-3.52016,58.5867,Q,Q
2023-03-15 13:40:42:645,0,0.669795,-3.52218,58.6062,Q,Q
2023-03-15 13:40:42:655,0,0.664747,-3.52166,58.6235,Q,Q
2023-03-15 13:40:42:664,0,0.662331,-3.52328,58.6415,Q,Q
2023-03-15 13:40:42:675,0,0.662302,-3.52285,58.6583,Q,Q
2023-03-15 13:40:42:685,0,0.661186,-3.52193,58.6737,Q,Q
2023-03-15 13:40:42:695,0,0.656413,-3.52033,58.6913,Q,Q
2023-03-15 13:40:42:705,0,0.643864,-3.5122,58.7018,Q,Q
2023-03-15 13:40:42:715,0,0.632399,-3.50531,58.7052,Q,Q
2023-03-15 13:40:42:725,0,0.614307,-3.50048,58.7067,Q,Q
2023-03-15 13:40:42:735,0,0.595705,-3.49669,58.7055,Q,Q
2023-03-15 13:40:42:745,0,0.578143,-3.49536,58.7079,Q,Q
2023-03-15 13:40:42:755,0,0.554947,-3.49037,58.7107,Q,Q
2023-03-15 13:40:42:764,0,0.532226,-3.48181,58.7173,Q,Q
2023-03-15 13:40:42:775,0,0.514905,-3.46734,58.7246,Q,Q
2023-03-15 13:40:42:785,0,0.501496,-3.44964,58.7296,Q,Q
2023-03-15 13:40:42:795,0,0.484358,-3.42945,58.74,Q,Q
2023-03-15 13:40:42:805,0,0.467271,-3.40696,58.746,Q,Q
2023-03-15 13:40:42:815,0,0.446486,-3.38221,58.748,Q,Q
2023-03-15 13:40:42:825,0,0.426245,-3.3641,58.7559,Q,Q
2023-03-15 13:40:42:834,0,0.406649,-3.35062,58.7732,Q,Q
2023-03-15 13:40:42:845,0,0.390509,-3.342,58.7901,Q,Q
2023-03-15 13:40:42:855,0,0.374763,-3.33194,58.8083,Q,Q
2023-03-15 13:40:42:864,0,0.358563,-3.31673,58.826,Q,Q
2023-03-15 13:40:42:875,0,0.337991,-3.30056,58.8416,Q,Q
2023-03-15 13:40:42:885,0,0.311691,-3.28602,58.8556,Q,Q
2023-03-15 13:40:42:895,0,0.284834,-3.27179,58.8723,Q,Q
2023-03-15 13:40:42:905,0,0.258887,-3.26165,58.8823,Q,Q
2023-03-15 13:40:42:915,0,0.234232,-3.24349,58.8936,Q,Q
2023-03-15 13:40:42:925,0,0.204167,-3.22869,58.9023,Q,Q
2023-03-15 13:40:42:935,0,0.176023,-3.21294,58.9099,Q,Q
2023-03-15 13:40:42:945,0,0.148312,-3.19757,58.9134,Q,Q
2023-03-15 13:40:42:954,0,0.125469,-3.18425,58.9154,Q,Q
2023-03-15 13:40:42:964,0,0.111462,-3.17298,58.9173,Q,Q
2023-03-15 13:40:42:975,0,0.0998482,-3.16898,58.9196,Q,Q
2023-03-15 13:40:42:985,0,0.0855717,-3.17034,58.9233,Q,Q
2023-03-15 13:40:42:994,0,0.0707441,-3.17182,58.9272,Q,Q
2023-03-15 13:40:43:5,0,0.0546556,-3.17171,58.9278,Q,Q
2023-03-15 13:40:43:15,0,0.0406599,-3.16893,58.9273,Q,Q
2023-03-15 13:40:43:25,0,0.0326506,-3.1689,58.9305,Q,Q
2023-03-15 13:40:43:34,0,0.026852,-3.16805,58.9337,Q,Q
2023-03-15 13:40:43:44,0,0.0227812,-3.16884,58.9397,Q,Q
2023-03-15 13:40:43:54,0,0.0118885,-3.17155,58.9474,Q,Q
2023-03-15 13:40:43:65,0,0.000196388,-3.17985,58.957,Q,Q
2023-03-15 13:40:43:75,0,-0.0113959,-3.18774,58.9654,Q,Q
2023-03-15 13:40:43:84,0,-0.0277188,-3.18979,58.9762,Q,Q
2023-03-15 13:40:43:94,0,-0.038826,-3.19361,58.9861,Q,Q
2023-03-15 13:40:43:105,0,-0.050399,-3.19809,58.9978,Q,Q
2023-03-15 13:40:43:114,0,-0.063635,-3.20173,59.0094,Q,Q
2023-03-15 13:40:43:125,0,-0.0760673,-3.2093,59.0289,Q,Q
2023-03-15 13:40:43:134,0,-0.0890334,-3.21539,59.0488,Q,Q
2023-03-15 13:40:43:144,0,-0.0996834,-3.21947,59.0704,Q,Q
2023-03-15 13:40:43:155,0,-0.113363,-3.22182,59.0885,Q,Q
2023-03-15 13:40:43:164,0,-0.129825,-3.21974,59.111,Q,Q
2023-03-15 13:40:43:174,0,-0.141335,-3.21976,59.1315,Q,Q
2023-03-15 13:40:43:184,0,-0.154071,-3.2169,59.1525,Q,Q
2023-03-15 13:40:43:194,0,-0.162448,-3.21292,59.1688,Q,Q
2023-03-15 13:40:43:204,0,-0.17353,-3.20781,59.1839,Q,Q
2023-03-15 13:40:43:214,0,-0.186333,-3.20603,59.1948,Q,Q
2023-03-15 13:40:43:224,0,-0.196403,-3.20646,59.206,Q,Q
2023-03-15 13:40:43:234,0,-0.205298,-3.20411,59.215,Q,Q
2023-03-15 13:40:43:244,0,-0.214536,-3.19907,59.2168,Q,Q
2023-03-15 13:40:43:254,0,-0.223756,-3.1925,59.2182,Q,Q
2023-03-15 13:40:43:265,0,-0.230759,-3.18518,59.2144,Q,Q
2023-03-15 13:40:43:274,0,-0.234241,-3.18375,59.2077,Q,Q
2023-03-15 13:40:43:284,0,-0.235394,-3.17819,59.2005,Q,Q
2023-03-15 13:40:43:294,0,-0.241286,-3.169,59.1956,Q,Q
2023-03-15 13:40:43:304,0,-0.24497,-3.16405,59.192,Q,Q
2023-03-15 13:40:43:314,0,-0.245357,-3.15856,59.1874,Q,Q
2023-03-15 13:40:43:324,0,-0.245648,-3.15606,59.1839,Q,Q
2023-03-15 13:40:43:334,0,-0.245961,-3.15118,59.1841,Q,Q
2023-03-15 13:40:43:344,0,-0.252051,-3.14791,59.1849,Q,Q
2023-03-15 13:40:43:354,0,-0.253864,-3.14612,59.1846,Q,Q
2023-03-15 13:40:43:364,0,-0.25894,-3.14306,59.1829,Q,Q
2023-03-15 13:40:43:374,0,-0.265421,-3.14032,59.1831,Q,Q
2023-03-15 13:40:43:384,0,-0.273542,-3.13601,59.1829,Q,Q
2023-03-15 13:40:43:394,0,-0.28234,-3.13683,59.1888,Q,Q
2023-03-15 13:40:43:404,0,-0.288969,-3.13333,59.1913,Q,Q
2023-03-15 13:40:43:415,0,-0.297023,-3.13272,59.1949,Q,Q
2023-03-15 13:40:43:424,0,-0.301958,-3.13362,59.2014,Q,Q
2023-03-15 13:40:43:434,0,-0.307996,-3.13672,59.2079,Q,Q
2023-03-15 13:40:43:444,0,-0.312836,-3.13944,59.2188,Q,Q
2023-03-15 13:40:43:455,0,-0.317765,-3.14397,59.2321,Q,Q
2023-03-15 13:40:43:464,0,-0.323841,-3.14704,59.2406,Q,Q
2023-03-15 13:40:43:474,0,-0.333961,-3.14918,59.249,Q,Q
2023-03-15 13:40:43:485,0,-0.342771,-3.15406,59.2603,Q,Q
2023-03-15 13:40:43:494,0,-0.348649,-3.15617,59.2703,Q,Q
2023-03-15 13:40:43:504,0,-0.354781,-3.1631,59.2826,Q,Q
2023-03-15 13:40:43:514,0,-0.364131,-3.16935,59.2982,Q,Q
2023-03-15 13:40:43:524,0,-0.380967,-3.1808,59.3144,Q,Q
2023-03-15 13:40:43:534,0,-0.397435,-3.18357,59.3294,Q,Q
2023-03-15 13:40:43:544,0,-0.410953,-3.1868,59.3426,Q,Q
2023-03-15 13:40:43:554,0,-0.423237,-3.18433,59.3533,Q,Q
2023-03-15 13:40:43:564,0,-0.428846,-3.17998,59.3621,Q,Q
2023-03-15 13:40:43:574,0,-0.435947,-3.17758,59.3757,Q,Q
2023-03-15 13:40:43:585,0,-0.439377,-3.17627,59.3895,Q,Q
2023-03-15 13:40:43:594,0,-0.439169,-3.17763,59.4,Q,Q
2023-03-15 13:40:43:604,0,-0.439562,-3.17835,59.4051,Q,Q
2023-03-15 13:40:43:614,0,-0.435719,-3.18157,59.4082,Q,Q
2023-03-15 13:40:43:625,0,-0.429988,-3.18648,59.4149,Q,Q
2023-03-15 13:40:43:635,0,-0.428794,-3.18341,59.4112,Q,Q
2023-03-15 13:40:43:645,0,-0.425703,-3.18479,59.4054,Q,Q
2023-03-15 13:40:43:655,0,-0.427036,-3.18598,59.4001,Q,Q
2023-03-15 13:40:43:664,0,-0.42588,-3.18748,59.3944,Q,Q
2023-03-15 13:40:43:674,0,-0.425867,-3.18882,59.3894,Q,Q
2023-03-15 13:40:43:684,0,-0.428385,-3.18917,59.3874,Q,Q
2023-03-15 13:40:43:694,0,-0.432768,-3.18821,59.3792,Q,Q
2023-03-15 13:40:43:705,0,-0.441042,-3.18867,59.3715,Q,Q
2023-03-15 13:40:43:715,0,-0.447566,-3.18867,59.3613,Q,Q
2023-03-15 13:40:43:724,0,-0.452531,-3.18594,59.349,Q,Q
2023-03-15 13:40:43:734,0,-0.452686,-3.18503,59.3391,Q,Q
2023-03-15 13:40:43:744,0,-0.451606,-3.1916,59.3311,Q,Q
2023-03-15 13:40:43:755,0,-0.449577,-3.20622,59.3233,Q,Q
2023-03-15 13:40:43:764,0,-0.451123,-3.22175,59.3269,Q,Q
2023-03-15 13:40:43:774,0,-0.456717,-3.23551,59.3343,Q,Q
2023-03-15 13:40:43:784,0,-0.457604,-3.25296,59.3375,Q,Q
2023-03-15 13:40:43:794,0,-0.459767,-3.26638,59.3453,Q,Q
2023-03-15 13:40:43:805,0,-0.457515,-3.28207,59.354,Q,Q
2023-03-15 13:40:43:814,0,-0.459372,-3.29544,59.3625,Q,Q
2023-03-15 13:40:43:824,0,-0.462272,-3.31227,59.3687,Q,Q
2023-03-15 13:40:43:834,0,-0.463276,-3.32547,59.376,Q,Q
2023-03-15 13:40:43:844,0,-0.463604,-3.34083,59.3831,Q,Q
2023-03-15 13:40:43:854,0,-0.465542,-3.35822,59.3906,Q,Q
2023-03-15 13:40:43:864,0,-0.46192,-3.37611,59.402,Q,Q
2023-03-15 13:40:43:874,0,-0.463802,-3.39964,59.4096,Q,Q
2023-03-15 13:40:43:884,0,-0.468476,-3.42186,59.4183,Q,Q
2023-03-15 13:40:43:894,0,-0.476664,-3.44335,59.4272,Q,Q
2023-03-15 13:40:43:904,0,-0.483501,-3.46152,59.4335,Q,Q
2023-03-15 13:40:43:914,0,-0.485587,-3.4804,59.4321,Q,Q
2023-03-15 13:40:43:924,0,-0.486702,-3.49149,59.4273,Q,Q
2023-03-15 13:40:43:934,0,-0.478289,-3.50728,59.4197,Q,Q
2023-03-15 13:40:43:944,0,-0.46739,-3.51908,59.4086,Q,Q
2023-03-15 13:40:43:954,0,-0.453499,-3.52909,59.3934,Q,Q
2023-03-15 13:40:43:964,0,-0.435723,-3.53815,59.3748,Q,Q
2023-03-15 13:40:43:974,0,-0.420575,-3.54548,59.3525,Q,Q
2023-03-15 13:40:43:984,0,-0.403328,-3.54845,59.3272,Q,Q
2023-03-15 13:40:43:994,0,-0.390036,-3.55112,59.302,Q,Q
2023-03-15 13:40:44:4,0,-0.375637,-3.54999,59.2733,Q,Q
2023-03-15 13:40:44:14,0,-0.362385,-3.54857,59.2427,Q,Q
2023-03-15 13:40:44:24,0,-0.350287,-3.54552,59.2175,Q,Q
2023-03-15 13:40:44:34,0,-0.335905,-3.54191,59.196,Q,Q
2023-03-15 13:40:44:44,0,-0.326733,-3.53984,59.1778,Q,Q
2023-03-15 13:40:44:54,0,-0.317388,-3.53686,59.1643,Q,Q
2023-03-15 13:40:44:64,0,-0.309973,-3.5296,59.1482,Q,Q
2023-03-15 13:40:44:74,0,-0.304097,-3.52455,59.1326,Q,Q
2023-03-15 13:40:44:84,0,-0.302541,-3.52296,59.1235,Q,Q
2023-03-15 13:40:44:94,0,-0.302105,-3.52247,59.1142,Q,Q
2023-03-15 13:40:44:104,0,-0.307142,-3.52471,59.1058,Q,Q
2023-03-15 13:40:44:114,0,-0.31016,-3.52414,59.0978,Q,Q
2023-03-15 13:40:44:124,0,-0.315765,-3.52552,59.0912,Q,Q
2023-03-15 13:40:44:134,0,-0.319922,-3.53262,59.0837,Q,Q
2023-03-15 13:40:44:144,0,-0.329498,-3.54007,59.0739,Q,Q
2023-03-15 13:40:44:154,0,-0.333803,-3.54766,59.0679,Q,Q
2023-03-15 13:40:44:164,0,-0.342554,-3.55515,59.0687,Q,Q
2023-03-15 13:40:44:174,0,-0.351614,-3.56632,59.07,Q,Q
2023-03-15 13:40:44:184,0,-0.357623,-3.5778,59.0784,Q,Q
2023-03-15 13:40:44:194,0,-0.367327,-3.58821,59.0857,Q,Q
2023-03-15 13:40:44:204,0,-0.369337,-3.60175,59.093,Q,Q
2023-03-15 13:40:44:214,0,-0.368664,-3.61445,59.1028,Q,Q
2023-03-15 13:40:44:225,0,-0.36962,-3.62803,59.1141,Q,Q
2023-03-15 13:40:44:234,0,-0.373675,-3.63616,59.1201,Q,Q
2023-03-15 13:40:44:244,0,-0.382664,-3.64346,59.1218,Q,Q
2023-03-15 13:40:44:254,0,-0.397127,-3.65197,59.1187,Q,Q
2023-03-15 13:40:44:264,0,-0.41156,-3.65928,59.1094,Q,Q
2023-03-15 13:40:44:274,0,-0.425223,-3.67019,59.0866,Q,Q
2023-03-15 13:40:44:284,0,-0.438981,-3.6874,59.054,Q,Q
2023-03-15 13:40:44:295,0,-0.452292,-3.70978,58.9984,Q,Q
2023-03-15 13:40:44:304,0,-0.456983,-3.73441,58.9003,Q,Q
2023-03-15 13:40:44:315,0,-0.448108,-3.7563,58.7499,Q,Q
2023-03-15 13:40:44:325,0,-0.422505,-3.7805,58.546,Q,Q
2023-03-15 13:40:44:334,0,-0.379679,-3.81394,58.2868,Q,Q
2023-03-15 13:40:44:344,0,-0.332154,-3.85725,57.9645,Q,Q
2023-03-15 13:40:44:354,0,-0.281681,-3.91179,57.5617,Q,Q
2023-03-15 13:40:44:364,0,-0.229156,-3.96837,57.0516,Q,Q
2023-03-15 13:40:44:374,0,-0.170451,-4.02849,56.4183,Q,Q
2023-03-15 13:40:44:384,0,-0.101955,-4.0875,55.6437,Q,Q
2023-03-15 13:40:44:394,0,-0.0358053,-4.14445,54.718,Q,Q
2023-03-15 13:40:44:404,0,0.029565,-4.197,53.6397,Q,Q
2023-03-15 13:40:44:414,0,0.0889693,-4.24789,52.4207,Q,Q
2023-03-15 13:40:44:424,0,0.156455,-4.32761,51.0981,Q,Q
2023-03-15 13:40:44:434,0,0.233783,-4.44328,49.7114,Q,Q
2023-03-15 13:40:44:444,0,0.324566,-4.601,48.2961,Q,Q
2023-03-15 13:40:44:454,0,0.418182,-4.79287,46.8679,Q,Q
2023-03-15 13:40:44:464,0,0.512401,-4.99168,45.4305,Q,Q
2023-03-15 13:40:44:474,0,0.598922,-5.18251,43.982,Q,Q
2023-03-15 13:40:44:484,0,0.679779,-5.35223,42.5263,Q,Q
2023-03-15 13:40:44:495,0,0.753068,-5.49802,41.0857,Q,Q
2023-03-15 13:40:44:504,0,0.819005,-5.62828,39.6751,Q,Q
2023-03-15 13:40:44:514,0,0.883095,-5.74326,38.3013,Q,Q
2023-03-15 13:40:44:524,0,0.955696,-5.83161,36.9647,Q,Q
2023-03-15 13:40:44:534,0,1.04812,-5.89517,35.6726,Q,Q
2023-03-15 13:40:44:544,0,1.15521,-5.94122,34.4519,Q,Q
2023-03-15 13:40:44:554,0,1.2737,-5.98992,33.3295,Q,Q
2023-03-15 13:40:44:564,0,1.39374,-6.0279,32.3125,Q,Q
2023-03-15 13:40:44:574,0,1.49754,-6.05553,31.3828,Q,Q
2023-03-15 13:40:44:584,0,1.59078,-6.05726,30.5236,Q,Q
2023-03-15 13:40:44:594,0,1.66818,-6.03237,29.7322,Q,Q
2023-03-15 13:40:44:604,0,1.73045,-5.9882,28.9992,Q,Q
2023-03-15 13:40:44:614,0,1.78354,-5.93042,28.3291,Q,Q
2023-03-15 13:40:44:624,0,1.82054,-5.87504,27.717,Q,Q
2023-03-15 13:40:44:634,0,1.84725,-5.82548,27.1514,Q,Q
2023-03-15 13:40:44:644,0,1.87037,-5.78029,26.6304,Q,Q
2023-03-15 13:40:44:654,0,1.89167,-5.74062,26.1372,Q,Q
2023-03-15 13:40:44:664,0,1.91451,-5.70195,25.6726,Q,Q
2023-03-15 13:40:44:674,0,1.93979,-5.66744,25.2288,Q,Q
2023-03-15 13:40:44:684,0,1.95834,-5.64124,24.8104,Q,Q
2023-03-15 13:40:44:695,0,1.96608,-5.61773,24.4131,Q,Q
2023-03-15 13:40:44:705,0,1.96033,-5.60156,24.0286,Q,Q
2023-03-15 13:40:44:714,0,1.94401,-5.59494,23.6629,Q,Q
2023-03-15 13:40:44:724,0,1.91813,-5.59612,23.3032,Q,Q
2023-03-15 13:40:44:734,0,1.88757,-5.59462,22.9548,Q,Q
2023-03-15 13:40:44:744,0,1.85036,-5.59852,22.6105,Q,Q
2023-03-15 13:40:44:754,0,1.80602,-5.60721,22.2824,Q,Q
2023-03-15 13:40:44:764,0,1.75996,-5.62804,21.969,Q,Q
2023-03-15 13:40:44:774,0,1.69297,-5.66103,21.677,Q,Q
2023-03-15 13:40:44:784,0,1.61137,-5.70659,21.4003,Q,Q
2023-03-15 13:40:44:794,0,1.51653,-5.76208,21.1449,Q,Q
2023-03-15 13:40:44:804,0,1.41259,-5.8147,20.8954,Q,Q
2023-03-15 13:40:44:814,0,1.29883,-5.85148,20.646,Q,Q
2023-03-15 13:40:44:824,0,1.18261,-5.87979,20.3978,Q,Q
2023-03-15 13:40:44:834,0,1.0662,-5.90626,20.1579,Q,Q
2023-03-15 13:40:44:844,0,0.94988,-5.92603,19.9252,Q,Q
2023-03-15 13:40:44:854,0,0.837058,-5.94731,19.707,Q,Q
2023-03-15 13:40:44:864,0,0.724772,-5.96846,19.5007,Q,Q
2023-03-15 13:40:44:874,0,0.616621,-5.98633,19.3035,Q,Q
2023-03-15 13:40:44:884,0,0.515973,-6.00238,19.1148,Q,Q
2023-03-15 13:40:44:894,0,0.428825,-6.01732,18.9321,Q,Q
2023-03-15 13:40:44:904,0,0.353319,-6.02977,18.7637,Q,Q
2023-03-15 13:40:44:914,0,0.291259,-6.03927,18.6069,Q,Q
2023-03-15 13:40:44:924,0,0.240361,-6.05102,18.4697,Q,Q
2023-03-15 13:40:44:934,0,0.196204,-6.06606,18.3479,Q,Q
2023-03-15 13:40:44:944,0,0.160047,-6.08346,18.2413,Q,Q
2023-03-15 13:40:44:954,0,0.128908,-6.09797,18.1531,Q,Q
2023-03-15 13:40:44:964,0,0.102684,-6.10143,18.0677,Q,Q
2023-03-15 13:40:44:974,0,0.0817322,-6.09773,17.9898,Q,Q
2023-03-15 13:40:44:984,0,0.0630026,-6.08964,17.9115,Q,Q
2023-03-15 13:40:44:994,0,0.0556896,-6.07888,17.8405,Q,Q
2023-03-15 13:40:45:4,0,0.0594305,-6.0675,17.7706,Q,Q
2023-03-15 13:40:45:14,0,0.0722561,-6.05306,17.7066,Q,Q
2023-03-15 13:40:45:24,0,0.0888646,-6.04228,17.6395,Q,Q
2023-03-15 13:40:45:34,0,0.113302,-6.038,17.5755,Q,Q
2023-03-15 13:40:45:44,0,0.146829,-6.03234,17.5059,Q,Q
2023-03-15 13:40:45:54,0,0.182621,-6.03206,17.4253,Q,Q
2023-03-15 13:40:45:64,0,0.217472,-6.0339,17.3316,Q,Q
2023-03-15 13:40:45:74,0,0.24712,-6.03099,17.2226,Q,Q
2023-03-15 13:40:45:84,0,0.271367,-6.01949,17.0773,Q,Q
2023-03-15 13:40:45:94,0,0.297117,-5.99921,16.8891,Q,Q
2023-03-15 13:40:45:104,0,0.336061,-5.97487,16.6534,Q,Q
2023-03-15 13:40:45:114,0,0.403823,-5.95455,16.371,Q,Q
2023-03-15 13:40:45:124,0,0.50559,-5.94615,16.051,Q,Q
2023-03-15 13:40:45:134,0,0.633261,-5.95215,15.7009,Q,Q
2023-03-15 13:40:45:144,0,0.771129,-5.97612,15.3193,Q,Q
2023-03-15 13:40:45:154,0,0.913846,-6.0189,14.9006,Q,Q
2023-03-15 13:40:45:164,0,1.0621,-6.07456,14.4486,Q,Q
2023-03-15 13:40:45:174,0,1.22319,-6.13574,13.9582,Q,Q
2023-03-15 13:40:45:184,0,1.38653,-6.20461,13.4321,Q,Q
2023-03-15 13:40:45:194,0,1.54203,-6.27844,12.8697,Q,Q
2023-03-15 13:40:45:204,0,1.68377,-6.35296,12.2705,Q,Q
2023-03-15 13:40:45:214,0,1.8101,-6.42997,11.6257,Q,Q
2023-03-15 13:40:45:224,0,1.92856,-6.5072,10.943,Q,Q
2023-03-15 13:40:45:234,0,2.04037,-6.57981,10.2192,Q,Q
2023-03-15 13:40:45:244,0,2.15018,-6.64811,9.4609,Q,Q
2023-03-15 13:40:45:254,0,2.25043,-6.71911,8.68423,Q,Q
2023-03-15 13:40:45:264,0,2.34946,-6.79353,7.88798,Q,Q
2023-03-15 13:40:45:274,0,2.43904,-6.86354,7.07637,Q,Q
2023-03-15 13:40:45:284,0,2.52311,-6.92482,6.24168,Q,Q
2023-03-15 13:40:45:294,0,2.5985,-6.96954,5.38629,Q,Q
2023-03-15 13:40:45:304,0,2.6679,-7.00298,4.51884,Q,Q
2023-03-15 13:40:45:314,0,2.72603,-7.02889,3.64916,Q,Q
2023-03-15 13:40:45:324,0,2.78366,-7.0518,2.79073,Q,Q
2023-03-15 13:40:45:334,0,2.83931,-7.07891,1.95709,Q,Q
2023-03-15 13:40:45:344,0,2.89671,-7.10485,1.16354,Q,Q
2023-03-15 13:40:45:354,0,2.95804,-7.12753,0.417802,Q,Q
2023-03-15 13:40:45:364,0,3.01325,-7.13948,-0.278597,Q,Q
2023-03-15 13:40:45:374,0,3.05785,-7.13248,-0.92326,Q,Q
2023-03-15 13:40:45:384,0,3.08972,-7.10609,-1.51679,Q,Q
2023-03-15 13:40:45:394,0,3.10918,-7.05593,-2.06618,Q,Q
2023-03-15 13:40:45:404,0,3.11718,-6.98357,-2.56675,Q,Q
2023-03-15 13:40:45:414,0,3.11918,-6.89693,-3.0173,Q,Q
2023-03-15 13:40:45:424,0,3.11396,-6.79514,-3.41593,Q,Q
2023-03-15 13:40:45:434,0,3.10098,-6.68992,-3.76044,Q,Q
2023-03-15 13:40:45:444,0,3.08234,-6.58386,-4.05625,Q,Q
2023-03-15 13:40:45:454,0,3.0554,-6.48207,-4.30342,Q,Q
2023-03-15 13:40:45:464,0,3.02589,-6.37702,-4.50838,Q,Q
2023-03-15 13:40:45:474,0,2.99092,-6.27955,-4.67506,Q,Q
2023-03-15 13:40:45:484,0,2.95584,-6.18096,-4.80872,Q,Q
2023-03-15 13:40:45:494,0,2.92876,-6.0836,-4.91424,Q,Q
2023-03-15 13:40:45:504,0,2.91353,-5.9921,-4.98633,Q,Q
2023-03-15 13:40:45:514,0,2.91801,-5.91081,-5.03481,Q,Q
2023-03-15 13:40:45:524,0,2.93292,-5.836,-5.0582,Q,Q
2023-03-15 13:40:45:534,0,2.96417,-5.77369,-5.06283,Q,Q
2023-03-15 13:40:45:544,0,3.00269,-5.71125,-5.0559,Q,Q
2023-03-15 13:40:45:554,0,3.04363,-5.65822,-5.03254,Q,Q
2023-03-15 13:40:45:564,0,3.09055,-5.61378,-5.0013,Q,Q
2023-03-15 13:40:45:574,0,3.13595,-5.57394,-4.96163,Q,Q
2023-03-15 13:40:45:584,0,3.18581,-5.54092,-4.91763,Q,Q
2023-03-15 13:40:45:594,0,3.23807,-5.51377,-4.87801,Q,Q
2023-03-15 13:40:45:604,0,3.29568,-5.49032,-4.84175,Q,Q
2023-03-15 13:40:45:614,0,3.35563,-5.46717,-4.80433,Q,Q
2023-03-15 13:40:45:624,0,3.42072,-5.4465,-4.77146,Q,Q
2023-03-15 13:40:45:634,0,3.49367,-5.43244,-4.74541,Q,Q
2023-03-15 13:40:45:644,0,3.56441,-5.42139,-4.72048,Q,Q
2023-03-15 13:40:45:654,0,3.64107,-5.41499,-4.69463,Q,Q
2023-03-15 13:40:45:664,0,3.71403,-5.41956,-4.66682,Q,Q
2023-03-15 13:40:45:674,0,3.78744,-5.42853,-4.64043,Q,Q
2023-03-15 13:40:45:684,0,3.85658,-5.44638,-4.61505,Q,Q
2023-03-15 13:40:45:694,0,3.92545,-5.4735,-4.59749,Q,Q
2023-03-15 13:40:45:704,0,3.99716,-5.50686,-4.58687,Q,Q
2023-03-15 13:40:45:714,0,4.0822,-5.54248,-4.5818,Q,Q
2023-03-15 13:40:45:724,0,4.17661,-5.58274,-4.5811,Q,Q
2023-03-15 13:40:45:734,0,4.27484,-5.61969,-4.58128,Q,Q
2023-03-15 13:40:45:744,0,4.37424,-5.65515,-4.58112,Q,Q
2023-03-15 13:40:45:754,0,4.46026,-5.70017,-4.5739,Q,Q
2023-03-15 13:40:45:764,0,4.53344,-5.75893,-4.55343,Q,Q
2023-03-15 13:40:45:774,0,4.59613,-5.82704,-4.5312,Q,Q
2023-03-15 13:40:45:784,0,4.65954,-5.90217,-4.51505,Q,Q
2023-03-15 13:40:45:794,0,4.72944,-5.98204,-4.49655,Q,Q
2023-03-15 13:40:45:804,0,4.80791,-6.07278,-4.46857,Q,Q
2023-03-15 13:40:45:814,0,4.88417,-6.17223,-4.43056,Q,Q
2023-03-15 13:40:45:824,0,4.95403,-6.27833,-4.38453,Q,Q
2023-03-15 13:40:45:834,0,5.02132,-6.38222,-4.32956,Q,Q
2023-03-15 13:40:45:844,0,5.08872,-6.47841,-4.27663,Q,Q
2023-03-15 13:40:45:854,0,5.14753,-6.56188,-4.22704,Q,Q
2023-03-15 13:40:45:864,0,5.20416,-6.62911,-4.18548,Q,Q
2023-03-15 13:40:45:874,0,5.2612,-6.68014,-4.1434,Q,Q
2023-03-15 13:40:45:884,0,5.31442,-6.72268,-4.10528,Q,Q
2023-03-15 13:40:45:894,0,5.36841,-6.7567,-4.06869,Q,Q
2023-03-15 13:40:45:904,0,5.41912,-6.787,-4.03215,Q,Q
2023-03-15 13:40:45:914,0,5.46768,-6.80955,-3.98963,Q,Q
2023-03-15 13:40:45:924,0,5.51983,-6.82182,-3.95076,Q,Q
2023-03-15 13:40:45:934,0,5.58085,-6.81314,-3.91492,Q,Q
2023-03-15 13:40:45:944,0,5.64002,-6.79159,-3.88519,Q,Q
2023-03-15 13:40:45:954,0,5.69536,-6.75131,-3.86384,Q,Q
2023-03-15 13:40:45:964,0,5.74176,-6.70183,-3.84868,Q,Q
2023-03-15 13:40:45:974,0,5.77838,-6.65153,-3.83833,Q,Q
2023-03-15 13:40:45:984,0,5.8062,-6.60655,-3.82643,Q,Q
2023-03-15 13:40:45:994,0,5.82154,-6.57141,-3.81228,Q,Q
2023-03-15 13:40:46:4,0,5.82788,-6.55057,-3.7976,Q,Q
2023-03-15 13:40:46:14,0,5.83062,-6.53489,-3.7873,Q,Q
2023-03-15 13:40:46:24,0,5.82789,-6.53009,-3.78241,Q,Q
2023-03-15 13:40:46:34,0,5.82422,-6.53039,-3.78591,Q,Q
2023-03-15 13:40:46:44,0,5.82272,-6.53291,-3.80605,Q,Q
2023-03-15 13:40:46:54,0,5.82235,-6.53176,-3.85473,Q,Q
2023-03-15 13:40:46:64,0,5.81959,-6.52939,-3.93401,Q,Q
2023-03-15 13:40:46:74,0,5.81885,-6.53153,-4.03706,Q,Q
2023-03-15 13:40:46:84,0,5.82618,-6.54112,-4.1579,Q,Q
2023-03-15 13:40:46:94,0,5.83647,-6.5585,-4.30122,Q,Q
2023-03-15 13:40:46:104,0,5.85149,-6.59209,-4.46395,Q,Q
2023-03-15 13:40:46:114,0,5.86195,-6.64032,-4.64335,Q,Q
2023-03-15 13:40:46:124,0,5.87572,-6.69019,-4.83924,Q,Q
2023-03-15 13:40:46:134,0,5.89559,-6.73493,-5.04944,Q,Q
2023-03-15 13:40:46:144,0,5.91908,-6.77177,-5.27842,Q,Q
2023-03-15 13:40:46:154,0,5.94573,-6.80048,-5.51432,Q,Q
2023-03-15 13:40:46:164,0,5.9764,-6.82479,-5.75816,Q,Q
2023-03-15 13:40:46:174,0,6.01396,-6.84989,-5.99854,Q,Q
2023-03-15 13:40:46:184,0,6.05403,-6.8831,-6.23366,Q,Q
2023-03-15 13:40:46:194,0,6.10539,-6.92267,-6.46018,Q,Q
2023-03-15 13:40:46:204,0,6.16842,-6.97472,-6.67357,Q,Q
2023-03-15 13:40:46:214,0,6.24611,-7.04191,-6.87535,Q,Q
2023-03-15 13:40:46:224,0,6.33141,-7.11148,-7.05704,Q,Q
2023-03-15 13:40:46:234,0,6.42414,-7.18964,-7.22567,Q,Q
2023-03-15 13:40:46:244,0,6.5334,-7.26884,-7.37742,Q,Q
2023-03-15 13:40:46:254,0,6.65269,-7.343,-7.5096,Q,Q
2023-03-15 13:40:46:264,0,6.77372,-7.41112,-7.6225,Q,Q
2023-03-15 13:40:46:274,0,6.89087,-7.46985,-7.71574,Q,Q
2023-03-15 13:40:46:284,0,7.00388,-7.52331,-7.79011,Q,Q
2023-03-15 13:40:46:294,0,7.10191,-7.57542,-7.83753,Q,Q
2023-03-15 13:40:46:304,0,7.18548,-7.61568,-7.86114,Q,Q
2023-03-15 13:40:46:314,0,7.25943,-7.65537,-7.85512,Q,Q
2023-03-15 13:40:46:324,0,7.31249,-7.70133,-7.81457,Q,Q
2023-03-15 13:40:46:334,0,7.35314,-7.75633,-7.75069,Q,Q
2023-03-15 13:40:46:344,0,7.37955,-7.82048,-7.65642,Q,Q
2023-03-15 13:40:46:354,0,7.40228,-7.88932,-7.53368,Q,Q
2023-03-15 13:40:46:364,0,7.42854,-7.962,-7.38569,Q,Q
2023-03-15 13:40:46:374,0,7.46713,-8.02827,-7.2185,Q,Q
2023-03-15 13:40:46:384,0,7.5199,-8.08626,-7.03726,Q,Q
2023-03-15 13:40:46:394,0,7.58694,-8.12499,-6.8465,Q,Q
2023-03-15 13:40:46:404,0,7.66761,-8.15214,-6.64198,Q,Q
2023-03-15 13:40:46:414,0,7.7595,-8.15837,-6.43308,Q,Q
2023-03-15 13:40:46:424,0,7.85438,-8.15573,-6.21328,Q,Q
2023-03-15 13:40:46:434,0,7.94787,-8.13457,-5.98754,Q,Q
2023-03-15 13:40:46:444,0,8.03375,-8.09776,-5.76113,Q,Q
2023-03-15 13:40:46:454,0,8.11303,-8.04864,-5.53576,Q,Q
2023-03-15 13:40:46:464,0,8.18286,-7.98684,-5.31349,Q,Q
2023-03-15 13:40:46:474,0,8.24814,-7.91816,-5.09624,Q,Q
2023-03-15 13:40:46:484,0,8.30145,-7.85003,-4.88374,Q,Q
2023-03-15 13:40:46:494,0,8.3496,-7.78465,-4.67835,Q,Q
2023-03-15 13:40:46:504,0,8.38872,-7.71814,-4.4795,Q,Q
2023-03-15 13:40:46:514,0,8.42126,-7.65267,-4.28568,Q,Q
2023-03-15 13:40:46:524,0,8.45142,-7.59349,-4.09158,Q,Q
2023-03-15 13:40:46:534,0,8.4785,-7.54051,-3.90447,Q,Q
2023-03-15 13:40:46:544,0,8.50406,-7.50371,-3.71842,Q,Q
2023-03-15 13:40:46:554,0,8.517,-7.48132,-3.54012,Q,Q
2023-03-15 13:40:46:564,0,8.52121,-7.46944,-3.36586,Q,Q
2023-03-15 13:40:46:574,0,8.51687,-7.47035,-3.20552,Q,Q
2023-03-15 13:40:46:584,0,8.51091,-7.48492,-3.0565,Q,Q
2023-03-15 13:40:46:594,0,8.50767,-7.50016,-2.91759,Q,Q
2023-03-15 13:40:46:604,0,8.51325,-7.51946,-2.78886,Q,Q
2023-03-15 13:40:46:614,0,8.52616,-7.53824,-2.67019,Q,Q
2023-03-15 13:40:46:624,0,8.54211,-7.55561,-2.56002,Q,Q
2023-03-15 13:40:46:634,0,8.56241,-7.57293,-2.46273,Q,Q
2023-03-15 13:40:46:644,0,8.58212,-7.59211,-2.37079,Q,Q
2023-03-15 13:40:46:654,0,8.60132,-7.61292,-2.29284,Q,Q
2023-03-15 13:40:46:664,0,8.6119,-7.62907,-2.22418,Q,Q
2023-03-15 13:40:46:674,0,8.61717,-7.64444,-2.16354,Q,Q
2023-03-15 13:40:46:684,0,8.61367,-7.65289,-2.11126,Q,Q
2023-03-15 13:40:46:694,0,8.6182,-7.65117,-2.06863,Q,Q
2023-03-15 13:40:46:704,0,8.61526,-7.64199,-2.03043,Q,Q
2023-03-15 13:40:46:714,0,8.60599,-7.62766,-1.9933,Q,Q
2023-03-15 13:40:46:724,0,8.59427,-7.60217,-1.96605,Q,Q
2023-03-15 13:40:46:734,0,8.58142,-7.57327,-1.94259,Q,Q
2023-03-15 13:40:46:744,0,8.5617,-7.5387,-1.92449,Q,Q
2023-03-15 13:40:46:754,0,8.53778,-7.50274,-1.90835,Q,Q
2023-03-15 13:40:46:764,0,8.51545,-7.4601,-1.90016,Q,Q
2023-03-15 13:40:46:774,0,8.49315,-7.41589,-1.89159,Q,Q
2023-03-15 13:40:46:784,0,8.46853,-7.3733,-1.88716,Q,Q
2023-03-15 13:40:46:794,0,8.44943,-7.32554,-1.8913,Q,Q
2023-03-15 13:40:46:804,0,8.42979,-7.27656,-1.9004,Q,Q
2023-03-15 13:40:46:814,0,8.41165,-7.22743,-1.90922,Q,Q
2023-03-15 13:40:46:824,0,8.39647,-7.1739,-1.92393,Q,Q
2023-03-15 13:40:46:834,0,8.38497,-7.12808,-1.94391,Q,Q
2023-03-15 13:40:46:844,0,8.37385,-7.08199,-1.96635,Q,Q
2023-03-15 13:40:46:854,0,8.36408,-7.0348,-1.9899,Q,Q
2023-03-15 13:40:46:864,0,8.35372,-6.992,-2.01696,Q,Q
2023-03-15 13:40:46:874,0,8.33725,-6.95168,-2.04855,Q,Q
2023-03-15 13:40:46:884,0,8.31499,-6.91854,-2.08355,Q,Q
2023-03-15 13:40:46:894,0,8.29285,-6.88378,-2.1211,Q,Q
2023-03-15 13:40:46:904,0,8.26841,-6.85414,-2.15941,Q,Q
2023-03-15 13:40:46:914,0,8.24167,-6.827,-2.2018,Q,Q
2023-03-15 13:40:46:924,0,8.20892,-6.80591,-2.24094,Q,Q
2023-03-15 13:40:46:934,0,8.17035,-6.78639,-2.28385,Q,Q
2023-03-15 13:40:46:944,0,8.13377,-6.76406,-2.32537,Q,Q
2023-03-15 13:40:46:954,0,8.10012,-6.74746,-2.36335,Q,Q
2023-03-15 13:40:46:964,0,8.06922,-6.73588,-2.39915,Q,Q
2023-03-15 13:40:46:974,0,8.03687,-6.73001,-2.43665,Q,Q
2023-03-15 13:40:46:984,0,8.01118,-6.7206,-2.46892,Q,Q
2023-03-15 13:40:46:994,0,7.99198,-6.71568,-2.50045,Q,Q
2023-03-15 13:40:47:4,0,7.97549,-6.71548,-2.52662,Q,Q
2023-03-15 13:40:47:14,0,7.95868,-6.71678,-2.55023,Q,Q
2023-03-15 13:40:47:24,0,7.94645,-6.72193,-2.57423,Q,Q
2023-03-15 13:40:47:34,0,7.94015,-6.7272,-2.59666,Q,Q
2023-03-15 13:40:47:44,0,7.94013,-6.73701,-2.61912,Q,Q
2023-03-15 13:40:47:54,0,7.94352,-6.74868,-2.64722,Q,Q
2023-03-15 13:40:47:64,0,7.9495,-6.76059,-2.67548,Q,Q
2023-03-15 13:40:47:74,0,7.96444,-6.77267,-2.70725,Q,Q
2023-03-15 13:40:47:84,0,7.98978,-6.78481,-2.7434,Q,Q
2023-03-15 13:40:47:93,0,8.02326,-6.79351,-2.78574,Q,Q
2023-03-15 13:40:47:104,0,8.06338,-6.79373,-2.82807,Q,Q
2023-03-15 13:40:47:114,0,8.10032,-6.7966,-2.8733,Q,Q
2023-03-15 13:40:47:124,0,8.11991,-6.80401,-2.92088,Q,Q
2023-03-15 13:40:47:134,0,8.13341,-6.80754,-2.97633,Q,Q
2023-03-15 13:40:47:144,0,8.14793,-6.81087,-3.036,Q,Q
2023-03-15 13:40:47:154,0,8.16509,-6.80913,-3.09452,Q,Q
2023-03-15 13:40:47:164,0,8.18546,-6.80718,-3.15625,Q,Q
2023-03-15 13:40:47:174,0,8.20421,-6.80149,-3.21738,Q,Q
2023-03-15 13:40:47:184,0,8.22086,-6.79662,-3.27862,Q,Q
2023-03-15 13:40:47:194,0,8.23474,-6.78842,-3.34159,Q,Q
2023-03-15 13:40:47:204,0,8.24619,-6.78012,-3.39994,Q,Q
2023-03-15 13:40:47:214,0,8.25388,-6.76969,-3.45924,Q,Q
2023-03-15 13:40:47:224,0,8.26485,-6.76197,-3.51553,Q,Q
2023-03-15 13:40:47:234,0,8.27672,-6.7595,-3.56592,Q,Q
2023-03-15 13:40:47:244,0,8.28278,-6.76396,-3.60922,Q,Q
2023-03-15 13:40:47:254,0,8.28595,-6.77452,-3.64707,Q,Q
2023-03-15 13:40:47:264,0,8.28538,-6.7858,-3.68055,Q,Q
2023-03-15 13:40:47:274,0,8.27918,-6.79504,-3.7105,Q,Q
2023-03-15 13:40:47:284,0,8.26972,-6.8083,-3.7288,Q,Q
2023-03-15 13:40:47:294,0,8.2531,-6.81461,-3.74314,Q,Q
2023-03-15 13:40:47:304,0,8.24061,-6.81589,-3.75266,Q,Q
2023-03-15 13:40:47:314,0,8.22919,-6.81586,-3.75612,Q,Q
2023-03-15 13:40:47:324,0,8.21522,-6.80649,-3.75272,Q,Q
2023-03-15 13:40:47:334,0,8.20734,-6.7991,-3.74502,Q,Q
2023-03-15 13:40:47:343,0,8.19998,-6.78812,-3.72862,Q,Q
2023-03-15 13:40:47:354,0,8.19398,-6.77753,-3.71011,Q,Q
2023-03-15 13:40:47:364,0,8.18418,-6.76949,-3.68754,Q,Q
2023-03-15 13:40:47:374,0,8.17547,-6.76301,-3.66387,Q,Q
2023-03-15 13:40:47:384,0,8.16582,-6.75334,-3.64316,Q,Q
2023-03-15 13:40:47:394,0,8.15255,-6.74049,-3.62438,Q,Q
2023-03-15 13:40:47:404,0,8.13651,-6.73017,-3.60897,Q,Q
2023-03-15 13:40:47:414,0,8.11641,-6.71427,-3.59391,Q,Q
2023-03-15 13:40:47:424,0,8.09881,-6.6982,-3.58344,Q,Q
2023-03-15 13:40:47:434,0,8.08141,-6.67404,-3.58195,Q,Q
2023-03-15 13:40:47:444,0,8.06366,-6.64652,-3.58749,Q,Q
2023-03-15 13:40:47:454,0,8.04724,-6.61645,-3.6001,Q,Q
2023-03-15 13:40:47:464,0,8.03407,-6.58921,-3.61687,Q,Q
2023-03-15 13:40:47:474,0,8.02523,-6.56652,-3.63563,Q,Q
2023-03-15 13:40:47:484,0,8.01831,-6.54323,-3.65673,Q,Q
2023-03-15 13:40:47:494,0,8.01077,-6.52074,-3.67669,Q,Q
2023-03-15 13:40:47:504,0,7.99877,-6.50064,-3.69689,Q,Q
2023-03-15 13:40:47:514,0,7.99365,-6.48134,-3.71793,Q,Q
2023-03-15 13:40:47:524,0,7.99389,-6.46725,-3.74393,Q,Q
2023-03-15 13:40:47:534,0,7.99495,-6.44974,-3.77057,Q,Q
2023-03-15 13:40:47:543,0,8.00297,-6.43235,-3.7918,Q,Q
2023-03-15 13:40:47:554,0,8.01299,-6.41252,-3.80914,Q,Q
2023-03-15 13:40:47:564,0,8.02364,-6.39467,-3.82635,Q,Q
2023-03-15 13:40:47:574,0,8.03628,-6.37884,-3.83719,Q,Q
2023-03-15 13:40:47:584,0,8.04569,-6.37069,-3.84725,Q,Q
2023-03-15 13:40:47:594,0,8.05264,-6.36174,-3.84896,Q,Q
2023-03-15 13:40:47:603,0,8.06124,-6.35273,-3.84683,Q,Q
2023-03-15 13:40:47:614,0,8.06637,-6.34722,-3.84206,Q,Q
2023-03-15 13:40:47:624,0,8.06911,-6.34009,-3.83405,Q,Q
2023-03-15 13:40:47:634,0,8.06895,-6.33747,-3.82194,Q,Q
2023-03-15 13:40:47:644,0,8.07157,-6.33407,-3.80283,Q,Q
2023-03-15 13:40:47:654,0,8.07119,-6.33484,-3.78184,Q,Q
2023-03-15 13:40:47:664,0,8.07345,-6.33293,-3.75396,Q,Q
2023-03-15 13:40:47:674,0,8.07105,-6.33352,-3.71901,Q,Q
2023-03-15 13:40:47:684,0,8.06794,-6.33443,-3.68297,Q,Q
2023-03-15 13:40:47:694,0,8.06289,-6.3317,-3.6444,Q,Q
2023-03-15 13:40:47:704,0,8.0547,-6.32906,-3.59798,Q,Q
2023-03-15 13:40:47:714,0,8.04467,-6.32625,-3.55233,Q,Q
2023-03-15 13:40:47:724,0,8.03499,-6.31808,-3.50632,Q,Q
2023-03-15 13:40:47:734,0,8.02462,-6.30927,-3.4587,Q,Q
2023-03-15 13:40:47:744,0,8.00865,-6.29872,-3.40705,Q,Q
2023-03-15 13:40:47:754,0,7.99416,-6.28845,-3.35816,Q,Q
2023-03-15 13:40:47:764,0,7.97702,-6.27859,-3.30684,Q,Q
2023-03-15 13:40:47:774,0,7.96462,-6.26902,-3.25426,Q,Q
2023-03-15 13:40:47:784,0,7.95318,-6.25953,-3.19921,Q,Q
2023-03-15 13:40:47:794,0,7.94684,-6.25371,-3.14059,Q,Q
2023-03-15 13:40:47:804,0,7.9385,-6.25107,-3.08312,Q,Q
2023-03-15 13:40:47:814,0,7.9311,-6.24835,-3.02304,Q,Q
2023-03-15 13:40:47:824,0,7.92358,-6.247,-2.96239,Q,Q
2023-03-15 13:40:47:834,0,7.91834,-6.23967,-2.90015,Q,Q
2023-03-15 13:40:47:843,0,7.91253,-6.23301,-2.83513,Q,Q
2023-03-15 13:40:47:853,0,7.90157,-6.22135,-2.76792,Q,Q
2023-03-15 13:40:47:863,0,7.88915,-6.21035,-2.70222,Q,Q
2023-03-15 13:40:47:874,0,7.87451,-6.19943,-2.63536,Q,Q
2023-03-15 13:40:47:884,0,7.85742,-6.18821,-2.56375,Q,Q
2023-03-15 13:40:47:894,0,7.84431,-6.18273,-2.49001,Q,Q
2023-03-15 13:40:47:904,0,7.8349,-6.18587,-2.40765,Q,Q
2023-03-15 13:40:47:914,0,7.82419,-6.18908,-2.32012,Q,Q
2023-03-15 13:40:47:924,0,7.81159,-6.19264,-2.21822,Q,Q
2023-03-15 13:40:47:934,0,7.79232,-6.19484,-2.11081,Q,Q
2023-03-15 13:40:47:944,0,7.77333,-6.19901,-1.99565,Q,Q
2023-03-15 13:40:47:954,0,7.75373,-6.20699,-1.87596,Q,Q
2023-03-15 13:40:47:964,0,7.73472,-6.21754,-1.74987,Q,Q
2023-03-15 13:40:47:974,0,7.7167,-6.22986,-1.61881,Q,Q
2023-03-15 13:40:47:984,0,7.70121,-6.24843,-1.48602,Q,Q
2023-03-15 13:40:47:994,0,7.68744,-6.26332,-1.35326,Q,Q
2023-03-15 13:40:48:4,0,7.67438,-6.27746,-1.22522,Q,Q
2023-03-15 13:40:48:14,0,7.65759,-6.28801,-1.10355,Q,Q
2023-03-15 13:40:48:24,0,7.63686,-6.29655,-0.98891,Q,Q
2023-03-15 13:40:48:34,0,7.61477,-6.30248,-0.884058,Q,Q
2023-03-15 13:40:48:44,0,7.591,-6.30617,-0.791091,Q,Q
2023-03-15 13:40:48:54,0,7.56354,-6.31386,-0.707833,Q,Q
2023-03-15 13:40:48:63,0,7.53656,-6.32079,-0.637744,Q,Q
2023-03-15 13:40:48:74,0,7.50694,-6.32675,-0.578899,Q,Q
2023-03-15 13:40:48:84,0,7.46891,-6.33394,-0.533842,Q,Q
2023-03-15 13:40:48:94,0,7.43037,-6.33735,-0.50698,Q,Q
2023-03-15 13:40:48:104,0,7.3912,-6.33625,-0.492825,Q,Q
2023-03-15 13:40:48:114,0,7.35324,-6.33185,-0.490373,Q,Q
2023-03-15 13:40:48:123,0,7.32152,-6.33231,-0.496892,Q,Q
2023-03-15 13:40:48:134,0,7.2916,-6.33131,-0.509102,Q,Q
2023-03-15 13:40:48:144,0,7.26006,-6.33217,-0.526083,Q,Q
2023-03-15 13:40:48:154,0,7.23087,-6.33027,-0.54921,Q,Q
2023-03-15 13:40:48:163,0,7.20136,-6.32557,-0.57767,Q,Q
2023-03-15 13:40:48:174,0,7.17635,-6.32041,-0.607728,Q,Q
2023-03-15 13:40:48:184,0,7.15576,-6.31177,-0.635194,Q,Q
2023-03-15 13:40:48:194,0,7.13495,-6.30304,-0.661025,Q,Q
2023-03-15 13:40:48:204,0,7.11649,-6.29178,-0.685695,Q,Q
2023-03-15 13:40:48:214,0,7.10094,-6.27949,-0.710747,Q,Q
2023-03-15 13:40:48:224,0,7.09478,-6.26842,-0.736888,Q,Q
2023-03-15 13:40:48:234,0,7.08902,-6.25664,-0.75994,Q,Q
2023-03-15 13:40:48:244,0,7.09102,-6.24943,-0.789375,Q,Q
2023-03-15 13:40:48:254,0,7.09581,-6.23848,-0.818695,Q,Q
2023-03-15 13:40:48:264,0,7.10145,-6.23292,-0.849947,Q,Q
2023-03-15 13:40:48:274,0,7.10427,-6.22809,-0.8863,Q,Q
2023-03-15 13:40:48:284,0,7.1036,-6.22104,-0.93091,Q,Q
2023-03-15 13:40:48:294,0,7.10061,-6.21509,-0.990554,Q,Q
2023-03-15 13:40:48:304,0,7.09207,-6.20602,-1.0608,Q,Q
2023-03-15 13:40:48:313,0,7.08434,-6.20017,-1.14532,Q,Q
2023-03-15 13:40:48:324,0,7.07162,-6.19319,-1.25359,Q,Q
2023-03-15 13:40:48:333,0,7.05779,-6.18657,-1.38714,Q,Q
2023-03-15 13:40:48:343,0,7.04618,-6.1807,-1.54145,Q,Q
2023-03-15 13:40:48:354,0,7.04378,-6.16841,-1.72238,Q,Q
2023-03-15 13:40:48:364,0,7.05033,-6.15093,-1.91897,Q,Q
2023-03-15 13:40:48:373,0,7.05805,-6.1351,-2.12885,Q,Q
2023-03-15 13:40:48:383,0,7.06791,-6.11998,-2.35168,Q,Q
2023-03-15 13:40:48:393,0,7.07849,-6.10595,-2.58213,Q,Q
2023-03-15 13:40:48:403,0,7.09107,-6.0864,-2.81541,Q,Q
2023-03-15 13:40:48:413,0,7.1045,-6.06712,-3.04536,Q,Q
2023-03-15 13:40:48:423,0,7.1201,-6.04667,-3.27091,Q,Q
2023-03-15 13:40:48:434,0,7.13741,-6.02483,-3.48908,Q,Q
2023-03-15 13:40:48:443,0,7.15614,-5.99631,-3.70328,Q,Q
2023-03-15 13:40:48:454,0,7.17374,-5.96531,-3.90952,Q,Q
2023-03-15 13:40:48:463,0,7.19137,-5.93195,-4.10132,Q,Q
2023-03-15 13:40:48:473,0,7.20338,-5.89669,-4.28295,Q,Q
2023-03-15 13:40:48:484,0,7.21595,-5.85822,-4.4507,Q,Q
2023-03-15 13:40:48:494,0,7.22691,-5.82111,-4.60087,Q,Q
2023-03-15 13:40:48:504,0,7.23833,-5.7873,-4.74423,Q,Q
2023-03-15 13:40:48:514,0,7.2463,-5.74979,-4.87742,Q,Q
2023-03-15 13:40:48:523,0,7.25855,-5.70977,-5.00098,Q,Q
2023-03-15 13:40:48:534,0,7.27214,-5.67903,-5.11166,Q,Q
2023-03-15 13:40:48:544,0,7.286,-5.65519,-5.21009,Q,Q
2023-03-15 13:40:48:553,0,7.29924,-5.63509,-5.29548,Q,Q
2023-03-15 13:40:48:563,0,7.30552,-5.61752,-5.37177,Q,Q
2023-03-15 13:40:48:573,0,7.31158,-5.60389,-5.43553,Q,Q
2023-03-15 13:40:48:583,0,7.31573,-5.59032,-5.49314,Q,Q
2023-03-15 13:40:48:594,0,7.31626,-5.58033,-5.54395,Q,Q
2023-03-15 13:40:48:603,0,7.30745,-5.57026,-5.58756,Q,Q
2023-03-15 13:40:48:614,0,7.29852,-5.55594,-5.62301,Q,Q
2023-03-15 13:40:48:623,0,7.28522,-5.54518,-5.65352,Q,Q
2023-03-15 13:40:48:633,0,7.27488,-5.53445,-5.68287,Q,Q
2023-03-15 13:40:48:643,0,7.26382,-5.52343,-5.70888,Q,Q
2023-03-15 13:40:48:653,0,7.25158,-5.51349,-5.73614,Q,Q
2023-03-15 13:40:48:663,0,7.23848,-5.50922,-5.7592,Q,Q
2023-03-15 13:40:48:673,0,7.22507,-5.50554,-5.78461,Q,Q
2023-03-15 13:40:48:683,0,7.21212,-5.50585,-5.81526,Q,Q
2023-03-15 13:40:48:693,0,7.19717,-5.50226,-5.84778,Q,Q
2023-03-15 13:40:48:703,0,7.18401,-5.50146,-5.88213,Q,Q
2023-03-15 13:40:48:714,0,7.16614,-5.49846,-5.91811,Q,Q
2023-03-15 13:40:48:723,0,7.14519,-5.4982,-5.95634,Q,Q
2023-03-15 13:40:48:733,0,7.1262,-5.49858,-5.99883,Q,Q
2023-03-15 13:40:48:743,0,7.10418,-5.49315,-6.04966,Q,Q
2023-03-15 13:40:48:753,0,7.08351,-5.48376,-6.10357,Q,Q
2023-03-15 13:40:48:763,0,7.06519,-5.4775,-6.16367,Q,Q
2023-03-15 13:40:48:773,0,7.0568,-5.47365,-6.22248,Q,Q
2023-03-15 13:40:48:783,0,7.05287,-5.47034,-6.28105,Q,Q
2023-03-15 13:40:48:793,0,7.05348,-5.46794,-6.33567,Q,Q
2023-03-15 13:40:48:803,0,7.05654,-5.46541,-6.38875,Q,Q
2023-03-15 13:40:48:813,0,7.06306,-5.4568,-6.43958,Q,Q
2023-03-15 13:40:48:823,0,7.0723,-5.44526,-6.49228,Q,Q
2023-03-15 13:40:48:833,0,7.08006,-5.43398,-6.53916,Q,Q
2023-03-15 13:40:48:843,0,7.09179,-5.42012,-6.58247,Q,Q
2023-03-15 13:40:48:853,0,7.10207,-5.40649,-6.62642,Q,Q
2023-03-15 13:40:48:863,0,7.11116,-5.39326,-6.66276,Q,Q
2023-03-15 13:40:48:873,0,7.12012,-5.38201,-6.70123,Q,Q
2023-03-15 13:40:48:883,0,7.13065,-5.37162,-6.73679,Q,Q
2023-03-15 13:40:48:893,0,7.14508,-5.35993,-6.77004,Q,Q
2023-03-15 13:40:48:903,0,7.16064,-5.3489,-6.80299,Q,Q
2023-03-15 13:40:48:913,0,7.1765,-5.3346,-6.83365,Q,Q
2023-03-15 13:40:48:923,0,7.18872,-5.32648,-6.85981,Q,Q
2023-03-15 13:40:48:933,0,7.19746,-5.3159,-6.88791,Q,Q
2023-03-15 13:40:48:943,0,7.20132,-5.30406,-6.91081,Q,Q
2023-03-15 13:40:48:953,0,7.20035,-5.3008,-6.93394,Q,Q
2023-03-15 13:40:48:963,0,7.19824,-5.29147,-6.95606,Q,Q
2023-03-15 13:40:48:973,0,7.19548,-5.28429,-6.97939,Q,Q
2023-03-15 13:40:48:983,0,7.19099,-5.27656,-6.99927,Q,Q
2023-03-15 13:40:48:993,0,7.18886,-5.26771,-7.02093,Q,Q
2023-03-15 13:40:49:3,0,7.1812,-5.2646,-7.04314,Q,Q
2023-03-15 13:40:49:13,0,7.17106,-5.26082,-7.066,Q,Q
2023-03-15 13:40:49:23,0,7.16141,-5.25754,-7.08812,Q,Q
2023-03-15 13:40:49:33,0,7.15037,-5.25422,-7.11473,Q,Q
2023-03-15 13:40:49:43,0,7.13653,-5.25169,-7.14059,Q,Q
2023-03-15 13:40:49:53,0,7.12099,-5.25123,-7.16878,Q,Q
2023-03-15 13:40:49:63,0,7.10506,-5.24844,-7.20004,Q,Q
2023-03-15 13:40:49:73,0,7.09837,-5.24889,-7.23442,Q,Q
2023-03-15 13:40:49:83,0,7.09145,-5.24707,-7.27084,Q,Q
2023-03-15 13:40:49:93,0,7.08881,-5.24485,-7.30526,Q,Q
2023-03-15 13:40:49:103,0,7.08865,-5.24278,-7.33977,Q,Q
2023-03-15 13:40:49:113,0,7.08906,-5.23847,-7.37732,Q,Q
2023-03-15 13:40:49:123,0,7.08992,-5.23052,-7.40939,Q,Q
2023-03-15 13:40:49:133,0,7.08635,-5.2243,-7.4406,Q,Q
2023-03-15 13:40:49:143,0,7.07554,-5.21325,-7.47402,Q,Q
2023-03-15 13:40:49:153,0,7.06836,-5.20196,-7.50346,Q,Q
2023-03-15 13:40:49:163,0,7.0592,-5.19205,-7.53558,Q,Q
2023-03-15 13:40:49:173,0,7.0525,-5.18156,-7.56608,Q,Q
2023-03-15 13:40:49:183,0,7.0516,-5.18081,-7.59459,Q,Q
2023-03-15 13:40:49:193,0,7.05514,-5.18346,-7.61953,Q,Q
2023-03-15 13:40:49:203,0,7.05396,-5.19002,-7.64063,Q,Q
2023-03-15 13:40:49:213,0,7.0513,-5.19837,-7.66138,Q,Q
2023-03-15 13:40:49:223,0,7.04697,-5.20339,-7.68226,Q,Q
2023-03-15 13:40:49:233,0,7.03749,-5.20881,-7.703,Q,Q
2023-03-15 13:40:49:243,0,7.01814,-5.21323,-7.72608,Q,Q
2023-03-15 13:40:49:253,0,6.99251,-5.21116,-7.74867,Q,Q
2023-03-15 13:40:49:263,0,6.96722,-5.20937,-7.77482,Q,Q
2023-03-15 13:40:49:273,0,6.93667,-5.20598,-7.80001,Q,Q
2023-03-15 13:40:49:283,0,6.90708,-5.19727,-7.82676,Q,Q
2023-03-15 13:40:49:293,0,6.87805,-5.18739,-7.8583,Q,Q
2023-03-15 13:40:49:303,0,6.85155,-5.17905,-7.88966,Q,Q
2023-03-15 13:40:49:313,0,6.82431,-5.17032,-7.92106,Q,Q
2023-03-15 13:40:49:323,0,6.79761,-5.15971,-7.95291,Q,Q
2023-03-15 13:40:49:333,0,6.77092,-5.14945,-7.9849,Q,Q
2023-03-15 13:40:49:343,0,6.73722,-5.14124,-8.01594,Q,Q
2023-03-15 13:40:49:353,0,6.69692,-5.13403,-8.04821,Q,Q
2023-03-15 13:40:49:363,0,6.65072,-5.12297,-8.07666,Q,Q
2023-03-15 13:40:49:373,0,6.59877,-5.11641,-8.10585,Q,Q
2023-03-15 13:40:49:383,0,6.54999,-5.10743,-8.13598,Q,Q
2023-03-15 13:40:49:393,0,6.50618,-5.09853,-8.16506,Q,Q
2023-03-15 13:40:49:403,0,6.4697,-5.09055,-8.19253,Q,Q
2023-03-15 13:40:49:413,0,6.4415,-5.08637,-8.21874,Q,Q
2023-03-15 13:40:49:423,0,6.41193,-5.08258,-8.23994,Q,Q
2023-03-15 13:40:49:433,0,6.38259,-5.08005,-8.26018,Q,Q
2023-03-15 13:40:49:443,0,6.36102,-5.07946,-8.28363,Q,Q
2023-03-15 13:40:49:453,0,6.34746,-5.07872,-8.30592,Q,Q
2023-03-15 13:40:49:463,0,6.3407,-5.08376,-8.31968,Q,Q
2023-03-15 13:40:49:473,0,6.34597,-5.0894,-8.33314,Q,Q
2023-03-15 13:40:49:483,0,6.35416,-5.10222,-8.33844,Q,Q
2023-03-15 13:40:49:493,0,6.36793,-5.12021,-8.34303,Q,Q
2023-03-15 13:40:49:503,0,6.38672,-5.13841,-8.3486,Q,Q
2023-03-15 13:40:49:513,0,6.40469,-5.155,-8.35215,Q,Q
2023-03-15 13:40:49:523,0,6.42542,-5.17448,-8.35171,Q,Q
2023-03-15 13:40:49:533,0,6.44654,-5.19895,-8.35125,Q,Q
2023-03-15 13:40:49:543,0,6.46408,-5.22271,-8.35312,Q,Q
2023-03-15 13:40:49:553,0,6.48072,-5.24572,-8.35866,Q,Q
2023-03-15 13:40:49:563,0,6.50735,-5.26788,-8.36614,Q,Q
2023-03-15 13:40:49:573,0,6.53742,-5.29609,-8.37557,Q,Q
2023-03-15 13:40:49:583,0,6.56563,-5.32621,-8.38924,Q,Q
2023-03-15 13:40:49:593,0,6.59577,-5.35996,-8.40334,Q,Q
2023-03-15 13:40:49:603,0,6.62436,-5.39212,-8.41628,Q,Q
2023-03-15 13:40:49:613,0,6.64629,-5.42222,-8.42949,Q,Q
2023-03-15 13:40:49:623,0,6.66718,-5.45333,-8.44319,Q,Q
2023-03-15 13:40:49:633,0,6.685,-5.4791,-8.45283,Q,Q
2023-03-15 13:40:49:643,0,6.69671,-5.50558,-8.46493,Q,Q
2023-03-15 13:40:49:653,0,6.70888,-5.53202,-8.47768,Q,Q
2023-03-15 13:40:49:663,0,6.7231,-5.55798,-8.49017,Q,Q
2023-03-15 13:40:49:673,0,6.74126,-5.58146,-8.50099,Q,Q
2023-03-15 13:40:49:683,0,6.76169,-5.60362,-8.50923,Q,Q
2023-03-15 13:40:49:693,0,6.78493,-5.62269,-8.51588,Q,Q
2023-03-15 13:40:49:703,0,6.80596,-5.63923,-8.51869,Q,Q
2023-03-15 13:40:49:713,0,6.82801,-5.65061,-8.52284,Q,Q
2023-03-15 13:40:49:723,0,6.84646,-5.66464,-8.53229,Q,Q
2023-03-15 13:40:49:733,0,6.86761,-5.67301,-8.5374,Q,Q
2023-03-15 13:40:49:743,0,6.88817,-5.68217,-8.54644,Q,Q
2023-03-15 13:40:49:753,0,6.90866,-5.68416,-8.55505,Q,Q
2023-03-15 13:40:49:763,0,6.93208,-5.68397,-8.5647,Q,Q
2023-03-15 13:40:49:773,0,6.94965,-5.6878,-8.57289,Q,Q
2023-03-15 13:40:49:783,0,6.96744,-5.69322,-8.58,Q,Q
2023-03-15 13:40:49:793,0,6.98503,-5.69973,-8.58303,Q,Q
2023-03-15 13:40:49:803,0,7.00446,-5.70553,-8.58852,Q,Q
2023-03-15 13:40:49:813,0,7.02089,-5.71912,-8.58964,Q,Q
2023-03-15 13:40:49:823,0,7.03558,-5.74309,-8.58719,Q,Q
2023-03-15 13:40:49:833,0,7.04097,-5.76708,-8.58379,Q,Q
2023-03-15 13:40:49:843,0,7.04978,-5.78567,-8.5802,Q,Q
2023-03-15 13:40:49:853,0,7.05899,-5.79939,-8.57622,Q,Q
2023-03-15 13:40:49:863,0,7.06604,-5.81753,-8.56834,Q,Q
2023-03-15 13:40:49:873,0,7.06601,-5.83625,-8.55809,Q,Q
2023-03-15 13:40:49:883,0,7.0691,-5.85492,-8.55437,Q,Q
2023-03-15 13:40:49:893,0,7.07467,-5.87074,-8.54619,Q,Q
2023-03-15 13:40:49:903,0,7.0826,-5.88508,-8.53529,Q,Q
2023-03-15 13:40:49:913,0,7.09009,-5.8961,-8.52423,Q,Q
2023-03-15 13:40:49:923,0,7.09887,-5.90892,-8.51266,Q,Q
2023-03-15 13:40:49:933,0,7.10743,-5.91912,-8.49933,Q,Q
2023-03-15 13:40:49:943,0,7.11681,-5.92577,-8.49076,Q,Q
2023-03-15 13:40:49:953,0,7.12308,-5.93268,-8.47658,Q,Q
2023-03-15 13:40:49:963,0,7.13137,-5.93688,-8.46536,Q,Q
2023-03-15 13:40:49:973,0,7.13705,-5.94391,-8.45299,Q,Q
2023-03-15 13:40:49:983,0,7.1437,-5.94769,-8.4377,Q,Q
2023-03-15 13:40:49:993,0,7.14623,-5.94961,-8.41736,Q,Q
2023-03-15 13:40:50:3,0,7.14916,-5.95576,-8.39602,Q,Q
2023-03-15 13:40:50:13,0,7.14933,-5.95944,-8.37667,Q,Q
2023-03-15 13:40:50:23,0,7.14963,-5.95936,-8.3566,Q,Q
2023-03-15 13:40:50:33,0,7.15337,-5.95738,-8.33556,Q,Q
2023-03-15 13:40:50:43,0,7.16135,-5.96109,-8.30928,Q,Q
2023-03-15 13:40:50:53,0,7.17158,-5.96675,-8.27826,Q,Q
2023-03-15 13:40:50:63,0,7.18792,-5.97725,-8.25224,Q,Q
2023-03-15 13:40:50:73,0,7.2181,-5.98521,-8.22513,Q,Q
2023-03-15 13:40:50:83,0,7.2562,-5.99225,-8.19686,Q,Q
2023-03-15 13:40:50:93,0,7.30267,-5.99795,-8.17009,Q,Q
2023-03-15 13:40:50:103,0,7.34918,-6.00008,-8.14162,Q,Q
2023-03-15 13:40:50:113,0,7.39724,-6.00428,-8.11546,Q,Q
2023-03-15 13:40:50:123,0,7.44351,-6.00957,-8.0851,Q,Q
2023-03-15 13:40:50:133,0,7.49445,-6.01521,-8.06004,Q,Q
2023-03-15 13:40:50:143,0,7.54221,-6.02302,-8.03561,Q,Q
2023-03-15 13:40:50:153,0,7.59283,-6.03552,-8.01545,Q,Q
2023-03-15 13:40:50:163,0,7.64636,-6.04647,-7.99722,Q,Q
2023-03-15 13:40:50:173,0,7.70871,-6.05637,-7.98996,Q,Q
2023-03-15 13:40:50:183,0,7.79154,-6.0671,-7.99517,Q,Q
2023-03-15 13:40:50:193,0,7.89384,-6.08704,-8.00081,Q,Q
2023-03-15 13:40:50:203,0,8.00966,-6.11786,-8.01126,Q,Q
2023-03-15 13:40:50:213,0,8.13826,-6.14877,-8.03536,Q,Q
2023-03-15 13:40:50:223,0,8.2871,-6.17859,-8.0705,Q,Q
2023-03-15 13:40:50:233,0,8.45212,-6.20214,-8.10544,Q,Q
2023-03-15 13:40:50:243,0,8.62341,-6.22088,-8.14571,Q,Q
2023-03-15 13:40:50:253,0,8.80247,-6.2399,-8.18956,Q,Q
2023-03-15 13:40:50:263,0,8.99079,-6.25127,-8.23155,Q,Q
2023-03-15 13:40:50:273,0,9.18128,-6.26199,-8.26606,Q,Q
2023-03-15 13:40:50:283,0,9.35303,-6.26935,-8.2928,Q,Q
2023-03-15 13:40:50:293,0,9.49986,-6.27138,-8.31202,Q,Q
2023-03-15 13:40:50:303,0,9.61759,-6.28029,-8.33165,Q,Q
2023-03-15 13:40:50:313,0,9.72954,-6.2919,-8.36082,Q,Q
2023-03-15 13:40:50:323,0,9.85514,-6.30167,-8.39248,Q,Q
2023-03-15 13:40:50:333,0,9.97809,-6.29741,-8.4143,Q,Q
2023-03-15 13:40:50:343,0,10.0941,-6.28769,-8.43135,Q,Q
2023-03-15 13:40:50:353,0,10.2041,-6.27523,-8.44984,Q,Q
2023-03-15 13:40:50:363,0,10.306,-6.25608,-8.46533,Q,Q
2023-03-15 13:40:50:373,0,10.3945,-6.23556,-8.47543,Q,Q
2023-03-15 13:40:50:383,0,10.4672,-6.2164,-8.48217,Q,Q
2023-03-15 13:40:50:393,0,10.5338,-6.19886,-8.49311,Q,Q
2023-03-15 13:40:50:403,0,10.5905,-6.17753,-8.4987,Q,Q
2023-03-15 13:40:50:413,0,10.639,-6.16097,-8.50278,Q,Q
2023-03-15 13:40:50:423,0,10.6712,-6.14258,-8.50782,Q,Q
2023-03-15 13:40:50:433,0,10.6895,-6.11784,-8.51185,Q,Q
2023-03-15 13:40:50:443,0,10.6929,-6.09005,-8.51525,Q,Q
2023-03-15 13:40:50:453,0,10.677,-6.06919,-8.51143,Q,Q
2023-03-15 13:40:50:463,0,10.6507,-6.04653,-8.50644,Q,Q
2023-03-15 13:40:50:473,0,10.616,-6.02767,-8.49933,Q,Q
2023-03-15 13:40:50:483,0,10.5764,-6.01221,-8.49079,Q,Q
2023-03-15 13:40:50:493,0,10.5308,-5.99637,-8.49005,Q,Q
2023-03-15 13:40:50:503,0,10.4881,-5.98453,-8.48947,Q,Q
2023-03-15 13:40:50:513,0,10.4462,-5.97315,-8.48576,Q,Q
2023-03-15 13:40:50:523,0,10.4031,-5.96103,-8.48205,Q,Q
2023-03-15 13:40:50:533,0,10.366,-5.94198,-8.47832,Q,Q
2023-03-15 13:40:50:543,0,10.3268,-5.92824,-8.48269,Q,Q
2023-03-15 13:40:50:553,0,10.2896,-5.91991,-8.48513,Q,Q
2023-03-15 13:40:50:563,0,10.2579,-5.9101,-8.49194,Q,Q
2023-03-15 13:40:50:573,0,10.2336,-5.89966,-8.49542,Q,Q
2023-03-15 13:40:50:583,0,10.2104,-5.88882,-8.49662,Q,Q
2023-03-15 13:40:50:593,0,10.1888,-5.88484,-8.50036,Q,Q
2023-03-15 13:40:50:603,0,10.1666,-5.88116,-8.50304,Q,Q
2023-03-15 13:40:50:613,0,10.141,-5.8771,-8.50227,Q,Q
2023-03-15 13:40:50:623,0,10.1126,-5.87659,-8.49994,Q,Q
2023-03-15 13:40:50:633,0,10.0857,-5.87614,-8.49893,Q,Q
2023-03-15 13:40:50:643,0,10.0548,-5.87315,-8.5019,Q,Q
2023-03-15 13:40:50:653,0,10.0205,-5.86909,-8.50912,Q,Q
2023-03-15 13:40:50:663,0,9.9919,-5.86858,-8.51661,Q,Q
2023-03-15 13:40:50:673,0,9.96579,-5.86545,-8.52232,Q,Q
2023-03-15 13:40:50:683,0,9.94301,-5.86383,-8.52548,Q,Q
2023-03-15 13:40:50:693,0,9.91864,-5.86094,-8.53161,Q,Q
2023-03-15 13:40:50:703,0,9.89825,-5.85694,-8.53825,Q,Q
2023-03-15 13:40:50:713,0,9.88295,-5.85519,-8.54582,Q,Q
2023-03-15 13:40:50:723,0,9.86903,-5.85633,-8.55355,Q,Q
2023-03-15 13:40:50:733,0,9.8567,-5.85038,-8.5591,Q,Q
2023-03-15 13:40:50:743,0,9.84083,-5.8451,-8.56793,Q,Q
2023-03-15 13:40:50:753,0,9.82558,-5.83907,-8.57195,Q,Q
2023-03-15 13:40:50:763,0,9.8091,-5.83425,-8.57645,Q,Q
2023-03-15 13:40:50:773,0,9.78634,-5.83024,-8.57813,Q,Q
2023-03-15 13:40:50:783,0,9.76587,-5.82561,-8.57556,Q,Q
2023-03-15 13:40:50:793,0,9.74251,-5.82477,-8.57137,Q,Q
2023-03-15 13:40:50:803,0,9.72201,-5.82081,-8.56718,Q,Q
2023-03-15 13:40:50:813,0,9.70508,-5.81911,-8.55953,Q,Q
2023-03-15 13:40:50:823,0,9.68247,-5.81877,-8.54688,Q,Q
2023-03-15 13:40:50:833,0,9.66939,-5.81743,-8.53492,Q,Q
2023-03-15 13:40:50:842,0,9.66516,-5.8188,-8.52507,Q,Q
2023-03-15 13:40:50:853,0,9.67213,-5.81719,-8.50609,Q,Q
2023-03-15 13:40:50:863,0,9.68428,-5.81119,-8.4825,Q,Q
2023-03-15 13:40:50:873,0,9.69079,-5.80909,-8.44838,Q,Q
2023-03-15 13:40:50:883,0,9.68879,-5.80659,-8.4027,Q,Q
2023-03-15 13:40:50:893,0,9.68007,-5.79944,-8.35486,Q,Q
2023-03-15 13:40:50:903,0,9.67023,-5.79976,-8.30121,Q,Q
2023-03-15 13:40:50:913,0,9.654,-5.80003,-8.24116,Q,Q
2023-03-15 13:40:50:923,0,9.6336,-5.80328,-8.1778,Q,Q
2023-03-15 13:40:50:933,0,9.60591,-5.80674,-8.11382,Q,Q
2023-03-15 13:40:50:943,0,9.57229,-5.80976,-8.05426,Q,Q
2023-03-15 13:40:50:953,0,9.53734,-5.81437,-7.99347,Q,Q
2023-03-15 13:40:50:963,0,9.50071,-5.8167,-7.93816,Q,Q
2023-03-15 13:40:50:973,0,9.46353,-5.81737,-7.88217,Q,Q
2023-03-15 13:40:50:983,0,9.42555,-5.82019,-7.8306,Q,Q
2023-03-15 13:40:50:993,0,9.38097,-5.82515,-7.77464,Q,Q
2023-03-15 13:40:51:3,0,9.33734,-5.83053,-7.72298,Q,Q
2023-03-15 13:40:51:13,0,9.29066,-5.83268,-7.67207,Q,Q
2023-03-15 13:40:51:23,0,9.2435,-5.83971,-7.6243,Q,Q
2023-03-15 13:40:51:33,0,9.19483,-5.84387,-7.57762,Q,Q
2023-03-15 13:40:51:43,0,9.14776,-5.84834,-7.53676,Q,Q
2023-03-15 13:40:51:53,0,9.09831,-5.85259,-7.5065,Q,Q
2023-03-15 13:40:51:63,0,9.04984,-5.86147,-7.47533,Q,Q
2023-03-15 13:40:51:73,0,9.00361,-5.87053,-7.44564,Q,Q
2023-03-15 13:40:51:83,0,8.95368,-5.88489,-7.41841,Q,Q
2023-03-15 13:40:51:93,0,8.90259,-5.89856,-7.39327,Q,Q
2023-03-15 13:40:51:103,0,8.84786,-5.91159,-7.3743,Q,Q
2023-03-15 13:40:51:113,0,8.79744,-5.92216,-7.35914,Q,Q
2023-03-15 13:40:51:123,0,8.75,-5.93279,-7.34709,Q,Q
2023-03-15 13:40:51:133,0,8.70503,-5.93859,-7.33893,Q,Q
2023-03-15 13:40:51:143,0,8.66108,-5.94663,-7.33542,Q,Q
2023-03-15 13:40:51:153,0,8.61968,-5.95507,-7.33607,Q,Q
2023-03-15 13:40:51:163,0,8.59091,-5.96358,-7.33925,Q,Q
2023-03-15 13:40:51:173,0,8.5657,-5.97217,-7.34703,Q,Q
2023-03-15 13:40:51:183,0,8.5424,-5.97416,-7.35715,Q,Q
2023-03-15 13:40:51:193,0,8.52236,-5.97677,-7.36915,Q,Q
2023-03-15 13:40:51:203,0,8.49764,-5.98028,-7.3829,Q,Q
2023-03-15 13:40:51:213,0,8.47719,-5.98867,-7.4019,Q,Q
2023-03-15 13:40:51:223,0,8.45223,-5.998,-7.41896,Q,Q
2023-03-15 13:40:51:233,0,8.43144,-6.00817,-7.4338,Q,Q
2023-03-15 13:40:51:243,0,8.41005,-6.02109,-7.4484,Q,Q
2023-03-15 13:40:51:253,0,8.38775,-6.029,-7.46583,Q,Q
2023-03-15 13:40:51:263,0,8.36615,-6.03317,-7.48378,Q,Q
2023-03-15 13:40:51:273,0,8.34845,-6.02927,-7.49896,Q,Q
2023-03-15 13:40:51:283,0,8.33508,-6.02921,-7.5087,Q,Q
2023-03-15 13:40:51:293,0,8.31824,-6.03348,-7.51862,Q,Q
2023-03-15 13:40:51:303,0,8.30171,-6.03885,-7.5277,Q,Q
2023-03-15 13:40:51:313,0,8.29738,-6.0436,-7.53773,Q,Q
2023-03-15 13:40:51:323,0,8.2957,-6.04359,-7.54747,Q,Q
2023-03-15 13:40:51:333,0,8.30038,-6.04225,-7.55899,Q,Q
2023-03-15 13:40:51:343,0,8.31009,-6.03716,-7.56677,Q,Q
2023-03-15 13:40:51:353,0,8.32039,-6.03146,-7.57388,Q,Q
2023-03-15 13:40:51:363,0,8.3348,-6.02532,-7.58323,Q,Q
2023-03-15 13:40:51:373,0,8.34809,-6.01907,-7.59155,Q,Q
2023-03-15 13:40:51:383,0,8.36318,-6.01589,-7.60201,Q,Q
2023-03-15 13:40:51:393,0,8.37784,-6.01299,-7.60762,Q,Q
2023-03-15 13:40:51:403,0,8.38731,-6.00915,-7.61759,Q,Q
2023-03-15 13:40:51:413,0,8.39811,-6.00616,-7.6273,Q,Q
2023-03-15 13:40:51:423,0,8.4058,-6.0034,-7.63987,Q,Q
2023-03-15 13:40:51:433,0,8.41102,-6.00001,-7.65357,Q,Q
2023-03-15 13:40:51:443,0,8.41433,-6.00154,-7.66546,Q,Q
2023-03-15 13:40:51:453,0,8.41218,-5.99903,-7.68091,Q,Q
2023-03-15 13:40:51:463,0,8.40956,-6.00118,-7.69386,Q,Q
2023-03-15 13:40:51:473,0,8.40393,-5.99967,-7.71275,Q,Q
2023-03-15 13:40:51:483,0,8.39731,-6.00055,-7.7306,Q,Q
2023-03-15 13:40:51:493,0,8.38809,-5.99642,-7.75309,Q,Q
2023-03-15 13:40:51:503,0,8.38354,-5.9914,-7.7734,Q,Q
2023-03-15 13:40:51:513,0,8.38058,-5.98632,-7.79436,Q,Q
2023-03-15 13:40:51:523,0,8.37718,-5.98956,-7.8159,Q,Q
2023-03-15 13:40:51:533,0,8.37338,-5.98675,-7.83973,Q,Q
2023-03-15 13:40:51:543,0,8.36844,-5.9868,-7.8644,Q,Q
2023-03-15 13:40:51:553,0,8.36884,-5.98892,-7.8962,Q,Q
2023-03-15 13:40:51:563,0,8.36513,-5.98969,-7.92312,Q,Q
2023-03-15 13:40:51:573,0,8.3611,-5.98649,-7.95528,Q,Q
2023-03-15 13:40:51:583,0,8.35813,-5.98321,-7.98782,Q,Q
2023-03-15 13:40:51:593,0,8.35596,-5.97459,-8.02354,Q,Q
2023-03-15 13:40:51:603,0,8.35112,-5.96863,-8.0625,Q,Q
2023-03-15 13:40:51:613,0,8.34702,-5.96404,-8.10118,Q,Q
2023-03-15 13:40:51:622,0,8.34697,-5.95626,-8.14186,Q,Q
2023-03-15 13:40:51:633,0,8.3505,-5.9426,-8.18287,Q,Q
2023-03-15 13:40:51:643,0,8.35572,-5.92729,-8.22568,Q,Q
2023-03-15 13:40:51:653,0,8.36083,-5.91353,-8.26394,Q,Q
2023-03-15 13:40:51:663,0,8.36805,-5.90237,-8.30156,Q,Q
2023-03-15 13:40:51:673,0,8.37797,-5.88764,-8.34113,Q,Q
2023-03-15 13:40:51:683,0,8.38886,-5.87604,-8.37538,Q,Q
2023-03-15 13:40:51:693,0,8.40053,-5.86406,-8.40541,Q,Q
2023-03-15 13:40:51:702,0,8.40552,-5.85647,-8.4303,Q,Q
2023-03-15 13:40:51:713,0,8.40741,-5.85077,-8.45414,Q,Q
2023-03-15 13:40:51:722,0,8.40687,-5.84526,-8.47867,Q,Q
2023-03-15 13:40:51:733,0,8.40811,-5.84203,-8.50136,Q,Q
2023-03-15 13:40:51:743,0,8.40802,-5.83259,-8.52216,Q,Q
2023-03-15 13:40:51:753,0,8.4108,-5.82652,-8.54233,Q,Q
2023-03-15 13:40:51:763,0,8.41208,-5.81289,-8.56072,Q,Q
2023-03-15 13:40:51:773,0,8.41594,-5.80516,-8.57833,Q,Q
2023-03-15 13:40:51:783,0,8.41887,-5.798,-8.59173,Q,Q
2023-03-15 13:40:51:793,0,8.42181,-5.79132,-8.60602,Q,Q
2023-03-15 13:40:51:803,0,8.42012,-5.78378,-8.61504,Q,Q
2023-03-15 13:40:51:813,0,8.41249,-5.77582,-8.62537,Q,Q
2023-03-15 13:40:51:823,0,8.40352,-5.76557,-8.63498,Q,Q
2023-03-15 13:40:51:833,0,8.38962,-5.75756,-8.64877,Q,Q
2023-03-15 13:40:51:843,0,8.3759,-5.74987,-8.66008,Q,Q
2023-03-15 13:40:51:853,0,8.36114,-5.74115,-8.66748,Q,Q
2023-03-15 13:40:51:863,0,8.34392,-5.73021,-8.67484,Q,Q
2023-03-15 13:40:51:873,0,8.3264,-5.71992,-8.68623,Q,Q
2023-03-15 13:40:51:883,0,8.30947,-5.70538,-8.70184,Q,Q
2023-03-15 13:40:51:893,0,8.29902,-5.69596,-8.71354,Q,Q
2023-03-15 13:40:51:903,0,8.28574,-5.69139,-8.72078,Q,Q
2023-03-15 13:40:51:913,0,8.27521,-5.68698,-8.72373,Q,Q
2023-03-15 13:40:51:923,0,8.26559,-5.68225,-8.72647,Q,Q
2023-03-15 13:40:51:933,0,8.25835,-5.67732,-8.73349,Q,Q
