Timestamp_cmd,imu_cmd,roll_delta,pitch_delta,yaw_delta,voice_type,voice_length
2023-03-14 16:30:39:127,0,-16.5776,-3.06804,69.7128,Q,Q
2023-03-14 16:30:39:135,0,-16.5674,-3.06326,69.7222,Q,Q
2023-03-14 16:30:39:145,0,-16.5543,-3.05778,69.7305,Q,Q
2023-03-14 16:30:39:155,0,-16.5422,-3.05381,69.7408,Q,Q
2023-03-14 16:30:39:165,0,-16.5278,-3.04683,69.7482,Q,Q
2023-03-14 16:30:39:175,0,-16.5108,-3.04261,69.7565,Q,Q
2023-03-14 16:30:39:185,0,-16.4988,-3.03884,69.7647,Q,Q
2023-03-14 16:30:39:196,0,-16.481,-3.03921,69.7732,Q,Q
2023-03-14 16:30:39:205,0,-16.4588,-3.04024,69.7821,Q,Q
2023-03-14 16:30:39:215,0,-16.4365,-3.04749,69.7862,Q,Q
2023-03-14 16:30:39:225,0,-16.4147,-3.05431,69.7894,Q,Q
2023-03-14 16:30:39:236,0,-16.3942,-3.06094,69.7883,Q,Q
2023-03-14 16:30:39:246,0,-16.3763,-3.07234,69.7891,Q,Q
2023-03-14 16:30:39:255,0,-16.3626,-3.08689,69.7908,Q,Q
2023-03-14 16:30:39:265,0,-16.3441,-3.10192,69.7921,Q,Q
2023-03-14 16:30:39:276,0,-16.326,-3.11926,69.7986,Q,Q
2023-03-14 16:30:39:285,0,-16.3161,-3.13866,69.8022,Q,Q
2023-03-14 16:30:39:296,0,-16.304,-3.1554,69.8094,Q,Q
2023-03-14 16:30:39:306,0,-16.2915,-3.17327,69.8222,Q,Q
2023-03-14 16:30:39:316,0,-16.2775,-3.19145,69.8357,Q,Q
2023-03-14 16:30:39:326,0,-16.2631,-3.20723,69.8489,Q,Q
2023-03-14 16:30:39:336,0,-16.252,-3.22266,69.8608,Q,Q
2023-03-14 16:30:39:346,0,-16.2451,-3.23683,69.8732,Q,Q
2023-03-14 16:30:39:356,0,-16.2344,-3.25019,69.8896,Q,Q
2023-03-14 16:30:39:366,0,-16.2225,-3.25834,69.9024,Q,Q
2023-03-14 16:30:39:376,0,-16.2121,-3.2685,69.9151,Q,Q
2023-03-14 16:30:39:386,0,-16.1984,-3.28021,69.9313,Q,Q
2023-03-14 16:30:39:396,0,-16.1897,-3.29179,69.9435,Q,Q
2023-03-14 16:30:39:406,0,-16.1812,-3.30019,69.9543,Q,Q
2023-03-14 16:30:39:416,0,-16.1723,-3.30637,69.9643,Q,Q
2023-03-14 16:30:39:426,0,-16.1632,-3.3093,69.9734,Q,Q
2023-03-14 16:30:39:436,0,-16.1639,-3.31555,69.9841,Q,Q
2023-03-14 16:30:39:446,0,-16.1659,-3.3216,69.9947,Q,Q
2023-03-14 16:30:39:456,0,-16.1686,-3.32416,70.0071,Q,Q
2023-03-14 16:30:39:466,0,-16.1646,-3.32865,70.0151,Q,Q
2023-03-14 16:30:39:476,0,-16.1595,-3.33425,70.0218,Q,Q
2023-03-14 16:30:39:486,0,-16.1513,-3.34045,70.0274,Q,Q
2023-03-14 16:30:39:496,0,-16.1377,-3.34573,70.0378,Q,Q
2023-03-14 16:30:39:506,0,-16.13,-3.35554,70.0519,Q,Q
2023-03-14 16:30:39:516,0,-16.1151,-3.36804,70.0626,Q,Q
2023-03-14 16:30:39:526,0,-16.1019,-3.37792,70.0713,Q,Q
2023-03-14 16:30:39:535,0,-16.0896,-3.38987,70.0819,Q,Q
2023-03-14 16:30:39:546,0,-16.0818,-3.3997,70.0937,Q,Q
2023-03-14 16:30:39:556,0,-16.0756,-3.40802,70.1038,Q,Q
2023-03-14 16:30:39:566,0,-16.0641,-3.41982,70.1111,Q,Q
2023-03-14 16:30:39:576,0,-16.0475,-3.43241,70.118,Q,Q
2023-03-14 16:30:39:586,0,-16.035,-3.44715,70.1248,Q,Q
2023-03-14 16:30:39:596,0,-16.0158,-3.46049,70.1283,Q,Q
2023-03-14 16:30:39:606,0,-15.9945,-3.47242,70.131,Q,Q
2023-03-14 16:30:39:616,0,-15.9758,-3.48446,70.1374,Q,Q
2023-03-14 16:30:39:626,0,-15.9568,-3.49428,70.1409,Q,Q
2023-03-14 16:30:39:636,0,-15.9418,-3.50455,70.143,Q,Q
2023-03-14 16:30:39:646,0,-15.9267,-3.5091,70.1483,Q,Q
2023-03-14 16:30:39:656,0,-15.9136,-3.51686,70.15,Q,Q
2023-03-14 16:30:39:666,0,-15.9014,-3.52382,70.1508,Q,Q
2023-03-14 16:30:39:676,0,-15.8903,-3.53823,70.1535,Q,Q
2023-03-14 16:30:39:686,0,-15.8795,-3.55687,70.1586,Q,Q
2023-03-14 16:30:39:696,0,-15.8697,-3.57254,70.167,Q,Q
2023-03-14 16:30:39:706,0,-15.8599,-3.58833,70.179,Q,Q
2023-03-14 16:30:39:715,0,-15.8567,-3.60401,70.1969,Q,Q
2023-03-14 16:30:39:725,0,-15.8501,-3.61847,70.2122,Q,Q
2023-03-14 16:30:39:735,0,-15.8461,-3.62949,70.231,Q,Q
2023-03-14 16:30:39:745,0,-15.8399,-3.64297,70.2508,Q,Q
2023-03-14 16:30:39:755,0,-15.8341,-3.65631,70.274,Q,Q
2023-03-14 16:30:39:765,0,-15.8258,-3.67143,70.2963,Q,Q
2023-03-14 16:30:39:775,0,-15.8121,-3.68591,70.3154,Q,Q
2023-03-14 16:30:39:785,0,-15.7972,-3.70097,70.3355,Q,Q
2023-03-14 16:30:39:795,0,-15.7849,-3.71181,70.3466,Q,Q
2023-03-14 16:30:39:805,0,-15.7731,-3.7247,70.3545,Q,Q
2023-03-14 16:30:39:815,0,-15.7646,-3.73605,70.3592,Q,Q
2023-03-14 16:30:39:825,0,-15.7555,-3.74687,70.3547,Q,Q
2023-03-14 16:30:39:835,0,-15.7495,-3.75669,70.3442,Q,Q
2023-03-14 16:30:39:845,0,-15.7435,-3.76651,70.3347,Q,Q
2023-03-14 16:30:39:855,0,-15.7422,-3.77025,70.323,Q,Q
2023-03-14 16:30:39:865,0,-15.7407,-3.7751,70.3091,Q,Q
2023-03-14 16:30:39:875,0,-15.7385,-3.78018,70.2951,Q,Q
2023-03-14 16:30:39:885,0,-15.7419,-3.78356,70.2796,Q,Q
2023-03-14 16:30:39:895,0,-15.7444,-3.7803,70.2663,Q,Q
2023-03-14 16:30:39:905,0,-15.7464,-3.77891,70.2534,Q,Q
2023-03-14 16:30:39:915,0,-15.7449,-3.77186,70.2386,Q,Q
2023-03-14 16:30:39:925,0,-15.7488,-3.76874,70.221,Q,Q
2023-03-14 16:30:39:935,0,-15.7507,-3.76679,70.2063,Q,Q
2023-03-14 16:30:39:945,0,-15.7501,-3.76731,70.1926,Q,Q
2023-03-14 16:30:39:955,0,-15.749,-3.76439,70.1834,Q,Q
2023-03-14 16:30:39:965,0,-15.7471,-3.76654,70.1698,Q,Q
2023-03-14 16:30:39:975,0,-15.7491,-3.7644,70.1607,Q,Q
2023-03-14 16:30:39:985,0,-15.746,-3.76192,70.1485,Q,Q
2023-03-14 16:30:39:995,0,-15.7438,-3.76364,70.1375,Q,Q
2023-03-14 16:30:40:5,0,-15.7369,-3.7687,70.1312,Q,Q
2023-03-14 16:30:40:15,0,-15.73,-3.77326,70.1258,Q,Q
2023-03-14 16:30:40:25,0,-15.7189,-3.77862,70.1225,Q,Q
2023-03-14 16:30:40:35,0,-15.7072,-3.78597,70.1215,Q,Q
2023-03-14 16:30:40:45,0,-15.6948,-3.79681,70.1212,Q,Q
2023-03-14 16:30:40:55,0,-15.6841,-3.80632,70.1189,Q,Q
2023-03-14 16:30:40:65,0,-15.6781,-3.81598,70.1193,Q,Q
2023-03-14 16:30:40:75,0,-15.6669,-3.82547,70.1156,Q,Q
2023-03-14 16:30:40:85,0,-15.6564,-3.83506,70.1161,Q,Q
2023-03-14 16:30:40:95,0,-15.6462,-3.84627,70.1193,Q,Q
2023-03-14 16:30:40:105,0,-15.6364,-3.85839,70.122,Q,Q
2023-03-14 16:30:40:115,0,-15.6225,-3.87338,70.1249,Q,Q
2023-03-14 16:30:40:125,0,-15.6097,-3.8869,70.1294,Q,Q
2023-03-14 16:30:40:135,0,-15.5897,-3.89946,70.1329,Q,Q
2023-03-14 16:30:40:145,0,-15.5707,-3.91184,70.1399,Q,Q
2023-03-14 16:30:40:155,0,-15.5542,-3.92538,70.1475,Q,Q
2023-03-14 16:30:40:166,0,-15.5377,-3.93834,70.1573,Q,Q
2023-03-14 16:30:40:176,0,-15.523,-3.95011,70.164,Q,Q
2023-03-14 16:30:40:186,0,-15.5115,-3.95762,70.1706,Q,Q
2023-03-14 16:30:40:196,0,-15.4977,-3.96409,70.1754,Q,Q
2023-03-14 16:30:40:206,0,-15.4893,-3.96999,70.1801,Q,Q
2023-03-14 16:30:40:216,0,-15.4826,-3.97582,70.1837,Q,Q
2023-03-14 16:30:40:225,0,-15.4734,-3.97966,70.1849,Q,Q
2023-03-14 16:30:40:236,0,-15.4635,-3.98528,70.1861,Q,Q
2023-03-14 16:30:40:246,0,-15.4503,-3.98985,70.1879,Q,Q
2023-03-14 16:30:40:256,0,-15.4384,-3.99478,70.1857,Q,Q
2023-03-14 16:30:40:265,0,-15.4361,-3.99686,70.1843,Q,Q
2023-03-14 16:30:40:276,0,-15.4364,-3.99837,70.1877,Q,Q
2023-03-14 16:30:40:285,0,-15.4397,-3.9997,70.1874,Q,Q
2023-03-14 16:30:40:296,0,-15.443,-3.99782,70.1891,Q,Q
2023-03-14 16:30:40:306,0,-15.4481,-3.99577,70.1912,Q,Q
2023-03-14 16:30:40:316,0,-15.4519,-3.99339,70.1955,Q,Q
2023-03-14 16:30:40:326,0,-15.4495,-3.98657,70.2003,Q,Q
2023-03-14 16:30:40:335,0,-15.451,-3.98113,70.204,Q,Q
2023-03-14 16:30:40:346,0,-15.4537,-3.97823,70.2098,Q,Q
2023-03-14 16:30:40:356,0,-15.4545,-3.97378,70.2129,Q,Q
2023-03-14 16:30:40:366,0,-15.455,-3.96583,70.2193,Q,Q
2023-03-14 16:30:40:376,0,-15.4512,-3.95978,70.2224,Q,Q
2023-03-14 16:30:40:386,0,-15.4474,-3.95285,70.2244,Q,Q
2023-03-14 16:30:40:396,0,-15.4428,-3.94549,70.2233,Q,Q
2023-03-14 16:30:40:406,0,-15.4409,-3.93866,70.2269,Q,Q
2023-03-14 16:30:40:416,0,-15.4366,-3.93376,70.2278,Q,Q
2023-03-14 16:30:40:426,0,-15.4321,-3.92763,70.226,Q,Q
2023-03-14 16:30:40:435,0,-15.4306,-3.92167,70.2221,Q,Q
2023-03-14 16:30:40:445,0,-15.429,-3.91429,70.22,Q,Q
2023-03-14 16:30:40:455,0,-15.4332,-3.90955,70.2203,Q,Q
2023-03-14 16:30:40:465,0,-15.437,-3.89759,70.2148,Q,Q
2023-03-14 16:30:40:475,0,-15.4453,-3.88596,70.207,Q,Q
2023-03-14 16:30:40:485,0,-15.4508,-3.8717,70.1952,Q,Q
2023-03-14 16:30:40:495,0,-15.454,-3.85921,70.1878,Q,Q
2023-03-14 16:30:40:505,0,-15.4587,-3.84461,70.1813,Q,Q
2023-03-14 16:30:40:515,0,-15.4662,-3.83137,70.1787,Q,Q
2023-03-14 16:30:40:525,0,-15.4746,-3.8145,70.1796,Q,Q
2023-03-14 16:30:40:535,0,-15.4823,-3.7914,70.183,Q,Q
2023-03-14 16:30:40:545,0,-15.4803,-3.76384,70.1853,Q,Q
2023-03-14 16:30:40:555,0,-15.4732,-3.73503,70.1885,Q,Q
2023-03-14 16:30:40:565,0,-15.4591,-3.70441,70.1974,Q,Q
2023-03-14 16:30:40:575,0,-15.4343,-3.67812,70.2088,Q,Q
2023-03-14 16:30:40:585,0,-15.401,-3.65719,70.2239,Q,Q
2023-03-14 16:30:40:595,0,-15.3622,-3.63569,70.2424,Q,Q
2023-03-14 16:30:40:605,0,-15.3247,-3.6087,70.263,Q,Q
2023-03-14 16:30:40:615,0,-15.2925,-3.5788,70.2834,Q,Q
2023-03-14 16:30:40:625,0,-15.2714,-3.55118,70.2982,Q,Q
2023-03-14 16:30:40:635,0,-15.2634,-3.52258,70.3075,Q,Q
2023-03-14 16:30:40:645,0,-15.2623,-3.49728,70.3142,Q,Q
2023-03-14 16:30:40:655,0,-15.2603,-3.47246,70.3202,Q,Q
2023-03-14 16:30:40:665,0,-15.2469,-3.45041,70.3254,Q,Q
2023-03-14 16:30:40:675,0,-15.2194,-3.43343,70.3342,Q,Q
2023-03-14 16:30:40:685,0,-15.1803,-3.42205,70.3446,Q,Q
2023-03-14 16:30:40:695,0,-15.1405,-3.41123,70.3566,Q,Q
2023-03-14 16:30:40:705,0,-15.1013,-3.40632,70.3726,Q,Q
2023-03-14 16:30:40:715,0,-15.066,-3.40147,70.3826,Q,Q
2023-03-14 16:30:40:725,0,-15.0442,-3.4015,70.3836,Q,Q
2023-03-14 16:30:40:735,0,-15.0334,-3.393,70.377,Q,Q
2023-03-14 16:30:40:745,0,-15.0312,-3.39067,70.3619,Q,Q
2023-03-14 16:30:40:755,0,-15.0259,-3.39457,70.3421,Q,Q
2023-03-14 16:30:40:765,0,-15.0114,-3.40345,70.3245,Q,Q
2023-03-14 16:30:40:775,0,-14.9851,-3.41428,70.3065,Q,Q
2023-03-14 16:30:40:785,0,-14.9494,-3.42642,70.2921,Q,Q
2023-03-14 16:30:40:795,0,-14.9009,-3.43788,70.2821,Q,Q
2023-03-14 16:30:40:805,0,-14.8497,-3.45073,70.277,Q,Q
2023-03-14 16:30:40:815,0,-14.8139,-3.46993,70.2768,Q,Q
2023-03-14 16:30:40:825,0,-14.7944,-3.4943,70.2748,Q,Q
2023-03-14 16:30:40:835,0,-14.7862,-3.51526,70.2675,Q,Q
2023-03-14 16:30:40:845,0,-14.7999,-3.53695,70.2536,Q,Q
2023-03-14 16:30:40:855,0,-14.8182,-3.55313,70.2311,Q,Q
2023-03-14 16:30:40:865,0,-14.8245,-3.57136,70.2011,Q,Q
2023-03-14 16:30:40:875,0,-14.8204,-3.59086,70.1702,Q,Q
2023-03-14 16:30:40:885,0,-14.8071,-3.61714,70.1371,Q,Q
2023-03-14 16:30:40:895,0,-14.7816,-3.64901,70.1078,Q,Q
2023-03-14 16:30:40:905,0,-14.7543,-3.69074,70.0869,Q,Q
2023-03-14 16:30:40:915,0,-14.7275,-3.73321,70.0721,Q,Q
2023-03-14 16:30:40:925,0,-14.7094,-3.7792,70.0546,Q,Q
2023-03-14 16:30:40:935,0,-14.7069,-3.82468,70.0399,Q,Q
2023-03-14 16:30:40:945,0,-14.7164,-3.87001,70.0258,Q,Q
2023-03-14 16:30:40:955,0,-14.7343,-3.9066,70.0105,Q,Q
2023-03-14 16:30:40:965,0,-14.7487,-3.94348,69.9979,Q,Q
2023-03-14 16:30:40:975,0,-14.7517,-3.97717,69.9923,Q,Q
2023-03-14 16:30:40:985,0,-14.758,-4.00996,69.992,Q,Q
2023-03-14 16:30:40:995,0,-14.7642,-4.04411,69.9997,Q,Q
2023-03-14 16:30:41:5,0,-14.7629,-4.08123,70.0218,Q,Q
2023-03-14 16:30:41:15,0,-14.7599,-4.12203,70.0524,Q,Q
2023-03-14 16:30:41:25,0,-14.7626,-4.16454,70.1009,Q,Q
2023-03-14 16:30:41:35,0,-14.7723,-4.2063,70.1519,Q,Q
2023-03-14 16:30:41:45,0,-14.7859,-4.24082,70.2028,Q,Q
2023-03-14 16:30:41:55,0,-14.8085,-4.27,70.245,Q,Q
2023-03-14 16:30:41:65,0,-14.8305,-4.28547,70.2789,Q,Q
2023-03-14 16:30:41:75,0,-14.8552,-4.29461,70.2989,Q,Q
2023-03-14 16:30:41:85,0,-14.8858,-4.29134,70.3039,Q,Q
2023-03-14 16:30:41:95,0,-14.9164,-4.28146,70.2946,Q,Q
2023-03-14 16:30:41:106,0,-14.9387,-4.26704,70.2661,Q,Q
2023-03-14 16:30:41:116,0,-14.9458,-4.24718,70.2274,Q,Q
2023-03-14 16:30:41:126,0,-14.9411,-4.2264,70.1802,Q,Q
2023-03-14 16:30:41:136,0,-14.9293,-4.21043,70.1219,Q,Q
2023-03-14 16:30:41:145,0,-14.9109,-4.18905,70.0527,Q,Q
2023-03-14 16:30:41:156,0,-14.887,-4.16316,69.9708,Q,Q
2023-03-14 16:30:41:166,0,-14.8618,-4.13041,69.8787,Q,Q
2023-03-14 16:30:41:176,0,-14.8409,-4.08643,69.7807,Q,Q
2023-03-14 16:30:41:186,0,-14.8232,-4.03659,69.6833,Q,Q
2023-03-14 16:30:41:196,0,-14.8001,-3.98396,69.5856,Q,Q
2023-03-14 16:30:41:206,0,-14.7706,-3.93309,69.4964,Q,Q
2023-03-14 16:30:41:216,0,-14.7383,-3.88994,69.4194,Q,Q
2023-03-14 16:30:41:226,0,-14.7037,-3.85621,69.3545,Q,Q
2023-03-14 16:30:41:235,0,-14.6742,-3.82661,69.3025,Q,Q
2023-03-14 16:30:41:246,0,-14.6541,-3.80203,69.2602,Q,Q
2023-03-14 16:30:41:256,0,-14.6456,-3.78111,69.2175,Q,Q
2023-03-14 16:30:41:266,0,-14.6429,-3.76371,69.1781,Q,Q
2023-03-14 16:30:41:276,0,-14.6394,-3.75153,69.1398,Q,Q
2023-03-14 16:30:41:286,0,-14.6324,-3.74801,69.1074,Q,Q
2023-03-14 16:30:41:296,0,-14.6246,-3.75296,69.0809,Q,Q
2023-03-14 16:30:41:305,0,-14.6173,-3.77281,69.0707,Q,Q
2023-03-14 16:30:41:315,0,-14.6097,-3.79806,69.0658,Q,Q
2023-03-14 16:30:41:325,0,-14.6083,-3.8268,69.0612,Q,Q
2023-03-14 16:30:41:336,0,-14.6202,-3.86001,69.0598,Q,Q
2023-03-14 16:30:41:346,0,-14.6425,-3.89796,69.0522,Q,Q
2023-03-14 16:30:41:356,0,-14.6755,-3.93708,69.0474,Q,Q
2023-03-14 16:30:41:366,0,-14.7143,-3.97479,69.0355,Q,Q
2023-03-14 16:30:41:376,0,-14.7513,-4.01153,69.0175,Q,Q
2023-03-14 16:30:41:385,0,-14.7815,-4.04325,68.9961,Q,Q
2023-03-14 16:30:41:395,0,-14.8025,-4.07843,68.9812,Q,Q
2023-03-14 16:30:41:406,0,-14.8184,-4.10995,68.9654,Q,Q
2023-03-14 16:30:41:416,0,-14.8308,-4.14178,68.9542,Q,Q
2023-03-14 16:30:41:425,0,-14.8436,-4.17604,68.947,Q,Q
2023-03-14 16:30:41:435,0,-14.8616,-4.20536,68.9428,Q,Q
2023-03-14 16:30:41:445,0,-14.8855,-4.23328,68.9481,Q,Q
2023-03-14 16:30:41:455,0,-14.908,-4.25074,68.954,Q,Q
2023-03-14 16:30:41:465,0,-14.9306,-4.26681,68.9553,Q,Q
2023-03-14 16:30:41:476,0,-14.9494,-4.28041,68.9562,Q,Q
2023-03-14 16:30:41:486,0,-14.964,-4.29148,68.9558,Q,Q
2023-03-14 16:30:41:496,0,-14.9719,-4.29849,68.9538,Q,Q
2023-03-14 16:30:41:506,0,-14.9717,-4.30397,68.9495,Q,Q
2023-03-14 16:30:41:516,0,-14.9679,-4.30991,68.9473,Q,Q
2023-03-14 16:30:41:526,0,-14.9591,-4.31758,68.9443,Q,Q
2023-03-14 16:30:41:536,0,-14.9511,-4.33501,68.9426,Q,Q
2023-03-14 16:30:41:546,0,-14.9439,-4.35174,68.9429,Q,Q
2023-03-14 16:30:41:556,0,-14.9291,-4.37407,68.9513,Q,Q
2023-03-14 16:30:41:566,0,-14.9105,-4.39963,68.9637,Q,Q
2023-03-14 16:30:41:576,0,-14.8941,-4.43012,68.9757,Q,Q
2023-03-14 16:30:41:586,0,-14.8804,-4.45573,68.9886,Q,Q
2023-03-14 16:30:41:596,0,-14.8686,-4.48099,69.0023,Q,Q
2023-03-14 16:30:41:606,0,-14.8514,-4.51018,69.0178,Q,Q
2023-03-14 16:30:41:616,0,-14.8296,-4.53584,69.0304,Q,Q
2023-03-14 16:30:41:626,0,-14.8037,-4.56077,69.051,Q,Q
2023-03-14 16:30:41:636,0,-14.7765,-4.58372,69.0741,Q,Q
2023-03-14 16:30:41:645,0,-14.7505,-4.60158,69.0984,Q,Q
2023-03-14 16:30:41:656,0,-14.7234,-4.61962,69.1236,Q,Q
2023-03-14 16:30:41:666,0,-14.6969,-4.63615,69.1472,Q,Q
2023-03-14 16:30:41:676,0,-14.6733,-4.64875,69.1736,Q,Q
2023-03-14 16:30:41:686,0,-14.6474,-4.66114,69.197,Q,Q
2023-03-14 16:30:41:696,0,-14.6254,-4.67029,69.2184,Q,Q
2023-03-14 16:30:41:706,0,-14.6042,-4.67307,69.2379,Q,Q
2023-03-14 16:30:41:716,0,-14.5869,-4.67219,69.257,Q,Q
2023-03-14 16:30:41:726,0,-14.5705,-4.67418,69.2803,Q,Q
2023-03-14 16:30:41:736,0,-14.5494,-4.67698,69.3062,Q,Q
2023-03-14 16:30:41:746,0,-14.5285,-4.68379,69.3334,Q,Q
2023-03-14 16:30:41:756,0,-14.5122,-4.69026,69.3628,Q,Q
2023-03-14 16:30:41:766,0,-14.5034,-4.69934,69.3939,Q,Q
2023-03-14 16:30:41:776,0,-14.4957,-4.70921,69.4243,Q,Q
2023-03-14 16:30:41:786,0,-14.4971,-4.71831,69.4497,Q,Q
2023-03-14 16:30:41:796,0,-14.4992,-4.72936,69.4748,Q,Q
2023-03-14 16:30:41:806,0,-14.5029,-4.74064,69.4932,Q,Q
2023-03-14 16:30:41:816,0,-14.5094,-4.74801,69.5055,Q,Q
2023-03-14 16:30:41:826,0,-14.5158,-4.75485,69.5117,Q,Q
2023-03-14 16:30:41:836,0,-14.5127,-4.76662,69.5126,Q,Q
2023-03-14 16:30:41:846,0,-14.5142,-4.77968,69.5118,Q,Q
2023-03-14 16:30:41:856,0,-14.5122,-4.79568,69.5031,Q,Q
2023-03-14 16:30:41:866,0,-14.5026,-4.81586,69.4884,Q,Q
2023-03-14 16:30:41:876,0,-14.4924,-4.83912,69.4658,Q,Q
2023-03-14 16:30:41:886,0,-14.477,-4.86544,69.437,Q,Q
2023-03-14 16:30:41:896,0,-14.4543,-4.89809,69.4083,Q,Q
2023-03-14 16:30:41:906,0,-14.43,-4.93435,69.3744,Q,Q
2023-03-14 16:30:41:916,0,-14.4078,-4.96441,69.3415,Q,Q
2023-03-14 16:30:41:926,0,-14.3892,-4.9864,69.3069,Q,Q
2023-03-14 16:30:41:936,0,-14.3736,-5.00016,69.275,Q,Q
2023-03-14 16:30:41:946,0,-14.36,-5.00573,69.249,Q,Q
2023-03-14 16:30:41:956,0,-14.3505,-5.00213,69.2258,Q,Q
2023-03-14 16:30:41:966,0,-14.3495,-4.99759,69.2127,Q,Q
2023-03-14 16:30:41:976,0,-14.3503,-4.98918,69.2057,Q,Q
2023-03-14 16:30:41:986,0,-14.3522,-4.97304,69.2078,Q,Q
2023-03-14 16:30:41:996,0,-14.3594,-4.95539,69.2157,Q,Q
2023-03-14 16:30:42:6,0,-14.3695,-4.93694,69.2291,Q,Q
2023-03-14 16:30:42:16,0,-14.3761,-4.91738,69.242,Q,Q
2023-03-14 16:30:42:26,0,-14.379,-4.89645,69.2617,Q,Q
2023-03-14 16:30:42:36,0,-14.3804,-4.88034,69.2763,Q,Q
2023-03-14 16:30:42:46,0,-14.3775,-4.86174,69.2906,Q,Q
2023-03-14 16:30:42:56,0,-14.3755,-4.8456,69.2996,Q,Q
2023-03-14 16:30:42:66,0,-14.3681,-4.83601,69.3023,Q,Q
2023-03-14 16:30:42:76,0,-14.3545,-4.83205,69.2978,Q,Q
2023-03-14 16:30:42:86,0,-14.3415,-4.83104,69.2908,Q,Q
2023-03-14 16:30:42:96,0,-14.3322,-4.8293,69.282,Q,Q
2023-03-14 16:30:42:106,0,-14.3266,-4.83021,69.2716,Q,Q
2023-03-14 16:30:42:116,0,-14.327,-4.8289,69.2627,Q,Q
2023-03-14 16:30:42:126,0,-14.3278,-4.83052,69.2553,Q,Q
2023-03-14 16:30:42:136,0,-14.3297,-4.82526,69.2539,Q,Q
2023-03-14 16:30:42:146,0,-14.3315,-4.81538,69.2551,Q,Q
2023-03-14 16:30:42:156,0,-14.3344,-4.80452,69.2577,Q,Q
2023-03-14 16:30:42:166,0,-14.3365,-4.7988,69.2624,Q,Q
2023-03-14 16:30:42:176,0,-14.3379,-4.79153,69.268,Q,Q
2023-03-14 16:30:42:186,0,-14.3406,-4.78263,69.2759,Q,Q
2023-03-14 16:30:42:196,0,-14.3402,-4.77601,69.2831,Q,Q
2023-03-14 16:30:42:206,0,-14.3419,-4.77009,69.2906,Q,Q
2023-03-14 16:30:42:216,0,-14.3394,-4.76358,69.2953,Q,Q
2023-03-14 16:30:42:226,0,-14.3399,-4.75818,69.2958,Q,Q
2023-03-14 16:30:42:235,0,-14.3371,-4.74947,69.2923,Q,Q
2023-03-14 16:30:42:246,0,-14.3348,-4.74021,69.2833,Q,Q
2023-03-14 16:30:42:256,0,-14.3333,-4.72518,69.2728,Q,Q
2023-03-14 16:30:42:266,0,-14.3346,-4.70601,69.2569,Q,Q
2023-03-14 16:30:42:275,0,-14.3327,-4.68987,69.2346,Q,Q
2023-03-14 16:30:42:286,0,-14.3257,-4.67187,69.2097,Q,Q
2023-03-14 16:30:42:296,0,-14.3149,-4.64929,69.1836,Q,Q
2023-03-14 16:30:42:306,0,-14.3068,-4.6246,69.1595,Q,Q
2023-03-14 16:30:42:316,0,-14.2981,-4.59995,69.1385,Q,Q
2023-03-14 16:30:42:326,0,-14.2887,-4.58023,69.1198,Q,Q
2023-03-14 16:30:42:335,0,-14.2784,-4.56101,69.1067,Q,Q
2023-03-14 16:30:42:345,0,-14.2689,-4.54251,69.0989,Q,Q
2023-03-14 16:30:42:355,0,-14.2604,-4.52426,69.0945,Q,Q
2023-03-14 16:30:42:366,0,-14.2519,-4.50538,69.0906,Q,Q
2023-03-14 16:30:42:376,0,-14.2459,-4.48286,69.086,Q,Q
2023-03-14 16:30:42:386,0,-14.236,-4.46064,69.0838,Q,Q
2023-03-14 16:30:42:396,0,-14.2297,-4.43817,69.0804,Q,Q
2023-03-14 16:30:42:406,0,-14.2224,-4.42272,69.0757,Q,Q
2023-03-14 16:30:42:416,0,-14.2152,-4.40919,69.0691,Q,Q
2023-03-14 16:30:42:426,0,-14.2044,-4.39765,69.0617,Q,Q
2023-03-14 16:30:42:435,0,-14.1923,-4.38933,69.0535,Q,Q
2023-03-14 16:30:42:446,0,-14.1825,-4.38437,69.0448,Q,Q
2023-03-14 16:30:42:456,0,-14.1748,-4.38194,69.0354,Q,Q
2023-03-14 16:30:42:466,0,-14.1705,-4.376,69.0305,Q,Q
2023-03-14 16:30:42:476,0,-14.1672,-4.37333,69.0281,Q,Q
2023-03-14 16:30:42:486,0,-14.1677,-4.37414,69.0289,Q,Q
2023-03-14 16:30:42:496,0,-14.1737,-4.37371,69.0323,Q,Q
2023-03-14 16:30:42:506,0,-14.182,-4.37543,69.0391,Q,Q
2023-03-14 16:30:42:516,0,-14.1875,-4.37874,69.0489,Q,Q
2023-03-14 16:30:42:526,0,-14.1913,-4.38306,69.0642,Q,Q
2023-03-14 16:30:42:536,0,-14.2005,-4.38615,69.0808,Q,Q
2023-03-14 16:30:42:546,0,-14.2086,-4.38569,69.0946,Q,Q
2023-03-14 16:30:42:556,0,-14.2168,-4.38746,69.1099,Q,Q
2023-03-14 16:30:42:566,0,-14.2252,-4.38717,69.1271,Q,Q
2023-03-14 16:30:42:576,0,-14.2356,-4.38624,69.145,Q,Q
2023-03-14 16:30:42:586,0,-14.2442,-4.38748,69.1623,Q,Q
2023-03-14 16:30:42:596,0,-14.2518,-4.38563,69.1766,Q,Q
2023-03-14 16:30:42:606,0,-14.2613,-4.38199,69.1919,Q,Q
2023-03-14 16:30:42:616,0,-14.2659,-4.37565,69.2042,Q,Q
2023-03-14 16:30:42:625,0,-14.271,-4.36922,69.2148,Q,Q
2023-03-14 16:30:42:636,0,-14.2733,-4.36116,69.2217,Q,Q
2023-03-14 16:30:42:646,0,-14.2728,-4.35481,69.2245,Q,Q
2023-03-14 16:30:42:656,0,-14.2753,-4.34657,69.225,Q,Q
2023-03-14 16:30:42:666,0,-14.2772,-4.34208,69.2242,Q,Q
2023-03-14 16:30:42:676,0,-14.2819,-4.33956,69.2206,Q,Q
2023-03-14 16:30:42:686,0,-14.2848,-4.33545,69.2226,Q,Q
2023-03-14 16:30:42:696,0,-14.2848,-4.33449,69.2222,Q,Q
2023-03-14 16:30:42:706,0,-14.2891,-4.33317,69.2238,Q,Q
2023-03-14 16:30:42:715,0,-14.2939,-4.33097,69.2253,Q,Q
2023-03-14 16:30:42:726,0,-14.2946,-4.3291,69.2277,Q,Q
2023-03-14 16:30:42:736,0,-14.2967,-4.32733,69.2326,Q,Q
2023-03-14 16:30:42:745,0,-14.3007,-4.3241,69.2352,Q,Q
2023-03-14 16:30:42:756,0,-14.3073,-4.32429,69.2393,Q,Q
2023-03-14 16:30:42:766,0,-14.3068,-4.3303,69.2425,Q,Q
2023-03-14 16:30:42:776,0,-14.3056,-4.33785,69.2471,Q,Q
2023-03-14 16:30:42:786,0,-14.3032,-4.34348,69.2473,Q,Q
2023-03-14 16:30:42:796,0,-14.2977,-4.35186,69.2453,Q,Q
2023-03-14 16:30:42:806,0,-14.2846,-4.36044,69.2419,Q,Q
2023-03-14 16:30:42:816,0,-14.2764,-4.36515,69.2394,Q,Q
2023-03-14 16:30:42:825,0,-14.266,-4.37075,69.2361,Q,Q
2023-03-14 16:30:42:836,0,-14.2536,-4.37762,69.231,Q,Q
2023-03-14 16:30:42:845,0,-14.2383,-4.385,69.2227,Q,Q
2023-03-14 16:30:42:855,0,-14.2239,-4.39124,69.2203,Q,Q
2023-03-14 16:30:42:866,0,-14.2138,-4.39917,69.2165,Q,Q
2023-03-14 16:30:42:875,0,-14.2065,-4.40554,69.2096,Q,Q
2023-03-14 16:30:42:886,0,-14.2007,-4.40686,69.2076,Q,Q
2023-03-14 16:30:42:896,0,-14.1938,-4.40819,69.2017,Q,Q
2023-03-14 16:30:42:906,0,-14.1867,-4.40727,69.1959,Q,Q
2023-03-14 16:30:42:916,0,-14.1797,-4.40462,69.19,Q,Q
2023-03-14 16:30:42:926,0,-14.1726,-4.40657,69.1859,Q,Q
2023-03-14 16:30:42:936,0,-14.163,-4.40709,69.1795,Q,Q
2023-03-14 16:30:42:946,0,-14.1575,-4.40832,69.1729,Q,Q
2023-03-14 16:30:42:956,0,-14.1513,-4.40872,69.1669,Q,Q
2023-03-14 16:30:42:966,0,-14.1487,-4.40584,69.1601,Q,Q
2023-03-14 16:30:42:976,0,-14.1399,-4.40543,69.1542,Q,Q
2023-03-14 16:30:42:986,0,-14.1335,-4.40405,69.15,Q,Q
2023-03-14 16:30:42:996,0,-14.1307,-4.40022,69.1479,Q,Q
2023-03-14 16:30:43:5,0,-14.1318,-4.39571,69.1493,Q,Q
2023-03-14 16:30:43:16,0,-14.1336,-4.39169,69.1483,Q,Q
2023-03-14 16:30:43:26,0,-14.1399,-4.38746,69.1474,Q,Q
2023-03-14 16:30:43:36,0,-14.1435,-4.38648,69.1471,Q,Q
2023-03-14 16:30:43:46,0,-14.1505,-4.38339,69.1482,Q,Q
2023-03-14 16:30:43:56,0,-14.1527,-4.37671,69.147,Q,Q
2023-03-14 16:30:43:66,0,-14.1585,-4.36956,69.1424,Q,Q
2023-03-14 16:30:43:76,0,-14.164,-4.35567,69.1338,Q,Q
2023-03-14 16:30:43:86,0,-14.1644,-4.34522,69.1194,Q,Q
2023-03-14 16:30:43:96,0,-14.17,-4.33939,69.1031,Q,Q
2023-03-14 16:30:43:106,0,-14.1796,-4.33235,69.086,Q,Q
2023-03-14 16:30:43:116,0,-14.1947,-4.33382,69.0714,Q,Q
2023-03-14 16:30:43:126,0,-14.2113,-4.33523,69.0589,Q,Q
2023-03-14 16:30:43:136,0,-14.2312,-4.34103,69.0512,Q,Q
2023-03-14 16:30:43:146,0,-14.2507,-4.347,69.0413,Q,Q
2023-03-14 16:30:43:156,0,-14.2674,-4.3533,69.036,Q,Q
2023-03-14 16:30:43:166,0,-14.2834,-4.35869,69.0306,Q,Q
2023-03-14 16:30:43:176,0,-14.295,-4.36311,69.0272,Q,Q
2023-03-14 16:30:43:186,0,-14.3035,-4.36944,69.0251,Q,Q
2023-03-14 16:30:43:196,0,-14.3066,-4.37577,69.0263,Q,Q
2023-03-14 16:30:43:206,0,-14.3076,-4.3806,69.0276,Q,Q
2023-03-14 16:30:43:216,0,-14.3094,-4.38934,69.0261,Q,Q
2023-03-14 16:30:43:225,0,-14.3088,-4.39467,69.0258,Q,Q
2023-03-14 16:30:43:236,0,-14.3063,-4.39943,69.0252,Q,Q
2023-03-14 16:30:43:245,0,-14.302,-4.40388,69.0275,Q,Q
2023-03-14 16:30:43:256,0,-14.2975,-4.40745,69.0254,Q,Q
2023-03-14 16:30:43:266,0,-14.2916,-4.4091,69.0283,Q,Q
2023-03-14 16:30:43:276,0,-14.2876,-4.40925,69.0271,Q,Q
2023-03-14 16:30:43:286,0,-14.2768,-4.40727,69.0245,Q,Q
2023-03-14 16:30:43:295,0,-14.2682,-4.40754,69.0202,Q,Q
2023-03-14 16:30:43:306,0,-14.2574,-4.40455,69.0157,Q,Q
2023-03-14 16:30:43:316,0,-14.2487,-4.40305,69.0113,Q,Q
2023-03-14 16:30:43:326,0,-14.2392,-4.39944,69.0103,Q,Q
2023-03-14 16:30:43:336,0,-14.2291,-4.40275,69.0079,Q,Q
2023-03-14 16:30:43:346,0,-14.2168,-4.40705,69.0058,Q,Q
2023-03-14 16:30:43:355,0,-14.2051,-4.41197,69.0068,Q,Q
2023-03-14 16:30:43:366,0,-14.1968,-4.42287,69.0099,Q,Q
2023-03-14 16:30:43:376,0,-14.1894,-4.43595,69.0171,Q,Q
2023-03-14 16:30:43:386,0,-14.184,-4.45002,69.0263,Q,Q
2023-03-14 16:30:43:396,0,-14.1823,-4.46696,69.0399,Q,Q
2023-03-14 16:30:43:406,0,-14.1798,-4.48823,69.0543,Q,Q
2023-03-14 16:30:43:416,0,-14.1811,-4.5063,69.0711,Q,Q
2023-03-14 16:30:43:426,0,-14.1809,-4.52335,69.0875,Q,Q
2023-03-14 16:30:43:436,0,-14.1862,-4.53726,69.1013,Q,Q
2023-03-14 16:30:43:445,0,-14.1964,-4.54533,69.1178,Q,Q
2023-03-14 16:30:43:456,0,-14.2129,-4.55502,69.1312,Q,Q
2023-03-14 16:30:43:466,0,-14.2315,-4.56013,69.142,Q,Q
2023-03-14 16:30:43:476,0,-14.2486,-4.564,69.1495,Q,Q
2023-03-14 16:30:43:485,0,-14.2647,-4.56682,69.1585,Q,Q
2023-03-14 16:30:43:496,0,-14.2818,-4.56794,69.1657,Q,Q
2023-03-14 16:30:43:506,0,-14.2968,-4.56727,69.1724,Q,Q
2023-03-14 16:30:43:516,0,-14.3068,-4.56411,69.1737,Q,Q
2023-03-14 16:30:43:526,0,-14.3181,-4.56179,69.1701,Q,Q
2023-03-14 16:30:43:536,0,-14.322,-4.55538,69.1632,Q,Q
2023-03-14 16:30:43:546,0,-14.3273,-4.54682,69.1552,Q,Q
2023-03-14 16:30:43:556,0,-14.3283,-4.53944,69.1462,Q,Q
2023-03-14 16:30:43:565,0,-14.3254,-4.53267,69.1368,Q,Q
2023-03-14 16:30:43:576,0,-14.3216,-4.52456,69.1294,Q,Q
2023-03-14 16:30:43:586,0,-14.3188,-4.52055,69.1215,Q,Q
2023-03-14 16:30:43:596,0,-14.3163,-4.5119,69.1162,Q,Q
2023-03-14 16:30:43:606,0,-14.3132,-4.50731,69.1134,Q,Q
2023-03-14 16:30:43:616,0,-14.3049,-4.50573,69.1077,Q,Q
2023-03-14 16:30:43:626,0,-14.3005,-4.49898,69.1097,Q,Q
2023-03-14 16:30:43:636,0,-14.3012,-4.49765,69.1111,Q,Q
2023-03-14 16:30:43:646,0,-14.3042,-4.49618,69.1086,Q,Q
2023-03-14 16:30:43:656,0,-14.3059,-4.49352,69.1078,Q,Q
2023-03-14 16:30:43:666,0,-14.3094,-4.4886,69.1067,Q,Q
2023-03-14 16:30:43:676,0,-14.3143,-4.48289,69.1018,Q,Q
2023-03-14 16:30:43:686,0,-14.3168,-4.47807,69.0971,Q,Q
2023-03-14 16:30:43:696,0,-14.3146,-4.47032,69.0913,Q,Q
2023-03-14 16:30:43:706,0,-14.3137,-4.46124,69.0888,Q,Q
2023-03-14 16:30:43:716,0,-14.3092,-4.45315,69.0807,Q,Q
2023-03-14 16:30:43:726,0,-14.3076,-4.4488,69.0703,Q,Q
2023-03-14 16:30:43:736,0,-14.302,-4.44192,69.0588,Q,Q
2023-03-14 16:30:43:746,0,-14.2932,-4.43641,69.0509,Q,Q
2023-03-14 16:30:43:756,0,-14.2874,-4.43015,69.0438,Q,Q
2023-03-14 16:30:43:766,0,-14.2811,-4.42374,69.0384,Q,Q
2023-03-14 16:30:43:776,0,-14.279,-4.41985,69.0345,Q,Q
2023-03-14 16:30:43:786,0,-14.2771,-4.4143,69.0278,Q,Q
2023-03-14 16:30:43:796,0,-14.2748,-4.41134,69.0219,Q,Q
2023-03-14 16:30:43:806,0,-14.2721,-4.40824,69.0201,Q,Q
2023-03-14 16:30:43:816,0,-14.2688,-4.40462,69.0204,Q,Q
2023-03-14 16:30:43:826,0,-14.2691,-4.39981,69.0214,Q,Q
2023-03-14 16:30:43:836,0,-14.2683,-4.39326,69.0196,Q,Q
2023-03-14 16:30:43:845,0,-14.2668,-4.38667,69.0139,Q,Q
2023-03-14 16:30:43:856,0,-14.2632,-4.38536,69.0081,Q,Q
2023-03-14 16:30:43:866,0,-14.2598,-4.38605,69.0057,Q,Q
2023-03-14 16:30:43:875,0,-14.2581,-4.38654,69.0048,Q,Q
2023-03-14 16:30:43:885,0,-14.2574,-4.38633,69.0042,Q,Q
2023-03-14 16:30:43:896,0,-14.2544,-4.38218,69.0011,Q,Q
2023-03-14 16:30:43:906,0,-14.2511,-4.37628,68.9971,Q,Q
2023-03-14 16:30:43:916,0,-14.2502,-4.37252,68.9967,Q,Q
2023-03-14 16:30:43:926,0,-14.2453,-4.37092,68.9949,Q,Q
2023-03-14 16:30:43:936,0,-14.2381,-4.36714,68.9957,Q,Q
2023-03-14 16:30:43:946,0,-14.2309,-4.36244,69.0009,Q,Q
2023-03-14 16:30:43:956,0,-14.2274,-4.35808,69.0038,Q,Q
2023-03-14 16:30:43:966,0,-14.2224,-4.35126,69.0061,Q,Q
2023-03-14 16:30:43:976,0,-14.2192,-4.34621,69.0109,Q,Q
2023-03-14 16:30:43:986,0,-14.2167,-4.34007,69.0135,Q,Q
2023-03-14 16:30:43:996,0,-14.2164,-4.33644,69.0153,Q,Q
2023-03-14 16:30:44:5,0,-14.2147,-4.33306,69.018,Q,Q
2023-03-14 16:30:44:15,0,-14.2187,-4.33251,69.0183,Q,Q
2023-03-14 16:30:44:26,0,-14.2197,-4.33476,69.019,Q,Q
2023-03-14 16:30:44:35,0,-14.2217,-4.33398,69.0181,Q,Q
2023-03-14 16:30:44:45,0,-14.2253,-4.33477,69.02,Q,Q
2023-03-14 16:30:44:56,0,-14.2255,-4.33712,69.0229,Q,Q
2023-03-14 16:30:44:66,0,-14.2243,-4.33961,69.0263,Q,Q
2023-03-14 16:30:44:76,0,-14.2223,-4.33892,69.0276,Q,Q
2023-03-14 16:30:44:86,0,-14.2225,-4.33764,69.0271,Q,Q
2023-03-14 16:30:44:96,0,-14.2238,-4.33551,69.0305,Q,Q
2023-03-14 16:30:44:106,0,-14.2215,-4.33285,69.0315,Q,Q
2023-03-14 16:30:44:116,0,-14.219,-4.33049,69.0311,Q,Q
2023-03-14 16:30:44:126,0,-14.2107,-4.32806,69.0303,Q,Q
2023-03-14 16:30:44:136,0,-14.2022,-4.32497,69.028,Q,Q
2023-03-14 16:30:44:146,0,-14.191,-4.32385,69.0229,Q,Q
2023-03-14 16:30:44:156,0,-14.1797,-4.32463,69.0193,Q,Q
2023-03-14 16:30:44:166,0,-14.1645,-4.32497,69.0149,Q,Q
2023-03-14 16:30:44:176,0,-14.1519,-4.32808,69.0096,Q,Q
2023-03-14 16:30:44:186,0,-14.1464,-4.32786,69.0056,Q,Q
2023-03-14 16:30:44:196,0,-14.1428,-4.33201,69.0042,Q,Q
2023-03-14 16:30:44:206,0,-14.1443,-4.3397,69.0018,Q,Q
2023-03-14 16:30:44:216,0,-14.1437,-4.34348,69.0051,Q,Q
2023-03-14 16:30:44:226,0,-14.1426,-4.3478,69.0134,Q,Q
2023-03-14 16:30:44:236,0,-14.1435,-4.35095,69.0179,Q,Q
2023-03-14 16:30:44:246,0,-14.1438,-4.35418,69.0241,Q,Q
2023-03-14 16:30:44:256,0,-14.1445,-4.35732,69.0333,Q,Q
2023-03-14 16:30:44:266,0,-14.1442,-4.36317,69.0466,Q,Q
2023-03-14 16:30:44:276,0,-14.1424,-4.37039,69.0582,Q,Q
2023-03-14 16:30:44:286,0,-14.1408,-4.37473,69.0687,Q,Q
2023-03-14 16:30:44:296,0,-14.1389,-4.38304,69.0775,Q,Q
2023-03-14 16:30:44:306,0,-14.1347,-4.38992,69.087,Q,Q
2023-03-14 16:30:44:316,0,-14.1304,-4.39495,69.093,Q,Q
2023-03-14 16:30:44:326,0,-14.122,-4.40032,69.0962,Q,Q
2023-03-14 16:30:44:336,0,-14.1127,-4.40184,69.1,Q,Q
2023-03-14 16:30:44:346,0,-14.1043,-4.40581,69.1051,Q,Q
2023-03-14 16:30:44:356,0,-14.0987,-4.40633,69.1086,Q,Q
2023-03-14 16:30:44:366,0,-14.085,-4.40949,69.1113,Q,Q
2023-03-14 16:30:44:376,0,-14.0715,-4.41249,69.1153,Q,Q
2023-03-14 16:30:44:385,0,-14.0603,-4.41985,69.1189,Q,Q
2023-03-14 16:30:44:395,0,-14.0512,-4.42653,69.1251,Q,Q
2023-03-14 16:30:44:406,0,-14.0457,-4.4353,69.1312,Q,Q
2023-03-14 16:30:44:416,0,-14.0463,-4.4428,69.1342,Q,Q
2023-03-14 16:30:44:426,0,-14.0475,-4.45445,69.1349,Q,Q
2023-03-14 16:30:44:436,0,-14.0492,-4.46562,69.137,Q,Q
2023-03-14 16:30:44:446,0,-14.0503,-4.47478,69.1397,Q,Q
2023-03-14 16:30:44:456,0,-14.0565,-4.4822,69.1389,Q,Q
2023-03-14 16:30:44:466,0,-14.0614,-4.4849,69.1404,Q,Q
2023-03-14 16:30:44:476,0,-14.0696,-4.48939,69.1385,Q,Q
2023-03-14 16:30:44:486,0,-14.0804,-4.49677,69.1377,Q,Q
2023-03-14 16:30:44:496,0,-14.0933,-4.50028,69.1329,Q,Q
2023-03-14 16:30:44:506,0,-14.1046,-4.49849,69.1308,Q,Q
2023-03-14 16:30:44:516,0,-14.1216,-4.49866,69.1306,Q,Q
2023-03-14 16:30:44:526,0,-14.137,-4.49638,69.131,Q,Q
2023-03-14 16:30:44:536,0,-14.1542,-4.49282,69.1274,Q,Q
2023-03-14 16:30:44:546,0,-14.169,-4.48908,69.1198,Q,Q
2023-03-14 16:30:44:556,0,-14.1777,-4.48747,69.1137,Q,Q
2023-03-14 16:30:44:566,0,-14.1874,-4.48579,69.1101,Q,Q
2023-03-14 16:30:44:576,0,-14.1965,-4.48208,69.1022,Q,Q
2023-03-14 16:30:44:586,0,-14.2064,-4.47886,69.0943,Q,Q
2023-03-14 16:30:44:596,0,-14.2138,-4.47191,69.0843,Q,Q
2023-03-14 16:30:44:606,0,-14.2187,-4.46645,69.0694,Q,Q
2023-03-14 16:30:44:616,0,-14.2177,-4.45815,69.0569,Q,Q
2023-03-14 16:30:44:626,0,-14.2201,-4.45598,69.0491,Q,Q
2023-03-14 16:30:44:635,0,-14.223,-4.45411,69.0387,Q,Q
2023-03-14 16:30:44:646,0,-14.2205,-4.45202,69.0322,Q,Q
2023-03-14 16:30:44:656,0,-14.2158,-4.44615,69.0243,Q,Q
2023-03-14 16:30:44:666,0,-14.2108,-4.43799,69.0166,Q,Q
2023-03-14 16:30:44:676,0,-14.2051,-4.43288,69.0132,Q,Q
2023-03-14 16:30:44:686,0,-14.2024,-4.42477,69.0061,Q,Q
2023-03-14 16:30:44:696,0,-14.1994,-4.41735,69.0034,Q,Q
2023-03-14 16:30:44:706,0,-14.1943,-4.40868,69.0013,Q,Q
2023-03-14 16:30:44:716,0,-14.1957,-4.39873,69.0,Q,Q
2023-03-14 16:30:44:726,0,-14.1989,-4.39405,68.9995,Q,Q
2023-03-14 16:30:44:736,0,-14.1981,-4.38987,68.9961,Q,Q
2023-03-14 16:30:44:746,0,-14.202,-4.38701,68.9908,Q,Q
2023-03-14 16:30:44:756,0,-14.2079,-4.38628,68.9877,Q,Q
2023-03-14 16:30:44:766,0,-14.2148,-4.38201,68.9837,Q,Q
2023-03-14 16:30:44:776,0,-14.217,-4.38324,68.9814,Q,Q
2023-03-14 16:30:44:786,0,-14.2152,-4.38694,68.9829,Q,Q
2023-03-14 16:30:44:796,0,-14.2112,-4.3931,68.9848,Q,Q
2023-03-14 16:30:44:806,0,-14.2078,-4.39891,68.9858,Q,Q
2023-03-14 16:30:44:816,0,-14.2066,-4.405,68.9889,Q,Q
2023-03-14 16:30:44:826,0,-14.2043,-4.4092,68.9963,Q,Q
2023-03-14 16:30:44:836,0,-14.1996,-4.41297,69.007,Q,Q
2023-03-14 16:30:44:846,0,-14.1986,-4.41944,69.0158,Q,Q
2023-03-14 16:30:44:856,0,-14.1985,-4.42267,69.0279,Q,Q
2023-03-14 16:30:44:866,0,-14.1971,-4.42611,69.0388,Q,Q
2023-03-14 16:30:44:876,0,-14.1937,-4.43045,69.0479,Q,Q
2023-03-14 16:30:44:886,0,-14.1919,-4.4327,69.0576,Q,Q
2023-03-14 16:30:44:895,0,-14.1878,-4.43422,69.0639,Q,Q
2023-03-14 16:30:44:905,0,-14.182,-4.43722,69.0673,Q,Q
2023-03-14 16:30:44:915,0,-14.1773,-4.43984,69.0704,Q,Q
2023-03-14 16:30:44:926,0,-14.1725,-4.43793,69.0703,Q,Q
2023-03-14 16:30:44:936,0,-14.1644,-4.4388,69.0678,Q,Q
2023-03-14 16:30:44:946,0,-14.1591,-4.4409,69.0623,Q,Q
2023-03-14 16:30:44:956,0,-14.1532,-4.44248,69.0553,Q,Q
2023-03-14 16:30:44:966,0,-14.1457,-4.44103,69.0495,Q,Q
2023-03-14 16:30:44:976,0,-14.1398,-4.44008,69.0417,Q,Q
2023-03-14 16:30:44:986,0,-14.1393,-4.43555,69.0328,Q,Q
2023-03-14 16:30:44:996,0,-14.1399,-4.43242,69.0251,Q,Q
2023-03-14 16:30:45:6,0,-14.1375,-4.42637,69.0189,Q,Q
2023-03-14 16:30:45:16,0,-14.1338,-4.42424,69.0096,Q,Q
2023-03-14 16:30:45:26,0,-14.1323,-4.41881,69.0048,Q,Q
2023-03-14 16:30:45:36,0,-14.1316,-4.41194,69.0027,Q,Q
2023-03-14 16:30:45:46,0,-14.1238,-4.40689,68.9988,Q,Q
2023-03-14 16:30:45:56,0,-14.1202,-4.39916,68.9951,Q,Q
2023-03-14 16:30:45:66,0,-14.1129,-4.39268,68.9935,Q,Q
2023-03-14 16:30:45:76,0,-14.1065,-4.38473,68.9883,Q,Q
2023-03-14 16:30:45:86,0,-14.0965,-4.37591,68.9853,Q,Q
2023-03-14 16:30:45:96,0,-14.0876,-4.37003,68.9795,Q,Q
2023-03-14 16:30:45:106,0,-14.08,-4.36317,68.9742,Q,Q
2023-03-14 16:30:45:116,0,-14.0713,-4.35764,68.9683,Q,Q
2023-03-14 16:30:45:126,0,-14.0636,-4.35138,68.9629,Q,Q
2023-03-14 16:30:45:136,0,-14.0548,-4.34914,68.9598,Q,Q
2023-03-14 16:30:45:146,0,-14.0465,-4.35208,68.9564,Q,Q
2023-03-14 16:30:45:156,0,-14.0414,-4.35273,68.9564,Q,Q
2023-03-14 16:30:45:166,0,-14.0364,-4.35451,68.9603,Q,Q
2023-03-14 16:30:45:176,0,-14.0361,-4.35638,68.9634,Q,Q
2023-03-14 16:30:45:186,0,-14.0321,-4.35872,68.9638,Q,Q
2023-03-14 16:30:45:196,0,-14.0269,-4.35873,68.9692,Q,Q
2023-03-14 16:30:45:206,0,-14.0253,-4.36374,68.9726,Q,Q
2023-03-14 16:30:45:216,0,-14.0266,-4.36649,68.9789,Q,Q
2023-03-14 16:30:45:226,0,-14.0291,-4.36887,68.9788,Q,Q
2023-03-14 16:30:45:236,0,-14.0315,-4.37204,68.98,Q,Q
2023-03-14 16:30:45:245,0,-14.0348,-4.37674,68.9814,Q,Q
2023-03-14 16:30:45:256,0,-14.0428,-4.37934,68.9808,Q,Q
2023-03-14 16:30:45:265,0,-14.0469,-4.37962,68.9816,Q,Q
2023-03-14 16:30:45:275,0,-14.0509,-4.38398,68.985,Q,Q
2023-03-14 16:30:45:286,0,-14.0529,-4.38449,68.9879,Q,Q
2023-03-14 16:30:45:296,0,-14.0547,-4.38848,68.9902,Q,Q
2023-03-14 16:30:45:306,0,-14.0584,-4.39369,68.9899,Q,Q
2023-03-14 16:30:45:316,0,-14.0643,-4.39343,68.9882,Q,Q
2023-03-14 16:30:45:326,0,-14.0682,-4.39189,68.9849,Q,Q
2023-03-14 16:30:45:336,0,-14.0653,-4.38986,68.9816,Q,Q
2023-03-14 16:30:45:346,0,-14.0668,-4.38743,68.9755,Q,Q
2023-03-14 16:30:45:356,0,-14.0707,-4.38219,68.9685,Q,Q
2023-03-14 16:30:45:366,0,-14.0753,-4.37735,68.9583,Q,Q
2023-03-14 16:30:45:376,0,-14.0767,-4.37473,68.95,Q,Q
2023-03-14 16:30:45:386,0,-14.0725,-4.37799,68.9404,Q,Q
2023-03-14 16:30:45:396,0,-14.0683,-4.38215,68.937,Q,Q
2023-03-14 16:30:45:405,0,-14.0688,-4.38676,68.9344,Q,Q
2023-03-14 16:30:45:416,0,-14.0647,-4.39247,68.9309,Q,Q
2023-03-14 16:30:45:426,0,-14.0622,-4.39175,68.9294,Q,Q
2023-03-14 16:30:45:436,0,-14.0605,-4.39042,68.926,Q,Q
2023-03-14 16:30:45:446,0,-14.061,-4.39209,68.9269,Q,Q
2023-03-14 16:30:45:456,0,-14.0644,-4.39393,68.9307,Q,Q
2023-03-14 16:30:45:466,0,-14.0701,-4.39541,68.9374,Q,Q
2023-03-14 16:30:45:476,0,-14.0747,-4.39843,68.9433,Q,Q
2023-03-14 16:30:45:486,0,-14.0808,-4.39949,68.9496,Q,Q
2023-03-14 16:30:45:496,0,-14.0859,-4.40319,68.9586,Q,Q
2023-03-14 16:30:45:506,0,-14.0932,-4.41199,68.9657,Q,Q
2023-03-14 16:30:45:516,0,-14.1021,-4.41929,68.9709,Q,Q
2023-03-14 16:30:45:526,0,-14.1101,-4.422,68.9768,Q,Q
2023-03-14 16:30:45:536,0,-14.1158,-4.42927,68.9851,Q,Q
2023-03-14 16:30:45:546,0,-14.1236,-4.43881,68.9941,Q,Q
2023-03-14 16:30:45:556,0,-14.1252,-4.44756,68.9989,Q,Q
2023-03-14 16:30:45:566,0,-14.129,-4.45621,69.0066,Q,Q
2023-03-14 16:30:45:576,0,-14.1332,-4.46516,69.0146,Q,Q
2023-03-14 16:30:45:586,0,-14.1358,-4.47294,69.0249,Q,Q
2023-03-14 16:30:45:596,0,-14.1349,-4.47883,69.034,Q,Q
2023-03-14 16:30:45:606,0,-14.1345,-4.48663,69.0385,Q,Q
2023-03-14 16:30:45:616,0,-14.1329,-4.4937,69.0468,Q,Q
2023-03-14 16:30:45:626,0,-14.1274,-4.4978,69.0531,Q,Q
2023-03-14 16:30:45:636,0,-14.1206,-4.49961,69.057,Q,Q
2023-03-14 16:30:45:646,0,-14.1147,-4.5052,69.059,Q,Q
2023-03-14 16:30:45:656,0,-14.105,-4.51081,69.0617,Q,Q
2023-03-14 16:30:45:666,0,-14.0957,-4.51525,69.0597,Q,Q
2023-03-14 16:30:45:676,0,-14.0892,-4.52118,69.0592,Q,Q
2023-03-14 16:30:45:686,0,-14.0841,-4.52546,69.0571,Q,Q
2023-03-14 16:30:45:696,0,-14.0781,-4.52694,69.0538,Q,Q
2023-03-14 16:30:45:706,0,-14.0752,-4.5277,69.0518,Q,Q
2023-03-14 16:30:45:716,0,-14.0765,-4.53098,69.0502,Q,Q
2023-03-14 16:30:45:726,0,-14.0767,-4.53362,69.0517,Q,Q
2023-03-14 16:30:45:736,0,-14.0757,-4.53551,69.0531,Q,Q
2023-03-14 16:30:45:746,0,-14.0731,-4.53976,69.0543,Q,Q
2023-03-14 16:30:45:756,0,-14.0763,-4.54273,69.0592,Q,Q
2023-03-14 16:30:45:766,0,-14.0753,-4.54534,69.0639,Q,Q
2023-03-14 16:30:45:776,0,-14.0761,-4.54555,69.0712,Q,Q
2023-03-14 16:30:45:786,0,-14.0697,-4.55068,69.0767,Q,Q
2023-03-14 16:30:45:796,0,-14.0648,-4.55324,69.0816,Q,Q
2023-03-14 16:30:45:806,0,-14.0628,-4.55408,69.0884,Q,Q
2023-03-14 16:30:45:816,0,-14.0586,-4.55564,69.0902,Q,Q
2023-03-14 16:30:45:826,0,-14.0497,-4.55557,69.0956,Q,Q
2023-03-14 16:30:45:836,0,-14.0418,-4.55219,69.0999,Q,Q
2023-03-14 16:30:45:846,0,-14.0362,-4.5509,69.1022,Q,Q
2023-03-14 16:30:45:856,0,-14.0287,-4.54905,69.0981,Q,Q
2023-03-14 16:30:45:866,0,-14.0248,-4.54382,69.0923,Q,Q
2023-03-14 16:30:45:876,0,-14.0181,-4.54104,69.087,Q,Q
2023-03-14 16:30:45:886,0,-14.0094,-4.53748,69.0824,Q,Q
2023-03-14 16:30:45:896,0,-14.0014,-4.53102,69.0749,Q,Q
2023-03-14 16:30:45:906,0,-13.9912,-4.53161,69.0679,Q,Q
2023-03-14 16:30:45:916,0,-13.9819,-4.53348,69.0627,Q,Q
2023-03-14 16:30:45:925,0,-13.9766,-4.53356,69.0618,Q,Q
2023-03-14 16:30:45:936,0,-13.975,-4.54006,69.065,Q,Q
2023-03-14 16:30:45:946,0,-13.9761,-4.5421,69.0713,Q,Q
2023-03-14 16:30:45:956,0,-13.9806,-4.54583,69.0791,Q,Q
2023-03-14 16:30:45:966,0,-13.9885,-4.54893,69.0888,Q,Q
2023-03-14 16:30:45:976,0,-13.9968,-4.55161,69.1007,Q,Q
2023-03-14 16:30:45:986,0,-14.0042,-4.55298,69.1104,Q,Q
2023-03-14 16:30:45:996,0,-14.0119,-4.55689,69.1214,Q,Q
2023-03-14 16:30:46:6,0,-14.0175,-4.56002,69.1308,Q,Q
2023-03-14 16:30:46:16,0,-14.0205,-4.56528,69.1374,Q,Q
2023-03-14 16:30:46:26,0,-14.0248,-4.56961,69.145,Q,QQ
2023-03-14 16:30:46:35,0,-14.0307,-4.57157,69.1477,Q,QQ
2023-03-14 16:30:46:45,0,-14.0323,-4.57045,69.1511,Q,QQ
2023-03-14 16:30:46:55,0,-14.034,-4.5683,69.1491,Q,QQ
2023-03-14 16:30:46:65,0,-14.0352,-4.56342,69.148,Q,Q
2023-03-14 16:30:46:75,0,-14.0349,-4.56168,69.1412,Q,Q
2023-03-14 16:30:46:85,0,-14.0361,-4.55421,69.1342,Q,Q
2023-03-14 16:30:46:95,0,-14.036,-4.54788,69.1272,Q,Q
2023-03-14 16:30:46:105,0,-14.0367,-4.54503,69.1229,Q,Q
2023-03-14 16:30:46:115,0,-14.0417,-4.54041,69.115,Q,Q
2023-03-14 16:30:46:125,0,-14.0437,-4.53193,69.1052,Q,Q
2023-03-14 16:30:46:136,0,-14.0477,-4.52623,69.0967,Q,Q
2023-03-14 16:30:46:146,0,-14.0518,-4.50988,69.0828,Q,Q
2023-03-14 16:30:46:156,0,-14.0546,-4.50306,69.0698,Q,Q
2023-03-14 16:30:46:166,0,-14.0534,-4.49583,69.0638,Q,Q
2023-03-14 16:30:46:176,0,-14.0475,-4.49156,69.0584,Q,Q
2023-03-14 16:30:46:186,0,-14.0475,-4.48853,69.0559,Q,Q
2023-03-14 16:30:46:196,0,-14.0468,-4.48541,69.0533,Q,Q
2023-03-14 16:30:46:206,0,-14.044,-4.47943,69.0495,Q,Q
2023-03-14 16:30:46:216,0,-14.0401,-4.47239,69.0463,Q,Q
2023-03-14 16:30:46:226,0,-14.0376,-4.46607,69.0428,Q,Q
2023-03-14 16:30:46:236,0,-14.0299,-4.45797,69.0425,Q,Q
2023-03-14 16:30:46:246,0,-14.028,-4.45142,69.0425,Q,Q
2023-03-14 16:30:46:255,0,-14.025,-4.45249,69.0432,Q,Q
2023-03-14 16:30:46:265,0,-14.0201,-4.44975,69.041,Q,Q
2023-03-14 16:30:46:275,0,-14.017,-4.44826,69.0413,Q,Q
2023-03-14 16:30:46:285,0,-14.0165,-4.44642,69.0382,Q,Q
2023-03-14 16:30:46:296,0,-14.0154,-4.44615,69.0317,Q,Q
2023-03-14 16:30:46:306,0,-14.0172,-4.4459,69.0264,Q,Q
2023-03-14 16:30:46:316,0,-14.0218,-4.45091,69.0215,Q,Q
2023-03-14 16:30:46:326,0,-14.0186,-4.45172,69.0173,Q,Q
2023-03-14 16:30:46:336,0,-14.0199,-4.45634,69.0133,Q,Q
2023-03-14 16:30:46:346,0,-14.0232,-4.46169,69.0065,Q,Q
2023-03-14 16:30:46:356,0,-14.031,-4.46779,69.0071,Q,Q
2023-03-14 16:30:46:366,0,-14.0358,-4.47217,69.0067,Q,Q
2023-03-14 16:30:46:376,0,-14.0384,-4.47418,69.0076,Q,Q
2023-03-14 16:30:46:386,0,-14.0442,-4.47397,69.0105,Q,Q
2023-03-14 16:30:46:396,0,-14.0485,-4.47971,69.0149,Q,Q
2023-03-14 16:30:46:406,0,-14.0535,-4.48239,69.0145,Q,Q
2023-03-14 16:30:46:416,0,-14.0576,-4.4831,69.0144,Q,Q
2023-03-14 16:30:46:426,0,-14.0541,-4.48183,69.0122,Q,Q
2023-03-14 16:30:46:435,0,-14.0534,-4.48009,69.0105,Q,Q
2023-03-14 16:30:46:446,0,-14.053,-4.47944,69.0055,Q,Q
2023-03-14 16:30:46:456,0,-14.0467,-4.48082,68.9975,Q,Q
2023-03-14 16:30:46:466,0,-14.0404,-4.48266,68.986,Q,Q
2023-03-14 16:30:46:476,0,-14.0359,-4.48329,68.9754,Q,Q
2023-03-14 16:30:46:486,0,-14.033,-4.48052,68.9648,Q,Q
2023-03-14 16:30:46:496,0,-14.0355,-4.4774,68.9533,Q,Q
2023-03-14 16:30:46:506,0,-14.0329,-4.47744,68.9424,Q,Q
2023-03-14 16:30:46:516,0,-14.0299,-4.47464,68.9319,Q,Q
2023-03-14 16:30:46:526,0,-14.0275,-4.47523,68.9168,Q,Q
2023-03-14 16:30:46:536,0,-14.0269,-4.47522,68.9055,Q,Q
2023-03-14 16:30:46:546,0,-14.0262,-4.4759,68.8984,Q,Q
2023-03-14 16:30:46:556,0,-14.0273,-4.47346,68.89,Q,Q
2023-03-14 16:30:46:566,0,-14.0288,-4.47664,68.8814,Q,Q
2023-03-14 16:30:46:576,0,-14.0302,-4.47645,68.8727,Q,Q
2023-03-14 16:30:46:586,0,-14.031,-4.4772,68.8662,Q,Q
2023-03-14 16:30:46:596,0,-14.0314,-4.47853,68.8588,Q,Q
2023-03-14 16:30:46:606,0,-14.0313,-4.47635,68.8498,Q,Q
2023-03-14 16:30:46:616,0,-14.0309,-4.47773,68.8411,Q,Q
2023-03-14 16:30:46:625,0,-14.0305,-4.47597,68.8332,Q,Q
2023-03-14 16:30:46:636,0,-14.0333,-4.47419,68.8217,Q,Q
2023-03-14 16:30:46:645,0,-14.0318,-4.47316,68.8092,Q,Q
2023-03-14 16:30:46:656,0,-14.0274,-4.47188,68.8003,Q,Q
2023-03-14 16:30:46:665,0,-14.0228,-4.46991,68.7879,Q,Q
2023-03-14 16:30:46:675,0,-14.0203,-4.46531,68.7715,Q,Q
2023-03-14 16:30:46:686,0,-14.0191,-4.45925,68.7588,Q,Q
2023-03-14 16:30:46:696,0,-14.0139,-4.4555,68.7445,Q,Q
2023-03-14 16:30:46:706,0,-14.0091,-4.45196,68.7281,Q,Q
2023-03-14 16:30:46:716,0,-14.0076,-4.44798,68.7118,Q,Q
2023-03-14 16:30:46:726,0,-14.0036,-4.44751,68.6924,Q,Q
2023-03-14 16:30:46:736,0,-13.9999,-4.44985,68.6737,Q,Q
2023-03-14 16:30:46:745,0,-13.9968,-4.45214,68.6564,Q,Q
2023-03-14 16:30:46:756,0,-13.9974,-4.45783,68.646,Q,Q
2023-03-14 16:30:46:766,0,-14.0039,-4.46773,68.6394,Q,Q
2023-03-14 16:30:46:776,0,-14.0088,-4.47659,68.6335,Q,Q
2023-03-14 16:30:46:786,0,-14.0168,-4.48686,68.6348,Q,Q
2023-03-14 16:30:46:796,0,-14.0279,-4.49789,68.6345,Q,Q
2023-03-14 16:30:46:806,0,-14.0393,-4.50824,68.6356,Q,Q
2023-03-14 16:30:46:816,0,-14.0485,-4.51681,68.6436,Q,Q
2023-03-14 16:30:46:826,0,-14.054,-4.52424,68.6513,Q,Q
2023-03-14 16:30:46:836,0,-14.058,-4.52753,68.6602,Q,Q
2023-03-14 16:30:46:846,0,-14.0588,-4.53258,68.6685,Q,Q
2023-03-14 16:30:46:856,0,-14.0587,-4.53726,68.6811,Q,Q
2023-03-14 16:30:46:866,0,-14.0584,-4.5421,68.6902,Q,Q
2023-03-14 16:30:46:876,0,-14.0581,-4.54668,68.6987,Q,Q
2023-03-14 16:30:46:886,0,-14.0532,-4.55226,68.7067,Q,Q
2023-03-14 16:30:46:896,0,-14.0498,-4.55659,68.7112,Q,Q
2023-03-14 16:30:46:905,0,-14.045,-4.56112,68.714,Q,Q
2023-03-14 16:30:46:916,0,-14.0471,-4.56952,68.7163,Q,Q
2023-03-14 16:30:46:926,0,-14.0475,-4.57204,68.7153,Q,Q
2023-03-14 16:30:46:936,0,-14.0506,-4.57655,68.7157,Q,Q
2023-03-14 16:30:46:946,0,-14.0535,-4.58336,68.7159,Q,Q
2023-03-14 16:30:46:956,0,-14.0534,-4.58456,68.7126,Q,Q
2023-03-14 16:30:46:966,0,-14.0582,-4.58203,68.7047,Q,Q
2023-03-14 16:30:46:976,0,-14.0654,-4.58367,68.6987,Q,Q
2023-03-14 16:30:46:986,0,-14.066,-4.58588,68.6901,Q,Q
2023-03-14 16:30:46:996,0,-14.0696,-4.58893,68.6851,Q,Q
2023-03-14 16:30:47:5,0,-14.0738,-4.58974,68.683,Q,Q
2023-03-14 16:30:47:15,0,-14.0795,-4.59223,68.6834,Q,Q
2023-03-14 16:30:47:25,0,-14.0842,-4.5936,68.6825,Q,Q
2023-03-14 16:30:47:35,0,-14.0904,-4.5916,68.6818,Q,Q
2023-03-14 16:30:47:45,0,-14.0984,-4.59012,68.6843,Q,Q
2023-03-14 16:30:47:55,0,-14.1043,-4.59099,68.6852,Q,Q
2023-03-14 16:30:47:65,0,-14.1073,-4.59238,68.689,Q,Q
2023-03-14 16:30:47:75,0,-14.1099,-4.59489,68.6937,Q,Q
2023-03-14 16:30:47:86,0,-14.1137,-4.59561,68.6998,Q,Q
2023-03-14 16:30:47:96,0,-14.12,-4.59855,68.7043,Q,Q
2023-03-14 16:30:47:106,0,-14.1264,-4.60397,68.7095,Q,Q
2023-03-14 16:30:47:116,0,-14.1329,-4.61512,68.7146,Q,Q
2023-03-14 16:30:47:126,0,-14.1373,-4.62381,68.7227,Q,Q
2023-03-14 16:30:47:135,0,-14.1384,-4.63391,68.727,Q,Q
2023-03-14 16:30:47:146,0,-14.1429,-4.64488,68.7311,Q,Q
2023-03-14 16:30:47:156,0,-14.148,-4.65664,68.7337,Q,Q
2023-03-14 16:30:47:166,0,-14.1511,-4.66732,68.7425,Q,Q
2023-03-14 16:30:47:176,0,-14.1512,-4.67878,68.7516,Q,Q
2023-03-14 16:30:47:186,0,-14.1498,-4.68792,68.7582,Q,Q
2023-03-14 16:30:47:196,0,-14.1491,-4.69542,68.7643,Q,Q
2023-03-14 16:30:47:206,0,-14.1516,-4.70199,68.771,Q,Q
2023-03-14 16:30:47:216,0,-14.1515,-4.71068,68.7783,Q,Q
2023-03-14 16:30:47:226,0,-14.1522,-4.71704,68.7837,Q,Q
2023-03-14 16:30:47:236,0,-14.1548,-4.72196,68.7894,Q,Q
2023-03-14 16:30:47:246,0,-14.1565,-4.72853,68.7943,Q,Q
2023-03-14 16:30:47:256,0,-14.1608,-4.72745,68.7982,Q,Q
2023-03-14 16:30:47:266,0,-14.1643,-4.73013,68.7962,Q,Q
2023-03-14 16:30:47:276,0,-14.166,-4.72894,68.7956,Q,Q
2023-03-14 16:30:47:286,0,-14.1653,-4.73049,68.7969,Q,Q
2023-03-14 16:30:47:296,0,-14.1673,-4.73297,68.7932,Q,Q
2023-03-14 16:30:47:306,0,-14.1634,-4.73491,68.7874,Q,Q
2023-03-14 16:30:47:316,0,-14.1634,-4.73275,68.7842,Q,Q
2023-03-14 16:30:47:326,0,-14.1678,-4.73185,68.7783,Q,Q
2023-03-14 16:30:47:336,0,-14.1713,-4.73136,68.7742,Q,Q
2023-03-14 16:30:47:346,0,-14.1783,-4.7348,68.7729,Q,Q
2023-03-14 16:30:47:356,0,-14.1856,-4.73665,68.7704,Q,Q
2023-03-14 16:30:47:366,0,-14.1878,-4.73886,68.7711,Q,Q
2023-03-14 16:30:47:376,0,-14.192,-4.74274,68.7723,Q,Q
2023-03-14 16:30:47:386,0,-14.1951,-4.74558,68.7738,Q,Q
2023-03-14 16:30:47:395,0,-14.1968,-4.74394,68.777,Q,Q
2023-03-14 16:30:47:405,0,-14.2004,-4.74208,68.784,Q,Q
2023-03-14 16:30:47:415,0,-14.2051,-4.74584,68.7917,Q,Q
2023-03-14 16:30:47:425,0,-14.2084,-4.74703,68.7995,Q,Q
2023-03-14 16:30:47:436,0,-14.212,-4.75031,68.8066,Q,Q
2023-03-14 16:30:47:445,0,-14.2159,-4.7544,68.8148,Q,Q
2023-03-14 16:30:47:456,0,-14.2191,-4.75592,68.8244,Q,Q
2023-03-14 16:30:47:465,0,-14.2193,-4.75651,68.8307,Q,Q
2023-03-14 16:30:47:476,0,-14.2169,-4.76142,68.8378,Q,Q
2023-03-14 16:30:47:486,0,-14.2117,-4.76512,68.8467,Q,Q
2023-03-14 16:30:47:496,0,-14.2086,-4.76957,68.8532,Q,Q
2023-03-14 16:30:47:506,0,-14.2061,-4.77234,68.8564,Q,Q
2023-03-14 16:30:47:516,0,-14.2055,-4.7741,68.8572,Q,Q
2023-03-14 16:30:47:526,0,-14.1999,-4.77342,68.8586,Q,Q
2023-03-14 16:30:47:536,0,-14.1963,-4.77114,68.8601,Q,Q
2023-03-14 16:30:47:545,0,-14.1946,-4.76929,68.8579,Q,Q
2023-03-14 16:30:47:556,0,-14.1948,-4.76594,68.8552,Q,Q
2023-03-14 16:30:47:566,0,-14.1937,-4.7602,68.8487,Q,Q
2023-03-14 16:30:47:575,0,-14.1939,-4.75838,68.8471,Q,Q
2023-03-14 16:30:47:586,0,-14.1927,-4.75883,68.8431,Q,Q
2023-03-14 16:30:47:596,0,-14.1896,-4.75836,68.8392,Q,Q
2023-03-14 16:30:47:606,0,-14.1904,-4.76461,68.8394,Q,Q
2023-03-14 16:30:47:616,0,-14.1942,-4.76841,68.8423,Q,Q
2023-03-14 16:30:47:626,0,-14.2006,-4.77333,68.8455,Q,Q
2023-03-14 16:30:47:636,0,-14.2085,-4.77811,68.8468,Q,Q
2023-03-14 16:30:47:646,0,-14.2163,-4.78223,68.8502,Q,Q
2023-03-14 16:30:47:656,0,-14.2196,-4.78305,68.8546,Q,Q
2023-03-14 16:30:47:666,0,-14.2235,-4.788,68.8642,Q,Q
2023-03-14 16:30:47:676,0,-14.2243,-4.7938,68.8727,Q,Q
2023-03-14 16:30:47:686,0,-14.2262,-4.80113,68.8817,Q,Q
2023-03-14 16:30:47:696,0,-14.2293,-4.80542,68.8898,Q,Q
2023-03-14 16:30:47:706,0,-14.2304,-4.8138,68.8954,Q,Q
2023-03-14 16:30:47:715,0,-14.2315,-4.81737,68.8993,Q,Q
2023-03-14 16:30:47:726,0,-14.2347,-4.81796,68.9044,Q,Q
2023-03-14 16:30:47:736,0,-14.2399,-4.82206,68.9104,Q,Q
2023-03-14 16:30:47:746,0,-14.2457,-4.8236,68.9167,Q,Q
2023-03-14 16:30:47:756,0,-14.2537,-4.82535,68.9223,Q,Q
2023-03-14 16:30:47:766,0,-14.2628,-4.82285,68.926,Q,Q
2023-03-14 16:30:47:776,0,-14.2719,-4.82282,68.9257,Q,Q
2023-03-14 16:30:47:785,0,-14.2789,-4.82652,68.9288,Q,Q
2023-03-14 16:30:47:795,0,-14.2833,-4.82821,68.931,Q,Q
2023-03-14 16:30:47:805,0,-14.2883,-4.83062,68.9339,Q,Q
2023-03-14 16:30:47:815,0,-14.2939,-4.82839,68.9336,Q,Q
2023-03-14 16:30:47:825,0,-14.2976,-4.82549,68.9317,Q,Q
2023-03-14 16:30:47:835,0,-14.2994,-4.82429,68.9242,Q,Q
2023-03-14 16:30:47:845,0,-14.2985,-4.82565,68.9196,Q,Q
2023-03-14 16:30:47:856,0,-14.3006,-4.8271,68.9227,Q,Q
2023-03-14 16:30:47:865,0,-14.3007,-4.8284,68.9231,Q,Q
2023-03-14 16:30:47:876,0,-14.301,-4.82819,68.9257,Q,Q
2023-03-14 16:30:47:886,0,-14.3013,-4.82628,68.9251,Q,Q
2023-03-14 16:30:47:896,0,-14.305,-4.82479,68.9288,Q,Q
2023-03-14 16:30:47:906,0,-14.305,-4.8228,68.9308,Q,Q
2023-03-14 16:30:47:916,0,-14.3066,-4.81787,68.9339,Q,Q
2023-03-14 16:30:47:926,0,-14.3138,-4.81442,68.9389,Q,Q
2023-03-14 16:30:47:936,0,-14.3211,-4.81522,68.9418,Q,Q
2023-03-14 16:30:47:946,0,-14.3254,-4.81229,68.9447,Q,Q
2023-03-14 16:30:47:956,0,-14.3323,-4.8107,68.9485,Q,Q
2023-03-14 16:30:47:966,0,-14.3407,-4.80997,68.9506,Q,Q
2023-03-14 16:30:47:975,0,-14.3473,-4.81237,68.9537,Q,Q
2023-03-14 16:30:47:986,0,-14.3552,-4.81783,68.9566,Q,Q
2023-03-14 16:30:47:996,0,-14.3568,-4.8212,68.9597,Q,Q
2023-03-14 16:30:48:6,0,-14.3576,-4.82928,68.9649,Q,Q
2023-03-14 16:30:48:16,0,-14.3626,-4.83866,68.9681,Q,Q
2023-03-14 16:30:48:25,0,-14.3666,-4.84534,68.9762,Q,Q
2023-03-14 16:30:48:36,0,-14.3718,-4.85194,68.984,Q,Q
2023-03-14 16:30:48:46,0,-14.3803,-4.85536,68.9901,Q,Q
2023-03-14 16:30:48:55,0,-14.3887,-4.8588,68.9987,Q,Q
2023-03-14 16:30:48:66,0,-14.3963,-4.86404,69.0072,Q,Q
2023-03-14 16:30:48:76,0,-14.4026,-4.86618,69.0128,Q,Q
2023-03-14 16:30:48:86,0,-14.411,-4.87142,69.0216,Q,Q
2023-03-14 16:30:48:96,0,-14.4164,-4.87161,69.0271,Q,Q
2023-03-14 16:30:48:106,0,-14.4228,-4.87161,69.0345,Q,Q
2023-03-14 16:30:48:116,0,-14.4257,-4.87062,69.0378,Q,Q
2023-03-14 16:30:48:125,0,-14.43,-4.86979,69.0404,Q,Q
2023-03-14 16:30:48:136,0,-14.4347,-4.87032,69.0425,Q,Q
2023-03-14 16:30:48:146,0,-14.4418,-4.86866,69.0422,Q,Q
2023-03-14 16:30:48:155,0,-14.4503,-4.86471,69.0374,Q,Q
2023-03-14 16:30:48:165,0,-14.459,-4.86,69.0359,Q,Q
2023-03-14 16:30:48:175,0,-14.4688,-4.8564,69.0327,Q,Q
2023-03-14 16:30:48:185,0,-14.4763,-4.85718,69.0284,Q,Q
2023-03-14 16:30:48:195,0,-14.4828,-4.85505,69.0255,Q,Q
2023-03-14 16:30:48:205,0,-14.491,-4.85087,69.0182,Q,Q
2023-03-14 16:30:48:216,0,-14.4989,-4.84404,69.0152,Q,Q
2023-03-14 16:30:48:226,0,-14.5061,-4.84192,69.0103,Q,Q
2023-03-14 16:30:48:236,0,-14.5106,-4.83648,69.0053,Q,Q
2023-03-14 16:30:48:246,0,-14.5108,-4.83178,69.0039,Q,Q
2023-03-14 16:30:48:256,0,-14.5137,-4.82937,69.0009,Q,Q
2023-03-14 16:30:48:266,0,-14.5174,-4.82325,69.0004,Q,Q
2023-03-14 16:30:48:276,0,-14.5221,-4.82137,68.9977,Q,Q
2023-03-14 16:30:48:286,0,-14.5245,-4.81961,68.9965,Q,Q
2023-03-14 16:30:48:296,0,-14.5308,-4.82025,68.9981,Q,Q
2023-03-14 16:30:48:306,0,-14.5328,-4.81941,68.9987,Q,Q
2023-03-14 16:30:48:315,0,-14.5372,-4.82104,68.9997,Q,Q
2023-03-14 16:30:48:326,0,-14.537,-4.81995,69.0011,Q,Q
2023-03-14 16:30:48:336,0,-14.5386,-4.8204,69.0043,Q,Q
2023-03-14 16:30:48:345,0,-14.5371,-4.81822,69.0059,Q,Q
2023-03-14 16:30:48:355,0,-14.5409,-4.81213,69.0082,Q,Q
2023-03-14 16:30:48:366,0,-14.5438,-4.80837,69.0089,Q,Q
2023-03-14 16:30:48:376,0,-14.5449,-4.8011,69.0067,Q,Q
2023-03-14 16:30:48:385,0,-14.5453,-4.79491,69.0017,Q,Q
2023-03-14 16:30:48:396,0,-14.5484,-4.78783,68.9928,Q,Q
2023-03-14 16:30:48:406,0,-14.5512,-4.78565,68.9865,Q,Q
2023-03-14 16:30:48:416,0,-14.5491,-4.78155,68.9788,Q,Q
2023-03-14 16:30:48:426,0,-14.5533,-4.77723,68.9709,Q,Q
2023-03-14 16:30:48:436,0,-14.5559,-4.7714,68.9623,Q,Q
2023-03-14 16:30:48:446,0,-14.5569,-4.76333,68.9564,Q,Q
2023-03-14 16:30:48:456,0,-14.5604,-4.75848,68.9475,Q,Q
2023-03-14 16:30:48:466,0,-14.5592,-4.75689,68.9449,Q,Q
2023-03-14 16:30:48:476,0,-14.56,-4.75591,68.9484,Q,Q
2023-03-14 16:30:48:485,0,-14.5646,-4.7563,68.9549,Q,Q
2023-03-14 16:30:48:495,0,-14.5671,-4.75449,68.9629,Q,Q
2023-03-14 16:30:48:505,0,-14.5707,-4.75229,68.9684,Q,Q
2023-03-14 16:30:48:515,0,-14.5742,-4.75033,68.9758,Q,Q
2023-03-14 16:30:48:526,0,-14.5769,-4.75198,68.9812,Q,Q
2023-03-14 16:30:48:536,0,-14.5783,-4.75149,68.9894,Q,Q
2023-03-14 16:30:48:545,0,-14.5781,-4.75085,68.9961,Q,Q
2023-03-14 16:30:48:556,0,-14.5781,-4.75267,69.0038,Q,Q
2023-03-14 16:30:48:565,0,-14.5776,-4.75631,69.004,Q,Q
2023-03-14 16:30:48:576,0,-14.5771,-4.75775,69.0067,Q,Q
2023-03-14 16:30:48:585,0,-14.5771,-4.75906,69.0047,Q,Q
2023-03-14 16:30:48:595,0,-14.5749,-4.75575,69.0027,Q,Q
2023-03-14 16:30:48:606,0,-14.5754,-4.7526,68.9993,Q,Q
2023-03-14 16:30:48:616,0,-14.576,-4.74964,68.9949,Q,Q
2023-03-14 16:30:48:626,0,-14.5776,-4.74458,68.9899,Q,Q
2023-03-14 16:30:48:636,0,-14.5802,-4.7402,68.9873,Q,Q
2023-03-14 16:30:48:646,0,-14.5829,-4.73693,68.9834,Q,Q
2023-03-14 16:30:48:656,0,-14.5888,-4.73308,68.9815,Q,Q
2023-03-14 16:30:48:665,0,-14.5929,-4.72652,68.9775,Q,Q
2023-03-14 16:30:48:676,0,-14.5979,-4.72121,68.9735,Q,Q
2023-03-14 16:30:48:686,0,-14.6018,-4.71037,68.9656,Q,Q
2023-03-14 16:30:48:696,0,-14.6003,-4.70162,68.9582,Q,Q
2023-03-14 16:30:48:706,0,-14.5998,-4.70079,68.9521,Q,Q
2023-03-14 16:30:48:716,0,-14.5972,-4.69948,68.9498,Q,Q
2023-03-14 16:30:48:726,0,-14.5959,-4.69881,68.9466,Q,Q
2023-03-14 16:30:48:736,0,-14.5966,-4.69641,68.943,Q,Q
2023-03-14 16:30:48:746,0,-14.5998,-4.69586,68.9367,Q,Q
2023-03-14 16:30:48:756,0,-14.6032,-4.69331,68.9361,Q,Q
2023-03-14 16:30:48:766,0,-14.6037,-4.69505,68.9338,Q,Q
2023-03-14 16:30:48:776,0,-14.6073,-4.6959,68.9327,Q,Q
2023-03-14 16:30:48:786,0,-14.6113,-4.69532,68.9373,Q,Q
2023-03-14 16:30:48:796,0,-14.6168,-4.6933,68.9462,Q,Q
2023-03-14 16:30:48:806,0,-14.6198,-4.69216,68.9535,Q,Q
2023-03-14 16:30:48:816,0,-14.6261,-4.69478,68.9584,Q,Q
2023-03-14 16:30:48:825,0,-14.6317,-4.69875,68.9667,Q,Q
2023-03-14 16:30:48:836,0,-14.6355,-4.7031,68.9761,Q,Q
2023-03-14 16:30:48:846,0,-14.6382,-4.70707,68.9846,Q,Q
2023-03-14 16:30:48:856,0,-14.6409,-4.71478,68.9909,Q,Q
2023-03-14 16:30:48:866,0,-14.6425,-4.72127,68.9934,Q,Q
2023-03-14 16:30:48:876,0,-14.6417,-4.72849,69.0029,Q,Q
2023-03-14 16:30:48:886,0,-14.6379,-4.7393,69.0099,Q,Q
2023-03-14 16:30:48:896,0,-14.636,-4.74962,69.0172,Q,Q
2023-03-14 16:30:48:906,0,-14.6375,-4.76083,69.0285,Q,Q
2023-03-14 16:30:48:916,0,-14.6337,-4.76804,69.0376,Q,Q
2023-03-14 16:30:48:926,0,-14.632,-4.77699,69.049,Q,Q
2023-03-14 16:30:48:935,0,-14.6287,-4.78222,69.0626,Q,Q
2023-03-14 16:30:48:945,0,-14.6272,-4.78995,69.0758,Q,Q
2023-03-14 16:30:48:955,0,-14.6232,-4.79572,69.0838,Q,Q
2023-03-14 16:30:48:965,0,-14.6222,-4.80116,69.0917,Q,Q
2023-03-14 16:30:48:976,0,-14.624,-4.80612,69.0966,Q,Q
2023-03-14 16:30:48:985,0,-14.6236,-4.81234,69.0995,Q,Q
2023-03-14 16:30:48:995,0,-14.62,-4.81854,69.1015,Q,Q
2023-03-14 16:30:49:5,0,-14.6166,-4.82646,69.1017,Q,Q
2023-03-14 16:30:49:16,0,-14.6111,-4.83445,69.0963,Q,Q
2023-03-14 16:30:49:26,0,-14.6035,-4.84207,69.0935,Q,Q
2023-03-14 16:30:49:36,0,-14.5958,-4.84669,69.0873,Q,Q
2023-03-14 16:30:49:46,0,-14.5882,-4.85178,69.0809,Q,Q
2023-03-14 16:30:49:56,0,-14.5775,-4.85812,69.0773,Q,Q
2023-03-14 16:30:49:66,0,-14.5684,-4.86351,69.0722,Q,Q
2023-03-14 16:30:49:76,0,-14.5613,-4.86806,69.0676,Q,Q
2023-03-14 16:30:49:86,0,-14.5567,-4.86861,69.0692,Q,Q
2023-03-14 16:30:49:96,0,-14.5501,-4.86966,69.069,Q,Q
2023-03-14 16:30:49:106,0,-14.541,-4.87106,69.0696,Q,Q
2023-03-14 16:30:49:116,0,-14.5306,-4.87463,69.0668,Q,Q
2023-03-14 16:30:49:126,0,-14.5189,-4.87169,69.066,Q,Q
2023-03-14 16:30:49:136,0,-14.5101,-4.87239,69.0634,Q,Q
2023-03-14 16:30:49:146,0,-14.5002,-4.87508,69.0603,Q,Q
2023-03-14 16:30:49:156,0,-14.4898,-4.87493,69.0558,Q,Q
2023-03-14 16:30:49:165,0,-14.4775,-4.87608,69.0507,Q,Q
2023-03-14 16:30:49:176,0,-14.4706,-4.87629,69.0482,Q,Q
2023-03-14 16:30:49:186,0,-14.463,-4.87862,69.0463,Q,Q
2023-03-14 16:30:49:196,0,-14.4567,-4.87939,69.046,Q,Q
2023-03-14 16:30:49:206,0,-14.4534,-4.87995,69.0465,Q,Q
2023-03-14 16:30:49:216,0,-14.4464,-4.88016,69.0476,Q,Q
2023-03-14 16:30:49:226,0,-14.4409,-4.87888,69.0529,Q,Q
2023-03-14 16:30:49:236,0,-14.4361,-4.87932,69.0561,Q,Q
2023-03-14 16:30:49:246,0,-14.4317,-4.87971,69.062,Q,Q
2023-03-14 16:30:49:256,0,-14.4272,-4.88108,69.0667,Q,Q
2023-03-14 16:30:49:266,0,-14.4229,-4.88516,69.07,Q,Q
2023-03-14 16:30:49:276,0,-14.4186,-4.88622,69.0693,Q,Q
2023-03-14 16:30:49:286,0,-14.4146,-4.89013,69.0682,Q,Q
2023-03-14 16:30:49:296,0,-14.4109,-4.89258,69.0688,Q,Q
2023-03-14 16:30:49:306,0,-14.4074,-4.8977,69.0672,Q,Q
2023-03-14 16:30:49:315,0,-14.4032,-4.89778,69.0643,Q,Q
2023-03-14 16:30:49:325,0,-14.4027,-4.90299,69.0608,Q,Q
2023-03-14 16:30:49:335,0,-14.4015,-4.90737,69.0578,Q,Q
2023-03-14 16:30:49:345,0,-14.4001,-4.91539,69.0579,Q,Q
2023-03-14 16:30:49:356,0,-14.3985,-4.92514,69.0655,Q,Q
2023-03-14 16:30:49:365,0,-14.4016,-4.9363,69.0747,Q,Q
2023-03-14 16:30:49:376,0,-14.4083,-4.94253,69.0868,Q,Q
2023-03-14 16:30:49:386,0,-14.4176,-4.95057,69.1017,Q,Q
2023-03-14 16:30:49:396,0,-14.4285,-4.95799,69.1107,Q,Q
2023-03-14 16:30:49:406,0,-14.4365,-4.96514,69.1222,Q,Q
2023-03-14 16:30:49:416,0,-14.4448,-4.97722,69.1311,Q,Q
2023-03-14 16:30:49:425,0,-14.4541,-4.98629,69.1391,Q,Q
2023-03-14 16:30:49:436,0,-14.4629,-4.98879,69.1446,Q,Q
2023-03-14 16:30:49:446,0,-14.4679,-4.99081,69.1472,Q,Q
2023-03-14 16:30:49:456,0,-14.4708,-4.99612,69.1451,Q,Q
2023-03-14 16:30:49:466,0,-14.4762,-4.99934,69.1449,Q,Q
2023-03-14 16:30:49:476,0,-14.4789,-5.00081,69.1422,Q,Q
2023-03-14 16:30:49:486,0,-14.4839,-5.00319,69.1381,Q,Q
2023-03-14 16:30:49:495,0,-14.4849,-5.00299,69.1339,Q,Q
2023-03-14 16:30:49:506,0,-14.4854,-5.00491,69.1308,Q,Q
2023-03-14 16:30:49:516,0,-14.4872,-5.003,69.1263,Q,Q
2023-03-14 16:30:49:525,0,-14.4916,-4.99645,69.1237,Q,Q
2023-03-14 16:30:49:536,0,-14.4962,-4.99268,69.1194,Q,Q
2023-03-14 16:30:49:545,0,-14.4989,-4.99245,69.1154,Q,Q
2023-03-14 16:30:49:556,0,-14.507,-4.98815,69.1153,Q,Q
2023-03-14 16:30:49:566,0,-14.5088,-4.98793,69.112,Q,Q
2023-03-14 16:30:49:576,0,-14.5173,-4.98017,69.1076,Q,Q
2023-03-14 16:30:49:585,0,-14.5202,-4.97366,69.1009,Q,Q
2023-03-14 16:30:49:596,0,-14.5199,-4.97166,69.0942,Q,Q
2023-03-14 16:30:49:606,0,-14.5188,-4.97444,69.0898,Q,Q
2023-03-14 16:30:49:615,0,-14.5138,-4.97948,69.0856,Q,Q
2023-03-14 16:30:49:625,0,-14.5088,-4.98373,69.085,Q,Q
2023-03-14 16:30:49:636,0,-14.5038,-4.98725,69.0866,Q,Q
2023-03-14 16:30:49:646,0,-14.5006,-4.99145,69.0878,Q,Q
2023-03-14 16:30:49:656,0,-14.4942,-4.99299,69.0893,Q,Q
2023-03-14 16:30:49:666,0,-14.4938,-4.99494,69.0945,Q,Q
2023-03-14 16:30:49:676,0,-14.4922,-4.99763,69.0981,Q,Q
2023-03-14 16:30:49:686,0,-14.4898,-5.00093,69.1028,Q,Q
2023-03-14 16:30:49:696,0,-14.4901,-5.01063,69.1072,Q,Q
