Timestamp_cmd,imu_cmd,roll_delta,pitch_delta,yaw_delta,voice_type,voice_length
2023-03-14 17:20:15:872,0,-1.76827,-3.06423,74.992,Q,Q
2023-03-14 17:20:15:881,0,-1.76586,-3.06916,74.994,Q,Q
2023-03-14 17:20:15:891,0,-1.76517,-3.0788,74.9992,Q,Q
2023-03-14 17:20:15:901,0,-1.76575,-3.08627,75.0055,Q,Q
2023-03-14 17:20:15:911,0,-1.76946,-3.08973,75.0105,Q,Q
2023-03-14 17:20:15:921,0,-1.77088,-3.09654,75.0182,Q,Q
2023-03-14 17:20:15:931,0,-1.77364,-3.10152,75.0229,Q,Q
2023-03-14 17:20:15:941,0,-1.77728,-3.10361,75.0309,Q,Q
2023-03-14 17:20:15:951,0,-1.78003,-3.10318,75.0388,Q,Q
2023-03-14 17:20:15:961,0,-1.7858,-3.10132,75.048,Q,Q
2023-03-14 17:20:15:971,0,-1.79125,-3.10072,75.0503,Q,Q
2023-03-14 17:20:15:981,0,-1.79917,-3.09879,75.054,Q,Q
2023-03-14 17:20:15:991,0,-1.80475,-3.09702,75.0522,Q,Q
2023-03-14 17:20:16:1,0,-1.80908,-3.09131,75.0471,Q,Q
2023-03-14 17:20:16:11,0,-1.81106,-3.08577,75.0384,Q,Q
2023-03-14 17:20:16:21,0,-1.80853,-3.07723,75.0263,Q,Q
2023-03-14 17:20:16:31,0,-1.80374,-3.07026,75.014,Q,Q
2023-03-14 17:20:16:41,0,-1.797,-3.06156,74.9987,Q,Q
2023-03-14 17:20:16:51,0,-1.79291,-3.05395,74.9807,Q,Q
2023-03-14 17:20:16:61,0,-1.78724,-3.04837,74.9684,Q,Q
2023-03-14 17:20:16:71,0,-1.7844,-3.04451,74.9572,Q,Q
2023-03-14 17:20:16:81,0,-1.78019,-3.04724,74.955,Q,Q
2023-03-14 17:20:16:91,0,-1.77447,-3.04789,74.9519,Q,Q
2023-03-14 17:20:16:101,0,-1.7683,-3.04855,74.9515,Q,Q
2023-03-14 17:20:16:111,0,-1.75566,-3.05114,74.9527,Q,Q
2023-03-14 17:20:16:121,0,-1.74512,-3.05365,74.9539,Q,Q
2023-03-14 17:20:16:131,0,-1.73087,-3.0569,74.9523,Q,Q
2023-03-14 17:20:16:141,0,-1.71241,-3.0608,74.9504,Q,Q
2023-03-14 17:20:16:151,0,-1.69523,-3.06571,74.9472,Q,Q
2023-03-14 17:20:16:161,0,-1.67659,-3.07233,74.9443,Q,Q
2023-03-14 17:20:16:171,0,-1.66157,-3.07713,74.9396,Q,Q
2023-03-14 17:20:16:181,0,-1.64252,-3.08052,74.935,Q,Q
2023-03-14 17:20:16:191,0,-1.62453,-3.07904,74.9326,Q,Q
2023-03-14 17:20:16:201,0,-1.60549,-3.08153,74.9261,Q,Q
2023-03-14 17:20:16:211,0,-1.59265,-3.08907,74.925,Q,Q
2023-03-14 17:20:16:221,0,-1.58382,-3.09697,74.9245,Q,Q
2023-03-14 17:20:16:231,0,-1.57899,-3.1066,74.9213,Q,Q
2023-03-14 17:20:16:241,0,-1.57573,-3.10978,74.9269,Q,Q
2023-03-14 17:20:16:251,0,-1.5697,-3.11267,74.9301,Q,Q
2023-03-14 17:20:16:261,0,-1.56837,-3.12171,74.9382,Q,Q
2023-03-14 17:20:16:271,0,-1.56786,-3.1277,74.9504,Q,Q
2023-03-14 17:20:16:281,0,-1.5633,-3.13375,74.9627,Q,Q
2023-03-14 17:20:16:291,0,-1.55608,-3.13968,74.969,Q,Q
2023-03-14 17:20:16:301,0,-1.54604,-3.14918,74.9761,Q,Q
2023-03-14 17:20:16:311,0,-1.53669,-3.16113,74.9811,Q,Q
2023-03-14 17:20:16:321,0,-1.52877,-3.16441,74.9862,Q,Q
2023-03-14 17:20:16:331,0,-1.51939,-3.16824,74.991,Q,Q
2023-03-14 17:20:16:341,0,-1.50884,-3.16988,74.9932,Q,Q
2023-03-14 17:20:16:351,0,-1.49815,-3.16949,74.995,Q,Q
2023-03-14 17:20:16:361,0,-1.4905,-3.16541,74.9985,Q,Q
2023-03-14 17:20:16:371,0,-1.47977,-3.16476,75.001,Q,Q
2023-03-14 17:20:16:381,0,-1.46667,-3.16741,75.0036,Q,Q
2023-03-14 17:20:16:391,0,-1.45269,-3.1688,75.0052,Q,Q
2023-03-14 17:20:16:401,0,-1.44023,-3.17068,75.0111,Q,Q
2023-03-14 17:20:16:411,0,-1.42516,-3.17038,75.0199,Q,Q
2023-03-14 17:20:16:421,0,-1.41396,-3.17421,75.0265,Q,Q
2023-03-14 17:20:16:431,0,-1.41042,-3.18345,75.0369,Q,Q
2023-03-14 17:20:16:441,0,-1.40897,-3.19244,75.0445,Q,Q
2023-03-14 17:20:16:451,0,-1.41447,-3.19854,75.0545,Q,Q
2023-03-14 17:20:16:461,0,-1.42382,-3.20734,75.0612,Q,Q
2023-03-14 17:20:16:471,0,-1.43332,-3.21311,75.0694,Q,Q
2023-03-14 17:20:16:481,0,-1.44047,-3.2162,75.0766,Q,Q
2023-03-14 17:20:16:491,0,-1.44804,-3.21647,75.0832,Q,Q
2023-03-14 17:20:16:501,0,-1.45938,-3.21331,75.0887,Q,Q
2023-03-14 17:20:16:511,0,-1.47197,-3.20642,75.0898,Q,Q
2023-03-14 17:20:16:521,0,-1.48616,-3.19722,75.0916,Q,Q
2023-03-14 17:20:16:531,0,-1.50147,-3.1846,75.0986,Q,Q
2023-03-14 17:20:16:541,0,-1.51965,-3.17164,75.1085,Q,Q
2023-03-14 17:20:16:551,0,-1.54266,-3.16402,75.1247,Q,Q
2023-03-14 17:20:16:561,0,-1.56579,-3.15292,75.1437,Q,Q
2023-03-14 17:20:16:571,0,-1.58433,-3.13889,75.1675,Q,Q
2023-03-14 17:20:16:581,0,-1.60121,-3.12137,75.1977,Q,Q
2023-03-14 17:20:16:591,0,-1.61656,-3.10013,75.2312,Q,Q
2023-03-14 17:20:16:601,0,-1.63045,-3.06542,75.2618,Q,Q
2023-03-14 17:20:16:611,0,-1.63803,-3.02302,75.2957,Q,Q
2023-03-14 17:20:16:621,0,-1.64107,-2.97106,75.3322,Q,Q
2023-03-14 17:20:16:631,0,-1.64022,-2.91864,75.3764,Q,Q
2023-03-14 17:20:16:641,0,-1.64586,-2.87277,75.431,Q,Q
2023-03-14 17:20:16:651,0,-1.65518,-2.83327,75.4979,Q,Q
2023-03-14 17:20:16:661,0,-1.66911,-2.79301,75.5736,Q,Q
2023-03-14 17:20:16:671,0,-1.69203,-2.75524,75.6487,Q,Q
2023-03-14 17:20:16:681,0,-1.71473,-2.71759,75.7142,Q,Q
2023-03-14 17:20:16:691,0,-1.74111,-2.67988,75.7606,Q,Q
2023-03-14 17:20:16:701,0,-1.7642,-2.64596,75.7947,Q,Q
2023-03-14 17:20:16:711,0,-1.78818,-2.61171,75.8139,Q,Q
2023-03-14 17:20:16:721,0,-1.81718,-2.57779,75.8111,Q,Q
2023-03-14 17:20:16:731,0,-1.85767,-2.54498,75.8,Q,Q
2023-03-14 17:20:16:741,0,-1.91232,-2.51714,75.7832,Q,Q
2023-03-14 17:20:16:751,0,-2.00133,-2.49231,75.7603,Q,Q
2023-03-14 17:20:16:761,0,-2.12678,-2.47809,75.7298,Q,Q
2023-03-14 17:20:16:771,0,-2.28552,-2.4748,75.7001,Q,Q
2023-03-14 17:20:16:781,0,-2.46797,-2.48382,75.6791,Q,Q
2023-03-14 17:20:16:791,0,-2.67587,-2.50145,75.6638,Q,Q
2023-03-14 17:20:16:801,0,-2.90276,-2.52815,75.6605,Q,Q
2023-03-14 17:20:16:811,0,-3.14214,-2.55886,75.6606,Q,Q
2023-03-14 17:20:16:821,0,-3.38425,-2.59003,75.6639,Q,Q
2023-03-14 17:20:16:831,0,-3.62151,-2.62006,75.6692,Q,Q
2023-03-14 17:20:16:841,0,-3.85156,-2.64295,75.6795,Q,Q
2023-03-14 17:20:16:851,0,-4.06805,-2.66466,75.6892,Q,Q
2023-03-14 17:20:16:861,0,-4.2742,-2.68456,75.6974,Q,Q
2023-03-14 17:20:16:871,0,-4.47561,-2.70007,75.7074,Q,Q
2023-03-14 17:20:16:881,0,-4.67364,-2.71602,75.7093,Q,Q
2023-03-14 17:20:16:891,0,-4.87372,-2.72516,75.7089,Q,Q
2023-03-14 17:20:16:901,0,-5.0791,-2.73056,75.701,Q,Q
2023-03-14 17:20:16:911,0,-5.28187,-2.73274,75.6942,Q,Q
2023-03-14 17:20:16:921,0,-5.48611,-2.73181,75.6862,Q,Q
2023-03-14 17:20:16:931,0,-5.69352,-2.73088,75.6778,Q,Q
2023-03-14 17:20:16:941,0,-5.88956,-2.72224,75.6698,Q,Q
2023-03-14 17:20:16:951,0,-6.07713,-2.70801,75.6573,Q,Q
2023-03-14 17:20:16:961,0,-6.2553,-2.68565,75.648,Q,Q
2023-03-14 17:20:16:971,0,-6.42823,-2.64935,75.6321,Q,Q
2023-03-14 17:20:16:981,0,-6.60151,-2.6074,75.6158,Q,Q
2023-03-14 17:20:16:991,0,-6.77647,-2.56247,75.6019,Q,Q
2023-03-14 17:20:17:1,0,-6.96207,-2.51443,75.5863,Q,Q
2023-03-14 17:20:17:11,0,-7.1489,-2.47876,75.5733,Q,Q
2023-03-14 17:20:17:21,0,-7.3265,-2.45042,75.567,Q,Q
2023-03-14 17:20:17:31,0,-7.48637,-2.43935,75.5696,Q,Q
2023-03-14 17:20:17:41,0,-7.62577,-2.43818,75.5763,Q,Q
2023-03-14 17:20:17:51,0,-7.75463,-2.43768,75.5988,Q,Q
2023-03-14 17:20:17:61,0,-7.87718,-2.43671,75.6355,Q,Q
2023-03-14 17:20:17:71,0,-8.00049,-2.42904,75.6863,Q,Q
2023-03-14 17:20:17:81,0,-8.1285,-2.41383,75.7487,Q,Q
2023-03-14 17:20:17:91,0,-8.25369,-2.39136,75.8205,Q,Q
2023-03-14 17:20:17:101,0,-8.36905,-2.36138,75.8976,Q,Q
2023-03-14 17:20:17:111,0,-8.46087,-2.324,75.972,Q,Q
2023-03-14 17:20:17:121,0,-8.53121,-2.28273,76.0479,Q,Q
2023-03-14 17:20:17:131,0,-8.59161,-2.23333,76.1179,Q,Q
2023-03-14 17:20:17:141,0,-8.64525,-2.18435,76.1808,Q,Q
2023-03-14 17:20:17:151,0,-8.69409,-2.1335,76.2343,Q,Q
2023-03-14 17:20:17:161,0,-8.73554,-2.08343,76.2761,Q,Q
2023-03-14 17:20:17:171,0,-8.77304,-2.03274,76.3044,Q,Q
2023-03-14 17:20:17:181,0,-8.79832,-1.98497,76.3212,Q,Q
2023-03-14 17:20:17:191,0,-8.81286,-1.93911,76.3199,Q,Q
2023-03-14 17:20:17:201,0,-8.82099,-1.90062,76.306,Q,Q
2023-03-14 17:20:17:211,0,-8.81975,-1.87081,76.271,Q,Q
2023-03-14 17:20:17:221,0,-8.80534,-1.84658,76.219,Q,Q
2023-03-14 17:20:17:231,0,-8.79148,-1.82827,76.1524,Q,Q
2023-03-14 17:20:17:241,0,-8.77518,-1.81555,76.0811,Q,Q
2023-03-14 17:20:17:251,0,-8.75969,-1.8105,76.006,Q,Q
2023-03-14 17:20:17:261,0,-8.74469,-1.80894,75.929,Q,Q
2023-03-14 17:20:17:271,0,-8.72648,-1.81628,75.8537,Q,Q
2023-03-14 17:20:17:281,0,-8.70492,-1.82755,75.7834,Q,Q
2023-03-14 17:20:17:291,0,-8.67949,-1.84151,75.722,Q,Q
2023-03-14 17:20:17:301,0,-8.65602,-1.859,75.6744,Q,Q
2023-03-14 17:20:17:311,0,-8.62658,-1.87995,75.6424,Q,Q
2023-03-14 17:20:17:321,0,-8.59663,-1.90473,75.6277,Q,Q
2023-03-14 17:20:17:331,0,-8.56755,-1.93296,75.6303,Q,Q
2023-03-14 17:20:17:341,0,-8.541,-1.95256,75.6492,Q,Q
2023-03-14 17:20:17:351,0,-8.51665,-1.9639,75.6787,Q,Q
2023-03-14 17:20:17:361,0,-8.4876,-1.97435,75.7206,Q,Q
2023-03-14 17:20:17:371,0,-8.45709,-1.9839,75.7712,Q,Q
2023-03-14 17:20:17:381,0,-8.42621,-1.99032,75.8197,Q,Q
2023-03-14 17:20:17:391,0,-8.38943,-2.00013,75.8644,Q,Q
2023-03-14 17:20:17:401,0,-8.3365,-2.00491,75.9007,Q,Q
2023-03-14 17:20:17:411,0,-8.26961,-2.00937,75.93,Q,Q
2023-03-14 17:20:17:421,0,-8.19165,-2.01341,75.9466,Q,Q
2023-03-14 17:20:17:431,0,-8.1081,-2.01364,75.9538,Q,Q
2023-03-14 17:20:17:441,0,-8.01995,-2.00871,75.9509,Q,Q
2023-03-14 17:20:17:451,0,-7.9297,-2.00238,75.9341,Q,Q
2023-03-14 17:20:17:461,0,-7.8342,-1.99972,75.9097,Q,Q
2023-03-14 17:20:17:471,0,-7.7399,-1.99379,75.8735,Q,Q
2023-03-14 17:20:17:481,0,-7.64711,-1.98667,75.8319,Q,Q
2023-03-14 17:20:17:491,0,-7.54901,-1.97934,75.7882,Q,Q
2023-03-14 17:20:17:501,0,-7.45229,-1.97737,75.739,Q,Q
2023-03-14 17:20:17:511,0,-7.35637,-1.97803,75.6916,Q,Q
2023-03-14 17:20:17:521,0,-7.25934,-1.97374,75.6424,Q,Q
2023-03-14 17:20:17:531,0,-7.16795,-1.97217,75.5909,Q,Q
2023-03-14 17:20:17:541,0,-7.07208,-1.96907,75.5364,Q,Q
2023-03-14 17:20:17:551,0,-6.97493,-1.97731,75.4823,Q,Q
2023-03-14 17:20:17:561,0,-6.87297,-1.98729,75.4288,Q,Q
2023-03-14 17:20:17:571,0,-6.77527,-2.00073,75.3797,Q,Q
2023-03-14 17:20:17:581,0,-6.67794,-2.02224,75.334,Q,Q
2023-03-14 17:20:17:591,0,-6.59567,-2.04913,75.2947,Q,Q
2023-03-14 17:20:17:601,0,-6.51888,-2.07513,75.2558,Q,Q
2023-03-14 17:20:17:611,0,-6.4483,-2.10165,75.2244,Q,Q
2023-03-14 17:20:17:621,0,-6.38485,-2.12647,75.2041,Q,Q
2023-03-14 17:20:17:631,0,-6.32488,-2.14573,75.1843,Q,Q
2023-03-14 17:20:17:641,0,-6.26935,-2.16114,75.177,Q,Q
2023-03-14 17:20:17:651,0,-6.21956,-2.17577,75.1742,Q,Q
2023-03-14 17:20:17:661,0,-6.17001,-2.1892,75.1774,Q,Q
2023-03-14 17:20:17:671,0,-6.12406,-2.20398,75.1869,Q,Q
2023-03-14 17:20:17:681,0,-6.08213,-2.21649,75.2019,Q,Q
2023-03-14 17:20:17:691,0,-6.04159,-2.2261,75.2217,Q,Q
2023-03-14 17:20:17:701,0,-6.00479,-2.23176,75.2453,Q,Q
2023-03-14 17:20:17:711,0,-5.96772,-2.23909,75.2694,Q,Q
2023-03-14 17:20:17:721,0,-5.93062,-2.25439,75.2935,Q,Q
2023-03-14 17:20:17:731,0,-5.89566,-2.27155,75.316,Q,Q
2023-03-14 17:20:17:741,0,-5.86463,-2.28426,75.342,Q,Q
2023-03-14 17:20:17:751,0,-5.83465,-2.30191,75.368,Q,Q
2023-03-14 17:20:17:760,0,-5.80272,-2.32345,75.3893,Q,Q
2023-03-14 17:20:17:771,0,-5.77305,-2.34435,75.409,Q,Q
2023-03-14 17:20:17:781,0,-5.74283,-2.36595,75.4278,Q,Q
2023-03-14 17:20:17:791,0,-5.70736,-2.38975,75.4467,Q,Q
2023-03-14 17:20:17:801,0,-5.66905,-2.41135,75.4656,Q,Q
2023-03-14 17:20:17:811,0,-5.62969,-2.43344,75.4861,Q,Q
2023-03-14 17:20:17:821,0,-5.58971,-2.45512,75.505,Q,Q
2023-03-14 17:20:17:831,0,-5.54437,-2.47756,75.5248,Q,Q
2023-03-14 17:20:17:841,0,-5.49293,-2.49801,75.5441,Q,Q
2023-03-14 17:20:17:851,0,-5.43977,-2.52133,75.566,Q,Q
2023-03-14 17:20:17:861,0,-5.38491,-2.54261,75.5861,Q,Q
2023-03-14 17:20:17:871,0,-5.33079,-2.55825,75.6039,Q,Q
2023-03-14 17:20:17:881,0,-5.27524,-2.57218,75.6212,Q,Q
2023-03-14 17:20:17:891,0,-5.21558,-2.58506,75.6346,Q,Q
2023-03-14 17:20:17:901,0,-5.15779,-2.59499,75.6457,Q,Q
2023-03-14 17:20:17:911,0,-5.09858,-2.60653,75.6629,Q,Q
2023-03-14 17:20:17:921,0,-5.04068,-2.61341,75.6763,Q,Q
2023-03-14 17:20:17:931,0,-4.9807,-2.6193,75.6864,Q,Q
2023-03-14 17:20:17:941,0,-4.91817,-2.62686,75.6962,Q,Q
2023-03-14 17:20:17:951,0,-4.85303,-2.62922,75.7005,Q,Q
2023-03-14 17:20:17:961,0,-4.79255,-2.62938,75.7049,Q,Q
2023-03-14 17:20:17:971,0,-4.73223,-2.62913,75.705,Q,Q
2023-03-14 17:20:17:981,0,-4.67486,-2.62873,75.7051,Q,Q
2023-03-14 17:20:17:991,0,-4.62208,-2.62877,75.7022,Q,Q
2023-03-14 17:20:18:1,0,-4.56927,-2.6301,75.6953,Q,Q
2023-03-14 17:20:18:11,0,-4.52056,-2.631,75.686,Q,Q
2023-03-14 17:20:18:21,0,-4.47186,-2.63538,75.6719,Q,Q
2023-03-14 17:20:18:31,0,-4.42406,-2.64342,75.6509,Q,Q
2023-03-14 17:20:18:41,0,-4.38201,-2.64846,75.6316,Q,Q
2023-03-14 17:20:18:51,0,-4.34201,-2.65609,75.6103,Q,Q
2023-03-14 17:20:18:61,0,-4.30439,-2.66769,75.5881,Q,Q
2023-03-14 17:20:18:71,0,-4.26832,-2.68309,75.5582,Q,Q
2023-03-14 17:20:18:81,0,-4.22556,-2.69807,75.5268,Q,Q
2023-03-14 17:20:18:91,0,-4.17805,-2.71848,75.478,Q,Q
2023-03-14 17:20:18:101,0,-4.12516,-2.73965,75.4175,Q,Q
2023-03-14 17:20:18:111,0,-4.08194,-2.75965,75.346,Q,Q
2023-03-14 17:20:18:121,0,-4.04164,-2.78171,75.2635,Q,Q
2023-03-14 17:20:18:131,0,-4.01314,-2.80139,75.1738,Q,Q
2023-03-14 17:20:18:141,0,-3.98242,-2.82268,75.0774,Q,Q
2023-03-14 17:20:18:151,0,-3.95436,-2.84332,74.9762,Q,Q
2023-03-14 17:20:18:161,0,-3.92976,-2.85705,74.8721,Q,Q
2023-03-14 17:20:18:171,0,-3.90715,-2.87038,74.7637,Q,Q
2023-03-14 17:20:18:181,0,-3.88532,-2.88,74.6568,Q,Q
2023-03-14 17:20:18:191,0,-3.86167,-2.88651,74.5586,Q,Q
2023-03-14 17:20:18:201,0,-3.83832,-2.89387,74.4607,Q,Q
2023-03-14 17:20:18:211,0,-3.81275,-2.89918,74.3646,Q,Q
2023-03-14 17:20:18:221,0,-3.78163,-2.90996,74.2677,Q,Q
2023-03-14 17:20:18:231,0,-3.74647,-2.91981,74.1679,Q,Q
2023-03-14 17:20:18:241,0,-3.71275,-2.9316,74.0578,Q,Q
2023-03-14 17:20:18:251,0,-3.6813,-2.94281,73.942,Q,Q
2023-03-14 17:20:18:261,0,-3.65271,-2.95879,73.8196,Q,Q
2023-03-14 17:20:18:271,0,-3.6327,-2.97367,73.6953,Q,Q
2023-03-14 17:20:18:281,0,-3.61692,-2.9898,73.5585,Q,Q
2023-03-14 17:20:18:291,0,-3.59625,-3.01566,73.4016,Q,Q
2023-03-14 17:20:18:301,0,-3.57523,-3.05101,73.206,Q,Q
2023-03-14 17:20:18:311,0,-3.54576,-3.1008,72.9423,Q,Q
2023-03-14 17:20:18:321,0,-3.49741,-3.15944,72.5718,Q,Q
2023-03-14 17:20:18:331,0,-3.4373,-3.22513,72.0464,Q,Q
2023-03-14 17:20:18:341,0,-3.36306,-3.29941,71.3351,Q,Q
2023-03-14 17:20:18:351,0,-3.28473,-3.38897,70.4449,Q,Q
2023-03-14 17:20:18:361,0,-3.20695,-3.50109,69.4068,Q,Q
2023-03-14 17:20:18:371,0,-3.13938,-3.64213,68.2406,Q,Q
2023-03-14 17:20:18:381,0,-3.09812,-3.78836,66.9299,Q,Q
2023-03-14 17:20:18:391,0,-3.07655,-3.92604,65.4653,Q,Q
2023-03-14 17:20:18:401,0,-3.06172,-4.0538,63.8664,Q,Q
2023-03-14 17:20:18:411,0,-3.04818,-4.17483,62.14,Q,Q
2023-03-14 17:20:18:421,0,-3.02355,-4.2896,60.2848,Q,Q
2023-03-14 17:20:18:431,0,-2.98923,-4.39449,58.3177,Q,Q
2023-03-14 17:20:18:441,0,-2.94425,-4.48356,56.2731,Q,Q
2023-03-14 17:20:18:451,0,-2.9074,-4.56457,54.1856,Q,Q
2023-03-14 17:20:18:461,0,-2.8871,-4.63376,52.085,Q,Q
2023-03-14 17:20:18:471,0,-2.88335,-4.69479,49.9846,Q,Q
2023-03-14 17:20:18:481,0,-2.88149,-4.73582,47.8989,Q,Q
2023-03-14 17:20:18:491,0,-2.87093,-4.74953,45.8508,Q,Q
2023-03-14 17:20:18:501,0,-2.85344,-4.73303,43.8679,Q,Q
2023-03-14 17:20:18:511,0,-2.82783,-4.68628,41.978,Q,Q
2023-03-14 17:20:18:521,0,-2.80155,-4.61257,40.2047,Q,Q
2023-03-14 17:20:18:531,0,-2.77268,-4.51485,38.5575,Q,Q
2023-03-14 17:20:18:541,0,-2.74349,-4.39181,37.049,Q,Q
2023-03-14 17:20:18:551,0,-2.7104,-4.23898,35.6794,Q,Q
2023-03-14 17:20:18:561,0,-2.67158,-4.07535,34.4452,Q,Q
2023-03-14 17:20:18:571,0,-2.63891,-3.91167,33.3344,Q,Q
2023-03-14 17:20:18:581,0,-2.62098,-3.74738,32.3492,Q,Q
2023-03-14 17:20:18:591,0,-2.63023,-3.57743,31.4676,Q,Q
2023-03-14 17:20:18:601,0,-2.66851,-3.42112,30.6735,Q,Q
2023-03-14 17:20:18:611,0,-2.7417,-3.28199,29.9541,Q,Q
2023-03-14 17:20:18:621,0,-2.83938,-3.16864,29.2973,Q,Q
2023-03-14 17:20:18:631,0,-2.9573,-3.07496,28.6883,Q,Q
2023-03-14 17:20:18:641,0,-3.07999,-2.98867,28.1179,Q,Q
2023-03-14 17:20:18:651,0,-3.19507,-2.9047,27.577,Q,Q
2023-03-14 17:20:18:661,0,-3.29271,-2.82948,27.051,Q,Q
2023-03-14 17:20:18:671,0,-3.37085,-2.75171,26.5267,Q,Q
2023-03-14 17:20:18:681,0,-3.44218,-2.67527,25.9981,Q,Q
2023-03-14 17:20:18:691,0,-3.51317,-2.61711,25.4713,Q,Q
2023-03-14 17:20:18:701,0,-3.5946,-2.57955,24.9613,Q,Q
2023-03-14 17:20:18:711,0,-3.68119,-2.5641,24.4736,Q,Q
2023-03-14 17:20:18:721,0,-3.76347,-2.5599,23.9947,Q,Q
2023-03-14 17:20:18:731,0,-3.84197,-2.561,23.5309,Q,Q
2023-03-14 17:20:18:741,0,-3.90227,-2.55657,23.0838,Q,Q
2023-03-14 17:20:18:751,0,-3.93966,-2.5503,22.6618,Q,Q
2023-03-14 17:20:18:761,0,-3.95632,-2.55059,22.2715,Q,Q
2023-03-14 17:20:18:771,0,-3.96618,-2.56636,21.908,Q,Q
2023-03-14 17:20:18:781,0,-3.98836,-2.59882,21.5784,Q,Q
2023-03-14 17:20:18:791,0,-4.03339,-2.64338,21.2809,Q,Q
2023-03-14 17:20:18:801,0,-4.09365,-2.68995,21.0253,Q,Q
2023-03-14 17:20:18:811,0,-4.15251,-2.72904,20.8037,Q,Q
2023-03-14 17:20:18:821,0,-4.18704,-2.75909,20.6089,Q,Q
2023-03-14 17:20:18:831,0,-4.18206,-2.78044,20.4452,Q,Q
2023-03-14 17:20:18:841,0,-4.14334,-2.80178,20.3096,Q,Q
2023-03-14 17:20:18:851,0,-4.08422,-2.83481,20.198,Q,Q
2023-03-14 17:20:18:861,0,-4.03933,-2.89718,20.0945,Q,Q
2023-03-14 17:20:18:871,0,-4.03068,-2.99603,19.9983,Q,Q
2023-03-14 17:20:18:881,0,-4.07663,-3.11548,19.899,Q,Q
2023-03-14 17:20:18:891,0,-4.16576,-3.24578,19.7899,Q,Q
2023-03-14 17:20:18:901,0,-4.27917,-3.3832,19.6668,Q,Q
2023-03-14 17:20:18:911,0,-4.3975,-3.52055,19.5383,Q,Q
2023-03-14 17:20:18:921,0,-4.50541,-3.65252,19.4101,Q,Q
2023-03-14 17:20:18:931,0,-4.5869,-3.76839,19.2832,Q,Q
2023-03-14 17:20:18:941,0,-4.62504,-3.8693,19.1656,Q,Q
2023-03-14 17:20:18:951,0,-4.62935,-3.95675,19.0614,Q,Q
2023-03-14 17:20:18:961,0,-4.62174,-4.05688,18.9714,Q,Q
2023-03-14 17:20:18:971,0,-4.63326,-4.16946,18.8793,Q,Q
2023-03-14 17:20:18:981,0,-4.67784,-4.29749,18.7777,Q,Q
2023-03-14 17:20:18:991,0,-4.75438,-4.42695,18.6627,Q,Q
2023-03-14 17:20:19:1,0,-4.84673,-4.55168,18.5354,Q,Q
2023-03-14 17:20:19:11,0,-4.93808,-4.6665,18.4042,Q,Q
2023-03-14 17:20:19:21,0,-5.01564,-4.76154,18.2756,Q,Q
2023-03-14 17:20:19:31,0,-5.07328,-4.8357,18.1629,Q,Q
2023-03-14 17:20:19:41,0,-5.109,-4.88297,18.0756,Q,Q
2023-03-14 17:20:19:51,0,-5.12669,-4.90529,18.0209,Q,Q
2023-03-14 17:20:19:61,0,-5.14332,-4.90496,17.9923,Q,Q
2023-03-14 17:20:19:71,0,-5.15672,-4.88552,17.9774,Q,Q
2023-03-14 17:20:19:81,0,-5.16729,-4.84813,17.9637,Q,Q
2023-03-14 17:20:19:91,0,-5.17597,-4.78744,17.9448,Q,Q
2023-03-14 17:20:19:101,0,-5.18181,-4.71509,17.9305,Q,Q
2023-03-14 17:20:19:111,0,-5.18463,-4.63589,17.9214,Q,Q
2023-03-14 17:20:19:121,0,-5.18164,-4.54655,17.9308,Q,Q
2023-03-14 17:20:19:131,0,-5.17669,-4.45373,17.9535,Q,Q
2023-03-14 17:20:19:141,0,-5.16326,-4.35687,17.9918,Q,Q
2023-03-14 17:20:19:151,0,-5.14399,-4.25713,18.0507,Q,Q
2023-03-14 17:20:19:161,0,-5.11492,-4.14928,18.1328,Q,Q
2023-03-14 17:20:19:171,0,-5.07976,-4.03448,18.2362,Q,Q
2023-03-14 17:20:19:181,0,-5.04559,-3.92492,18.364,Q,Q
2023-03-14 17:20:19:191,0,-5.01504,-3.81816,18.5125,Q,Q
2023-03-14 17:20:19:201,0,-4.98937,-3.71635,18.6858,Q,Q
2023-03-14 17:20:19:211,0,-4.97088,-3.61213,18.887,Q,Q
2023-03-14 17:20:19:221,0,-4.95125,-3.5064,19.1203,Q,Q
2023-03-14 17:20:19:231,0,-4.93037,-3.40518,19.3855,Q,Q
2023-03-14 17:20:19:241,0,-4.90988,-3.30213,19.6998,Q,Q
2023-03-14 17:20:19:251,0,-4.88402,-3.19489,20.053,Q,Q
2023-03-14 17:20:19:261,0,-4.85388,-3.082,20.4493,Q,Q
2023-03-14 17:20:19:271,0,-4.8251,-2.96243,20.8981,Q,Q
2023-03-14 17:20:19:281,0,-4.78866,-2.83873,21.4031,Q,Q
2023-03-14 17:20:19:291,0,-4.73408,-2.71405,21.9901,Q,Q
2023-03-14 17:20:19:301,0,-4.66321,-2.58703,22.6661,Q,Q
2023-03-14 17:20:19:311,0,-4.58244,-2.45008,23.4382,Q,Q
2023-03-14 17:20:19:321,0,-4.48904,-2.30296,24.2969,Q,Q
2023-03-14 17:20:19:331,0,-4.39387,-2.1435,25.2492,Q,Q
2023-03-14 17:20:19:341,0,-4.30642,-1.9797,26.2956,Q,Q
2023-03-14 17:20:19:351,0,-4.22889,-1.81012,27.4333,Q,Q
2023-03-14 17:20:19:361,0,-4.15851,-1.64541,28.6777,Q,Q
2023-03-14 17:20:19:371,0,-4.08028,-1.49184,30.034,Q,Q
2023-03-14 17:20:19:381,0,-3.9833,-1.34593,31.495,Q,Q
2023-03-14 17:20:19:391,0,-3.85367,-1.19563,33.0354,Q,Q
2023-03-14 17:20:19:401,0,-3.70048,-1.03727,34.6412,Q,Q
2023-03-14 17:20:19:411,0,-3.52646,-0.877047,36.3061,Q,Q
2023-03-14 17:20:19:421,0,-3.33645,-0.720779,38.0252,Q,Q
2023-03-14 17:20:19:431,0,-3.13729,-0.569451,39.7919,Q,Q
2023-03-14 17:20:19:441,0,-2.9421,-0.440237,41.6015,Q,Q
2023-03-14 17:20:19:451,0,-2.7526,-0.330217,43.4457,Q,Q
2023-03-14 17:20:19:461,0,-2.56182,-0.247959,45.3195,Q,Q
2023-03-14 17:20:19:471,0,-2.37437,-0.186782,47.2013,Q,Q
2023-03-14 17:20:19:481,0,-2.18043,-0.134295,49.0772,Q,Q
2023-03-14 17:20:19:491,0,-1.98495,-0.100072,50.9312,Q,Q
2023-03-14 17:20:19:501,0,-1.78446,-0.0827267,52.7578,Q,Q
2023-03-14 17:20:19:511,0,-1.5834,-0.0810065,54.5463,Q,Q
2023-03-14 17:20:19:521,0,-1.38392,-0.100488,56.2946,Q,Q
2023-03-14 17:20:19:531,0,-1.1913,-0.134485,57.9883,Q,Q
2023-03-14 17:20:19:541,0,-1.00323,-0.191701,59.62,Q,Q
2023-03-14 17:20:19:551,0,-0.822993,-0.258009,61.1774,Q,Q
2023-03-14 17:20:19:561,0,-0.660765,-0.336142,62.6547,Q,Q
2023-03-14 17:20:19:571,0,-0.511144,-0.413744,64.05,Q,Q
2023-03-14 17:20:19:581,0,-0.377964,-0.491584,65.361,Q,Q
2023-03-14 17:20:19:591,0,-0.255581,-0.582502,66.5783,Q,Q
2023-03-14 17:20:19:601,0,-0.146314,-0.68468,67.7053,Q,Q
2023-03-14 17:20:19:611,0,-0.0561221,-0.794761,68.7426,Q,Q
2023-03-14 17:20:19:621,0,0.0221546,-0.909464,69.6934,Q,Q
2023-03-14 17:20:19:631,0,0.0965701,-1.02121,70.5581,Q,Q
2023-03-14 17:20:19:641,0,0.170401,-1.13424,71.3386,Q,Q
2023-03-14 17:20:19:651,0,0.247353,-1.25304,72.047,Q,Q
2023-03-14 17:20:19:661,0,0.31729,-1.37888,72.6896,Q,Q
2023-03-14 17:20:19:671,0,0.377642,-1.50991,73.2609,Q,Q
2023-03-14 17:20:19:681,0,0.43786,-1.64482,73.7809,Q,Q
2023-03-14 17:20:19:691,0,0.503721,-1.78469,74.2496,Q,Q
2023-03-14 17:20:19:701,0,0.570794,-1.93077,74.6767,Q,Q
2023-03-14 17:20:19:711,0,0.635162,-2.08303,75.0696,Q,Q
2023-03-14 17:20:19:721,0,0.692734,-2.23985,75.4292,Q,Q
2023-03-14 17:20:19:731,0,0.741925,-2.39909,75.7536,Q,Q
2023-03-14 17:20:19:741,0,0.780387,-2.55764,76.0483,Q,Q
2023-03-14 17:20:19:751,0,0.808295,-2.71117,76.3124,Q,Q
2023-03-14 17:20:19:761,0,0.830955,-2.86228,76.5435,Q,Q
2023-03-14 17:20:19:771,0,0.847224,-3.0103,76.7419,Q,Q
2023-03-14 17:20:19:781,0,0.860369,-3.15792,76.9181,Q,Q
2023-03-14 17:20:19:791,0,0.86816,-3.29829,77.0682,Q,Q
2023-03-14 17:20:19:801,0,0.878579,-3.43876,77.1916,Q,Q
2023-03-14 17:20:19:811,0,0.891792,-3.57377,77.2914,Q,Q
2023-03-14 17:20:19:821,0,0.90731,-3.70094,77.3687,Q,Q
2023-03-14 17:20:19:831,0,0.926379,-3.81637,77.423,Q,Q
2023-03-14 17:20:19:841,0,0.945896,-3.92566,77.4497,Q,Q
2023-03-14 17:20:19:851,0,0.964766,-4.02544,77.4513,Q,Q
2023-03-14 17:20:19:861,0,0.983825,-4.11482,77.4308,Q,Q
2023-03-14 17:20:19:871,0,1.00535,-4.19877,77.3893,Q,Q
2023-03-14 17:20:19:881,0,1.02993,-4.27413,77.3267,Q,Q
2023-03-14 17:20:19:891,0,1.04769,-4.34781,77.2433,Q,Q
2023-03-14 17:20:19:901,0,1.06272,-4.40959,77.146,Q,Q
2023-03-14 17:20:19:911,0,1.06864,-4.47079,77.0362,Q,Q
2023-03-14 17:20:19:921,0,1.06832,-4.52309,76.9112,Q,Q
2023-03-14 17:20:19:931,0,1.05252,-4.57107,76.7731,Q,Q
2023-03-14 17:20:19:941,0,1.02325,-4.61534,76.6236,Q,Q
2023-03-14 17:20:19:951,0,0.992645,-4.66502,76.4631,Q,Q
2023-03-14 17:20:19:961,0,0.954679,-4.71735,76.3012,Q,Q
2023-03-14 17:20:19:971,0,0.920204,-4.76805,76.1361,Q,Q
2023-03-14 17:20:19:981,0,0.887952,-4.8259,75.9752,Q,Q
2023-03-14 17:20:19:991,0,0.864846,-4.88679,75.8234,Q,Q
2023-03-14 17:20:20:1,0,0.846331,-4.94724,75.6815,Q,Q
2023-03-14 17:20:20:11,0,0.824694,-5.00498,75.5443,Q,Q
2023-03-14 17:20:20:21,0,0.795656,-5.06326,75.4238,Q,Q
2023-03-14 17:20:20:31,0,0.771264,-5.11976,75.3114,Q,Q
2023-03-14 17:20:20:41,0,0.744934,-5.17606,75.21,Q,Q
2023-03-14 17:20:20:51,0,0.7198,-5.23099,75.1126,Q,Q
2023-03-14 17:20:20:61,0,0.698783,-5.28799,75.0248,Q,Q
2023-03-14 17:20:20:71,0,0.683265,-5.34727,74.9427,Q,Q
2023-03-14 17:20:20:81,0,0.674936,-5.41286,74.8681,Q,Q
2023-03-14 17:20:20:91,0,0.673127,-5.48337,74.7994,Q,Q
2023-03-14 17:20:20:101,0,0.668823,-5.55066,74.741,Q,Q
2023-03-14 17:20:20:111,0,0.665175,-5.61847,74.6896,Q,Q
2023-03-14 17:20:20:121,0,0.660057,-5.68343,74.6445,Q,Q
2023-03-14 17:20:20:131,0,0.646565,-5.74173,74.6014,Q,Q
2023-03-14 17:20:20:141,0,0.626227,-5.79799,74.5651,Q,Q
2023-03-14 17:20:20:151,0,0.6039,-5.85386,74.531,Q,Q
2023-03-14 17:20:20:161,0,0.579141,-5.90238,74.4961,Q,Q
2023-03-14 17:20:20:171,0,0.557744,-5.94479,74.4646,Q,Q
2023-03-14 17:20:20:181,0,0.53382,-5.97966,74.4314,Q,Q
2023-03-14 17:20:20:191,0,0.509122,-6.00965,74.3956,Q,Q
2023-03-14 17:20:20:201,0,0.481136,-6.03675,74.3602,Q,Q
2023-03-14 17:20:20:211,0,0.446189,-6.06244,74.3337,Q,Q
2023-03-14 17:20:20:221,0,0.412782,-6.09133,74.3091,Q,Q
2023-03-14 17:20:20:231,0,0.377406,-6.1173,74.286,Q,Q
2023-03-14 17:20:20:241,0,0.344791,-6.14144,74.2642,Q,Q
2023-03-14 17:20:20:251,0,0.317767,-6.16314,74.2457,Q,Q
2023-03-14 17:20:20:261,0,0.301332,-6.184,74.2287,Q,Q
2023-03-14 17:20:20:271,0,0.298937,-6.20052,74.2112,Q,Q
2023-03-14 17:20:20:281,0,0.301545,-6.2191,74.2008,Q,Q
2023-03-14 17:20:20:291,0,0.319184,-6.23266,74.1863,Q,Q
2023-03-14 17:20:20:301,0,0.338272,-6.24089,74.1735,Q,Q
2023-03-14 17:20:20:311,0,0.362679,-6.24733,74.1559,Q,Q
2023-03-14 17:20:20:321,0,0.389624,-6.24611,74.1421,Q,Q
2023-03-14 17:20:20:331,0,0.42171,-6.24601,74.1292,Q,Q
2023-03-14 17:20:20:341,0,0.45369,-6.24211,74.1155,Q,Q
2023-03-14 17:20:20:351,0,0.488133,-6.23244,74.1048,Q,Q
2023-03-14 17:20:20:361,0,0.514012,-6.22172,74.0981,Q,Q
2023-03-14 17:20:20:371,0,0.535612,-6.2108,74.0926,Q,Q
2023-03-14 17:20:20:381,0,0.553059,-6.20139,74.0906,Q,Q
2023-03-14 17:20:20:391,0,0.563631,-6.19548,74.0914,Q,Q
2023-03-14 17:20:20:401,0,0.573893,-6.19146,74.0958,Q,Q
2023-03-14 17:20:20:411,0,0.580251,-6.18322,74.1063,Q,Q
2023-03-14 17:20:20:421,0,0.586403,-6.17897,74.1141,Q,Q
2023-03-14 17:20:20:431,0,0.588522,-6.17334,74.126,Q,Q
2023-03-14 17:20:20:441,0,0.587252,-6.16379,74.1472,Q,Q
2023-03-14 17:20:20:451,0,0.590282,-6.15664,74.166,Q,Q
2023-03-14 17:20:20:461,0,0.587723,-6.14968,74.1864,Q,Q
2023-03-14 17:20:20:471,0,0.578997,-6.14499,74.2092,Q,Q
2023-03-14 17:20:20:481,0,0.572196,-6.14464,74.2297,Q,Q
2023-03-14 17:20:20:491,0,0.562306,-6.14065,74.253,Q,Q
2023-03-14 17:20:20:501,0,0.551657,-6.13679,74.2767,Q,Q
2023-03-14 17:20:20:511,0,0.539662,-6.13597,74.3009,Q,Q
2023-03-14 17:20:20:521,0,0.530209,-6.13309,74.3226,Q,Q
2023-03-14 17:20:20:531,0,0.520996,-6.12814,74.3407,Q,Q
2023-03-14 17:20:20:541,0,0.512157,-6.11882,74.3583,Q,Q
2023-03-14 17:20:20:551,0,0.505889,-6.11142,74.3757,Q,Q
2023-03-14 17:20:20:561,0,0.503435,-6.10114,74.3916,Q,Q
2023-03-14 17:20:20:571,0,0.498656,-6.09224,74.4081,Q,Q
2023-03-14 17:20:20:581,0,0.493437,-6.08253,74.4268,Q,Q
2023-03-14 17:20:20:591,0,0.493692,-6.07241,74.4455,Q,Q
2023-03-14 17:20:20:601,0,0.490357,-6.05977,74.4641,Q,Q
2023-03-14 17:20:20:611,0,0.485988,-6.04606,74.4804,Q,Q
2023-03-14 17:20:20:621,0,0.482557,-6.03215,74.5023,Q,Q
2023-03-14 17:20:20:631,0,0.477315,-6.01612,74.523,Q,Q
2023-03-14 17:20:20:641,0,0.469301,-6.00546,74.5427,Q,Q
2023-03-14 17:20:20:651,0,0.460962,-5.99088,74.5633,Q,Q
2023-03-14 17:20:20:661,0,0.451905,-5.98051,74.5868,Q,Q
2023-03-14 17:20:20:671,0,0.441991,-5.97071,74.6045,Q,Q
2023-03-14 17:20:20:681,0,0.434829,-5.96389,74.6219,Q,Q
2023-03-14 17:20:20:691,0,0.431733,-5.95647,74.6328,Q,Q
2023-03-14 17:20:20:701,0,0.429193,-5.95135,74.6427,Q,Q
2023-03-14 17:20:20:711,0,0.432226,-5.94943,74.6478,Q,Q
2023-03-14 17:20:20:721,0,0.441195,-5.94779,74.6503,Q,Q
2023-03-14 17:20:20:731,0,0.453925,-5.94198,74.6456,Q,Q
2023-03-14 17:20:20:741,0,0.467424,-5.93817,74.6359,Q,Q
2023-03-14 17:20:20:751,0,0.480412,-5.93174,74.6223,Q,Q
2023-03-14 17:20:20:761,0,0.498146,-5.93283,74.6071,Q,Q
2023-03-14 17:20:20:771,0,0.520785,-5.93272,74.5939,Q,Q
2023-03-14 17:20:20:781,0,0.546044,-5.93006,74.5797,Q,Q
2023-03-14 17:20:20:791,0,0.576325,-5.93021,74.5672,Q,Q
2023-03-14 17:20:20:801,0,0.608781,-5.93242,74.5547,Q,Q
2023-03-14 17:20:20:811,0,0.64748,-5.9352,74.5383,Q,Q
2023-03-14 17:20:20:821,0,0.685941,-5.94409,74.5206,Q,Q
2023-03-14 17:20:20:831,0,0.721647,-5.95505,74.5023,Q,Q
2023-03-14 17:20:20:841,0,0.754117,-5.9654,74.4892,Q,Q
2023-03-14 17:20:20:851,0,0.780626,-5.97044,74.4766,Q,Q
2023-03-14 17:20:20:861,0,0.80697,-5.97254,74.4656,Q,Q
2023-03-14 17:20:20:871,0,0.825173,-5.97212,74.4603,Q,Q
2023-03-14 17:20:20:881,0,0.837002,-5.96797,74.4541,Q,Q
2023-03-14 17:20:20:891,0,0.842543,-5.96493,74.4532,Q,Q
2023-03-14 17:20:20:901,0,0.845328,-5.95559,74.4547,Q,Q
2023-03-14 17:20:20:911,0,0.841173,-5.94695,74.4601,Q,Q
2023-03-14 17:20:20:921,0,0.833269,-5.93137,74.4666,Q,Q
2023-03-14 17:20:20:931,0,0.818729,-5.91572,74.4707,Q,Q
2023-03-14 17:20:20:941,0,0.800177,-5.89708,74.4743,Q,Q
2023-03-14 17:20:20:951,0,0.778938,-5.8787,74.4779,Q,Q
2023-03-14 17:20:20:961,0,0.756168,-5.85894,74.4778,Q,Q
2023-03-14 17:20:20:971,0,0.740686,-5.83757,74.4762,Q,Q
2023-03-14 17:20:20:981,0,0.726542,-5.81699,74.4701,Q,Q
2023-03-14 17:20:20:991,0,0.716187,-5.79876,74.4593,Q,Q
2023-03-14 17:20:21:1,0,0.707969,-5.78108,74.4445,Q,Q
2023-03-14 17:20:21:11,0,0.704476,-5.76701,74.4276,Q,Q
2023-03-14 17:20:21:21,0,0.709175,-5.75558,74.409,Q,Q
2023-03-14 17:20:21:31,0,0.713302,-5.73775,74.3934,Q,Q
2023-03-14 17:20:21:41,0,0.722704,-5.72119,74.3672,Q,Q
2023-03-14 17:20:21:51,0,0.73844,-5.69952,74.3377,Q,Q
2023-03-14 17:20:21:61,0,0.759781,-5.67784,74.3063,Q,Q
2023-03-14 17:20:21:71,0,0.781462,-5.65858,74.2739,Q,Q
2023-03-14 17:20:21:81,0,0.805282,-5.64469,74.2425,Q,Q
2023-03-14 17:20:21:91,0,0.82979,-5.63541,74.2088,Q,Q
2023-03-14 17:20:21:101,0,0.849451,-5.62578,74.1792,Q,Q
2023-03-14 17:20:21:111,0,0.8682,-5.62055,74.1465,Q,Q
2023-03-14 17:20:21:121,0,0.882953,-5.61181,74.1168,Q,Q
2023-03-14 17:20:21:131,0,0.897824,-5.60397,74.0837,Q,Q
2023-03-14 17:20:21:141,0,0.910498,-5.59607,74.0508,Q,Q
2023-03-14 17:20:21:151,0,0.920717,-5.58815,74.0164,Q,Q
2023-03-14 17:20:21:161,0,0.935077,-5.58354,73.9808,Q,Q
2023-03-14 17:20:21:171,0,0.946786,-5.58056,73.9477,Q,Q
2023-03-14 17:20:21:181,0,0.957619,-5.58015,73.9088,Q,Q
2023-03-14 17:20:21:191,0,0.970706,-5.58185,73.8714,Q,Q
2023-03-14 17:20:21:201,0,0.976966,-5.58411,73.8327,Q,Q
2023-03-14 17:20:21:211,0,0.980934,-5.58353,73.7923,Q,Q
2023-03-14 17:20:21:221,0,0.983624,-5.58596,73.7491,Q,Q
2023-03-14 17:20:21:231,0,0.9872,-5.58644,73.7014,Q,Q
2023-03-14 17:20:21:241,0,0.983761,-5.5905,73.6565,Q,Q
2023-03-14 17:20:21:251,0,0.977481,-5.59628,73.608,Q,Q
2023-03-14 17:20:21:261,0,0.966407,-5.59927,73.5603,Q,Q
2023-03-14 17:20:21:271,0,0.953948,-5.59956,73.5071,Q,Q
2023-03-14 17:20:21:281,0,0.941462,-5.60142,73.4526,Q,Q
2023-03-14 17:20:21:291,0,0.926452,-5.60259,73.402,Q,Q
2023-03-14 17:20:21:301,0,0.905776,-5.60815,73.344,Q,Q
2023-03-14 17:20:21:311,0,0.880653,-5.61447,73.2904,Q,Q
2023-03-14 17:20:21:321,0,0.85684,-5.62008,73.2372,Q,Q
2023-03-14 17:20:21:331,0,0.833539,-5.62282,73.1866,Q,Q
2023-03-14 17:20:21:341,0,0.808097,-5.62853,73.1372,Q,Q
2023-03-14 17:20:21:351,0,0.781878,-5.63323,73.0886,Q,Q
2023-03-14 17:20:21:361,0,0.756887,-5.64002,73.0412,Q,Q
2023-03-14 17:20:21:371,0,0.730932,-5.64218,72.9964,Q,Q
2023-03-14 17:20:21:381,0,0.709105,-5.64562,72.9539,Q,Q
2023-03-14 17:20:21:391,0,0.682845,-5.64738,72.9159,Q,Q
2023-03-14 17:20:21:401,0,0.660904,-5.64782,72.8748,Q,Q
2023-03-14 17:20:21:411,0,0.641476,-5.64582,72.8373,Q,Q
2023-03-14 17:20:21:421,0,0.626579,-5.64143,72.8006,Q,Q
2023-03-14 17:20:21:431,0,0.61308,-5.6333,72.7686,Q,Q
2023-03-14 17:20:21:441,0,0.603779,-5.62435,72.7351,Q,Q
2023-03-14 17:20:21:451,0,0.593865,-5.61857,72.704,Q,Q
2023-03-14 17:20:21:461,0,0.586819,-5.60885,72.6721,Q,Q
2023-03-14 17:20:21:471,0,0.579151,-5.59945,72.6369,Q,Q
2023-03-14 17:20:21:481,0,0.57556,-5.59083,72.6047,Q,Q
2023-03-14 17:20:21:491,0,0.570247,-5.58145,72.5696,Q,Q
2023-03-14 17:20:21:501,0,0.564312,-5.57335,72.5369,Q,Q
2023-03-14 17:20:21:511,0,0.555115,-5.56772,72.5037,Q,Q
2023-03-14 17:20:21:521,0,0.545079,-5.56539,72.469,Q,Q
2023-03-14 17:20:21:531,0,0.534828,-5.56327,72.4335,Q,Q
2023-03-14 17:20:21:541,0,0.521176,-5.55775,72.4,Q,Q
2023-03-14 17:20:21:551,0,0.503712,-5.54891,72.3641,Q,Q
2023-03-14 17:20:21:561,0,0.487381,-5.53685,72.331,Q,Q
2023-03-14 17:20:21:571,0,0.469943,-5.52386,72.2954,Q,Q
2023-03-14 17:20:21:581,0,0.446775,-5.50982,72.2665,Q,Q
2023-03-14 17:20:21:591,0,0.42356,-5.48714,72.2363,Q,Q
2023-03-14 17:20:21:601,0,0.404384,-5.46666,72.2124,Q,Q
2023-03-14 17:20:21:611,0,0.380256,-5.43865,72.19,Q,Q
2023-03-14 17:20:21:621,0,0.357372,-5.41201,72.1665,Q,Q
2023-03-14 17:20:21:631,0,0.335793,-5.38248,72.1445,Q,Q
2023-03-14 17:20:21:641,0,0.318185,-5.35328,72.1312,Q,Q
2023-03-14 17:20:21:651,0,0.304817,-5.3234,72.1181,Q,Q
2023-03-14 17:20:21:661,0,0.29874,-5.29381,72.1078,Q,Q
2023-03-14 17:20:21:671,0,0.296945,-5.25867,72.1016,Q,Q
2023-03-14 17:20:21:681,0,0.3004,-5.22919,72.0946,Q,Q
2023-03-14 17:20:21:691,0,0.307477,-5.20213,72.0886,Q,Q
2023-03-14 17:20:21:701,0,0.313068,-5.17974,72.0848,Q,Q
2023-03-14 17:20:21:711,0,0.323759,-5.16651,72.0794,Q,Q
2023-03-14 17:20:21:721,0,0.330414,-5.15396,72.0756,Q,Q
2023-03-14 17:20:21:731,0,0.332444,-5.14667,72.0738,Q,Q
2023-03-14 17:20:21:741,0,0.335945,-5.1496,72.0724,Q,Q
2023-03-14 17:20:21:751,0,0.336446,-5.14869,72.0723,Q,Q
2023-03-14 17:20:21:761,0,0.339985,-5.15562,72.071,Q,Q
2023-03-14 17:20:21:771,0,0.340155,-5.16492,72.0696,Q,Q
2023-03-14 17:20:21:781,0,0.341389,-5.17688,72.0733,Q,Q
2023-03-14 17:20:21:791,0,0.347752,-5.18816,72.0766,Q,Q
2023-03-14 17:20:21:801,0,0.353734,-5.20515,72.0835,Q,Q
2023-03-14 17:20:21:811,0,0.35848,-5.21918,72.0951,Q,Q
2023-03-14 17:20:21:821,0,0.365146,-5.235,72.1073,Q,Q
2023-03-14 17:20:21:831,0,0.366467,-5.25239,72.123,Q,Q
2023-03-14 17:20:21:841,0,0.360161,-5.27098,72.1377,Q,Q
2023-03-14 17:20:21:851,0,0.359308,-5.29085,72.1524,Q,Q
2023-03-14 17:20:21:861,0,0.358655,-5.30371,72.168,Q,Q
2023-03-14 17:20:21:871,0,0.361312,-5.31992,72.1849,Q,Q
2023-03-14 17:20:21:881,0,0.365755,-5.33534,72.2007,Q,Q
2023-03-14 17:20:21:891,0,0.371552,-5.35259,72.2161,Q,Q
2023-03-14 17:20:21:901,0,0.378489,-5.36726,72.2367,Q,Q
2023-03-14 17:20:21:911,0,0.387577,-5.38012,72.2549,Q,Q
2023-03-14 17:20:21:921,0,0.399038,-5.38915,72.2691,Q,Q
2023-03-14 17:20:21:931,0,0.411707,-5.39155,72.2803,Q,Q
2023-03-14 17:20:21:941,0,0.430499,-5.38681,72.2866,Q,Q
2023-03-14 17:20:21:951,0,0.455585,-5.38822,72.2914,Q,Q
2023-03-14 17:20:21:961,0,0.485711,-5.39452,72.3004,Q,Q
2023-03-14 17:20:21:971,0,0.517029,-5.39845,72.3062,Q,Q
2023-03-14 17:20:21:981,0,0.552935,-5.40306,72.3152,Q,Q
2023-03-14 17:20:21:991,0,0.587576,-5.40536,72.3193,Q,Q
2023-03-14 17:20:22:1,0,0.618931,-5.40325,72.3241,Q,Q
2023-03-14 17:20:22:11,0,0.653816,-5.39769,72.328,Q,Q
2023-03-14 17:20:22:21,0,0.697569,-5.39322,72.3348,Q,Q
2023-03-14 17:20:22:31,0,0.739723,-5.3861,72.3427,Q,Q
2023-03-14 17:20:22:41,0,0.781033,-5.37935,72.3517,Q,Q
2023-03-14 17:20:22:51,0,0.825039,-5.37056,72.3619,Q,Q
2023-03-14 17:20:22:61,0,0.869083,-5.35846,72.3766,Q,Q
2023-03-14 17:20:22:71,0,0.911303,-5.34638,72.3893,Q,Q
2023-03-14 17:20:22:81,0,0.951215,-5.33309,72.4055,Q,Q
2023-03-14 17:20:22:91,0,0.987171,-5.32519,72.4211,Q,Q
2023-03-14 17:20:22:101,0,1.02283,-5.31677,72.4357,Q,Q
2023-03-14 17:20:22:111,0,1.05682,-5.31155,72.4552,Q,Q
2023-03-14 17:20:22:121,0,1.08936,-5.30842,72.4723,Q,Q
2023-03-14 17:20:22:131,0,1.12139,-5.30832,72.4909,Q,Q
2023-03-14 17:20:22:141,0,1.14721,-5.30935,72.5114,Q,Q
2023-03-14 17:20:22:151,0,1.17359,-5.31093,72.5327,Q,Q
2023-03-14 17:20:22:161,0,1.19503,-5.31738,72.5608,Q,Q
2023-03-14 17:20:22:171,0,1.21824,-5.31963,72.5876,Q,Q
2023-03-14 17:20:22:181,0,1.23569,-5.32378,72.6191,Q,Q
2023-03-14 17:20:22:191,0,1.24746,-5.32927,72.6495,Q,Q
2023-03-14 17:20:22:201,0,1.25361,-5.33434,72.6809,Q,Q
2023-03-14 17:20:22:211,0,1.26142,-5.34237,72.7162,Q,Q
2023-03-14 17:20:22:221,0,1.26849,-5.34966,72.7502,Q,Q
2023-03-14 17:20:22:231,0,1.27361,-5.35867,72.7821,Q,Q
2023-03-14 17:20:22:241,0,1.28438,-5.36996,72.8187,Q,Q
2023-03-14 17:20:22:251,0,1.29054,-5.38177,72.8555,Q,Q
2023-03-14 17:20:22:261,0,1.29841,-5.39945,72.8922,Q,Q
2023-03-14 17:20:22:271,0,1.3057,-5.41845,72.9311,Q,Q
2023-03-14 17:20:22:281,0,1.31984,-5.4403,72.9686,Q,Q
2023-03-14 17:20:22:291,0,1.33315,-5.4638,73.0096,Q,Q
2023-03-14 17:20:22:301,0,1.3446,-5.48671,73.049,Q,Q
2023-03-14 17:20:22:311,0,1.36502,-5.50895,73.0888,Q,Q
2023-03-14 17:20:22:321,0,1.39611,-5.52479,73.1257,Q,Q
2023-03-14 17:20:22:331,0,1.4348,-5.54133,73.1633,Q,Q
2023-03-14 17:20:22:341,0,1.48542,-5.55537,73.2021,Q,Q
2023-03-14 17:20:22:351,0,1.54161,-5.567,73.2433,Q,Q
2023-03-14 17:20:22:361,0,1.59481,-5.58312,73.2869,Q,Q
2023-03-14 17:20:22:371,0,1.64854,-5.59714,73.3332,Q,Q
2023-03-14 17:20:22:381,0,1.69335,-5.60136,73.3803,Q,Q
2023-03-14 17:20:22:391,0,1.72358,-5.59764,73.4272,Q,Q
2023-03-14 17:20:22:401,0,1.74313,-5.58672,73.4675,Q,Q
2023-03-14 17:20:22:411,0,1.75496,-5.56952,73.5071,Q,Q
2023-03-14 17:20:22:421,0,1.76036,-5.55115,73.5477,Q,Q
2023-03-14 17:20:22:431,0,1.76227,-5.53635,73.5898,Q,Q
2023-03-14 17:20:22:441,0,1.75824,-5.52722,73.6394,Q,Q
2023-03-14 17:20:22:451,0,1.74901,-5.52592,73.6884,Q,Q
2023-03-14 17:20:22:461,0,1.73456,-5.52951,73.7385,Q,Q
2023-03-14 17:20:22:471,0,1.70817,-5.54358,73.7926,Q,Q
2023-03-14 17:20:22:481,0,1.67551,-5.55957,73.8513,Q,Q
2023-03-14 17:20:22:491,0,1.63757,-5.57506,73.907,Q,Q
2023-03-14 17:20:22:501,0,1.60125,-5.5872,73.963,Q,Q
2023-03-14 17:20:22:511,0,1.56144,-5.60071,74.0172,Q,Q
2023-03-14 17:20:22:521,0,1.51954,-5.61801,74.0724,Q,Q
2023-03-14 17:20:22:530,0,1.48307,-5.63229,74.1264,Q,Q
2023-03-14 17:20:22:541,0,1.46002,-5.64507,74.1771,Q,Q
2023-03-14 17:20:22:551,0,1.45196,-5.65478,74.23,Q,Q
2023-03-14 17:20:22:561,0,1.45626,-5.66292,74.2809,Q,Q
2023-03-14 17:20:22:571,0,1.4691,-5.66594,74.333,Q,Q
2023-03-14 17:20:22:581,0,1.48446,-5.66445,74.3829,Q,Q
2023-03-14 17:20:22:591,0,1.50667,-5.65807,74.4358,Q,Q
2023-03-14 17:20:22:601,0,1.53135,-5.64677,74.489,Q,Q
2023-03-14 17:20:22:611,0,1.55506,-5.62985,74.5437,Q,Q
2023-03-14 17:20:22:621,0,1.57844,-5.60707,74.5972,Q,Q
2023-03-14 17:20:22:631,0,1.60249,-5.58507,74.6526,Q,Q
2023-03-14 17:20:22:641,0,1.63403,-5.56647,74.7074,Q,Q
2023-03-14 17:20:22:651,0,1.67602,-5.54007,74.7611,Q,Q
2023-03-14 17:20:22:661,0,1.7236,-5.5098,74.8105,Q,Q
2023-03-14 17:20:22:671,0,1.77572,-5.47758,74.8512,Q,Q
2023-03-14 17:20:22:681,0,1.83254,-5.44381,74.8861,Q,Q
2023-03-14 17:20:22:691,0,1.89354,-5.40782,74.923,Q,Q
2023-03-14 17:20:22:701,0,1.95754,-5.37686,74.9569,Q,Q
2023-03-14 17:20:22:711,0,2.0166,-5.34979,74.9827,Q,Q
2023-03-14 17:20:22:721,0,2.07225,-5.32318,75.0098,Q,Q
2023-03-14 17:20:22:731,0,2.13732,-5.29106,75.0332,Q,Q
2023-03-14 17:20:22:741,0,2.2069,-5.26408,75.0556,Q,Q
2023-03-14 17:20:22:751,0,2.27517,-5.24332,75.0777,Q,Q
2023-03-14 17:20:22:761,0,2.34003,-5.22566,75.1002,Q,Q
2023-03-14 17:20:22:771,0,2.40268,-5.20911,75.1291,Q,Q
2023-03-14 17:20:22:781,0,2.45998,-5.19898,75.1584,Q,Q
2023-03-14 17:20:22:791,0,2.51154,-5.19169,75.1907,Q,Q
2023-03-14 17:20:22:801,0,2.55837,-5.19194,75.2259,Q,Q
2023-03-14 17:20:22:811,0,2.59616,-5.19034,75.268,Q,Q
2023-03-14 17:20:22:821,0,2.62859,-5.19001,75.3089,Q,Q
2023-03-14 17:20:22:831,0,2.66429,-5.18617,75.3467,Q,Q
2023-03-14 17:20:22:841,0,2.68916,-5.17938,75.3816,Q,Q
2023-03-14 17:20:22:851,0,2.70761,-5.16725,75.4152,Q,Q
2023-03-14 17:20:22:861,0,2.72033,-5.15991,75.451,Q,Q
2023-03-14 17:20:22:871,0,2.72554,-5.16139,75.492,Q,Q
2023-03-14 17:20:22:881,0,2.7352,-5.17767,75.5406,Q,Q
2023-03-14 17:20:22:891,0,2.74149,-5.20847,75.6003,Q,Q
2023-03-14 17:20:22:901,0,2.74666,-5.25331,75.678,Q,Q
2023-03-14 17:20:22:911,0,2.75488,-5.30738,75.7591,Q,Q
2023-03-14 17:20:22:921,0,2.75781,-5.36622,75.8379,Q,Q
2023-03-14 17:20:22:931,0,2.76259,-5.40787,75.9124,Q,Q
2023-03-14 17:20:22:941,0,2.76549,-5.44433,75.9838,Q,Q
2023-03-14 17:20:22:951,0,2.76173,-5.46782,76.0511,Q,Q
2023-03-14 17:20:22:961,0,2.75031,-5.47976,76.1154,Q,Q
2023-03-14 17:20:22:971,0,2.73539,-5.48917,76.1775,Q,Q
2023-03-14 17:20:22:981,0,2.71838,-5.49713,76.2364,Q,Q
2023-03-14 17:20:22:991,0,2.70806,-5.50109,76.2917,Q,Q
2023-03-14 17:20:23:1,0,2.70523,-5.51118,76.3473,Q,Q
2023-03-14 17:20:23:11,0,2.70696,-5.52421,76.3987,Q,Q
2023-03-14 17:20:23:21,0,2.71037,-5.54342,76.4523,Q,Q
2023-03-14 17:20:23:31,0,2.71224,-5.56441,76.5087,Q,Q
2023-03-14 17:20:23:41,0,2.71381,-5.58861,76.5652,Q,Q
2023-03-14 17:20:23:51,0,2.7183,-5.6132,76.6221,Q,Q
2023-03-14 17:20:23:61,0,2.72328,-5.63868,76.6834,Q,Q
2023-03-14 17:20:23:71,0,2.72648,-5.66666,76.7441,Q,Q
2023-03-14 17:20:23:81,0,2.7343,-5.68549,76.8061,Q,Q
2023-03-14 17:20:23:91,0,2.74139,-5.70032,76.8648,Q,Q
2023-03-14 17:20:23:101,0,2.75117,-5.70881,76.9222,Q,Q
2023-03-14 17:20:23:111,0,2.76806,-5.71853,76.9788,Q,Q
2023-03-14 17:20:23:121,0,2.78391,-5.72126,77.0372,Q,Q
2023-03-14 17:20:23:131,0,2.803,-5.71724,77.0919,Q,Q
2023-03-14 17:20:23:141,0,2.8235,-5.70371,77.1424,Q,Q
2023-03-14 17:20:23:151,0,2.84772,-5.68394,77.1834,Q,Q
2023-03-14 17:20:23:161,0,2.87192,-5.66324,77.2219,Q,Q
2023-03-14 17:20:23:171,0,2.89948,-5.64412,77.257,Q,Q
2023-03-14 17:20:23:181,0,2.93101,-5.62871,77.2951,Q,Q
2023-03-14 17:20:23:191,0,2.96352,-5.61559,77.3373,Q,Q
2023-03-14 17:20:23:201,0,3.00135,-5.6171,77.3861,Q,Q
2023-03-14 17:20:23:211,0,3.04086,-5.61985,77.4437,Q,Q
2023-03-14 17:20:23:221,0,3.08277,-5.62609,77.5029,Q,Q
2023-03-14 17:20:23:231,0,3.11972,-5.62834,77.5556,Q,Q
2023-03-14 17:20:23:241,0,3.14888,-5.62721,77.6022,Q,Q
2023-03-14 17:20:23:251,0,3.16642,-5.62272,77.6427,Q,Q
2023-03-14 17:20:23:261,0,3.17212,-5.61736,77.6853,Q,Q
2023-03-14 17:20:23:271,0,3.16974,-5.60527,77.7172,Q,Q
2023-03-14 17:20:23:281,0,3.16365,-5.5861,77.7396,Q,Q
2023-03-14 17:20:23:291,0,3.15598,-5.55355,77.7564,Q,Q
2023-03-14 17:20:23:301,0,3.15238,-5.51584,77.7691,Q,Q
2023-03-14 17:20:23:311,0,3.15426,-5.46487,77.7777,Q,Q
2023-03-14 17:20:23:321,0,3.16026,-5.40921,77.7832,Q,Q
2023-03-14 17:20:23:331,0,3.1649,-5.35701,77.7945,Q,Q
2023-03-14 17:20:23:341,0,3.16772,-5.30845,77.8099,Q,Q
2023-03-14 17:20:23:351,0,3.16953,-5.26188,77.8293,Q,Q
2023-03-14 17:20:23:361,0,3.17664,-5.21376,77.8472,Q,Q
2023-03-14 17:20:23:371,0,3.1855,-5.15753,77.8595,Q,Q
2023-03-14 17:20:23:381,0,3.19308,-5.09803,77.8724,Q,Q
2023-03-14 17:20:23:391,0,3.20423,-5.03798,77.8779,Q,Q
2023-03-14 17:20:23:401,0,3.21649,-4.96927,77.879,Q,Q
2023-03-14 17:20:23:411,0,3.23381,-4.90046,77.8745,Q,Q
2023-03-14 17:20:23:421,0,3.25012,-4.82716,77.8645,Q,Q
2023-03-14 17:20:23:431,0,3.26968,-4.76067,77.8451,Q,Q
2023-03-14 17:20:23:441,0,3.29643,-4.69958,77.8136,Q,Q
2023-03-14 17:20:23:451,0,3.32582,-4.64954,77.7775,Q,Q
2023-03-14 17:20:23:461,0,3.35598,-4.60755,77.7331,Q,Q
2023-03-14 17:20:23:471,0,3.38391,-4.57714,77.6773,Q,Q
2023-03-14 17:20:23:481,0,3.41184,-4.55476,77.6129,Q,Q
2023-03-14 17:20:23:491,0,3.43691,-4.5375,77.544,Q,Q
2023-03-14 17:20:23:501,0,3.45853,-4.52687,77.4683,Q,Q
2023-03-14 17:20:23:511,0,3.47623,-4.52041,77.3957,Q,Q
2023-03-14 17:20:23:521,0,3.48594,-4.51785,77.3348,Q,Q
2023-03-14 17:20:23:531,0,3.49467,-4.52862,77.2754,Q,Q
2023-03-14 17:20:23:541,0,3.49356,-4.54461,77.2285,Q,Q
2023-03-14 17:20:23:551,0,3.4889,-4.57064,77.1954,Q,Q
2023-03-14 17:20:23:561,0,3.47559,-4.60063,77.1769,Q,Q
2023-03-14 17:20:23:571,0,3.45752,-4.63556,77.1701,Q,Q
2023-03-14 17:20:23:581,0,3.44168,-4.66933,77.1786,Q,Q
2023-03-14 17:20:23:591,0,3.42029,-4.70528,77.2058,Q,Q
2023-03-14 17:20:23:601,0,3.39701,-4.7513,77.2546,Q,Q
2023-03-14 17:20:23:611,0,3.36904,-4.80395,77.3228,Q,Q
2023-03-14 17:20:23:621,0,3.33694,-4.85938,77.4118,Q,Q
2023-03-14 17:20:23:631,0,3.30105,-4.91338,77.5163,Q,Q
2023-03-14 17:20:23:641,0,3.26759,-4.96419,77.6306,Q,Q
2023-03-14 17:20:23:651,0,3.23031,-5.00663,77.7462,Q,Q
2023-03-14 17:20:23:661,0,3.19096,-5.03171,77.8607,Q,Q
2023-03-14 17:20:23:671,0,3.15219,-5.03398,77.9684,Q,Q
2023-03-14 17:20:23:681,0,3.11428,-5.01342,78.0634,Q,Q
2023-03-14 17:20:23:691,0,3.08787,-4.97181,78.1428,Q,Q
2023-03-14 17:20:23:701,0,3.06747,-4.9271,78.2063,Q,Q
2023-03-14 17:20:23:711,0,3.0541,-4.88742,78.2566,Q,Q
2023-03-14 17:20:23:721,0,3.05003,-4.86595,78.299,Q,Q
2023-03-14 17:20:23:731,0,3.05041,-4.86993,78.3376,Q,Q
2023-03-14 17:20:23:741,0,3.05507,-4.89173,78.37,Q,Q
2023-03-14 17:20:23:751,0,3.06324,-4.92855,78.3948,Q,Q
2023-03-14 17:20:23:761,0,3.07004,-4.96915,78.4144,Q,Q
2023-03-14 17:20:23:771,0,3.072,-5.00304,78.4235,Q,Q
2023-03-14 17:20:23:781,0,3.07599,-5.03015,78.4191,Q,Q
2023-03-14 17:20:23:791,0,3.07809,-5.05175,78.4088,Q,Q
2023-03-14 17:20:23:801,0,3.08059,-5.06821,78.3859,Q,Q
2023-03-14 17:20:23:811,0,3.07786,-5.07578,78.3543,Q,Q
2023-03-14 17:20:23:821,0,3.07728,-5.07369,78.3201,Q,Q
2023-03-14 17:20:23:831,0,3.07309,-5.06269,78.2793,Q,Q
2023-03-14 17:20:23:841,0,3.06403,-5.04396,78.2316,Q,Q
2023-03-14 17:20:23:851,0,3.05528,-5.02184,78.1885,Q,Q
2023-03-14 17:20:23:861,0,3.04045,-5.0008,78.1493,Q,Q
2023-03-14 17:20:23:871,0,3.02792,-4.97934,78.1204,Q,Q
2023-03-14 17:20:23:881,0,3.00967,-4.9618,78.1054,Q,Q
2023-03-14 17:20:23:891,0,2.98484,-4.93984,78.1032,Q,Q
2023-03-14 17:20:23:901,0,2.94893,-4.91749,78.1172,Q,Q
2023-03-14 17:20:23:911,0,2.9055,-4.89685,78.1405,Q,Q
2023-03-14 17:20:23:921,0,2.8497,-4.87098,78.1712,Q,Q
2023-03-14 17:20:23:931,0,2.7882,-4.85056,78.2059,Q,Q
2023-03-14 17:20:23:941,0,2.71881,-4.83561,78.2444,Q,Q
2023-03-14 17:20:23:951,0,2.65067,-4.82239,78.2871,Q,Q
2023-03-14 17:20:23:961,0,2.58391,-4.81162,78.3283,Q,Q
2023-03-14 17:20:23:971,0,2.52142,-4.80122,78.3657,Q,Q
2023-03-14 17:20:23:981,0,2.46728,-4.79048,78.3965,Q,Q
2023-03-14 17:20:23:991,0,2.42052,-4.77432,78.4238,Q,Q
2023-03-14 17:20:24:1,0,2.38708,-4.75535,78.4434,Q,Q
2023-03-14 17:20:24:11,0,2.36491,-4.73287,78.4564,Q,Q
2023-03-14 17:20:24:21,0,2.34821,-4.7036,78.462,Q,Q
2023-03-14 17:20:24:31,0,2.33905,-4.6676,78.462,Q,Q
2023-03-14 17:20:24:41,0,2.33365,-4.62578,78.4495,Q,Q
2023-03-14 17:20:24:51,0,2.33971,-4.58076,78.4298,Q,Q
2023-03-14 17:20:24:61,0,2.34999,-4.53206,78.3978,Q,Q
2023-03-14 17:20:24:71,0,2.36143,-4.47742,78.3547,Q,Q
2023-03-14 17:20:24:81,0,2.38054,-4.42028,78.2994,Q,Q
2023-03-14 17:20:24:91,0,2.40046,-4.36095,78.2425,Q,Q
2023-03-14 17:20:24:101,0,2.42056,-4.30308,78.1788,Q,Q
2023-03-14 17:20:24:111,0,2.44442,-4.24817,78.1181,Q,Q
2023-03-14 17:20:24:121,0,2.4613,-4.1988,78.06,Q,Q
2023-03-14 17:20:24:131,0,2.46989,-4.15735,78.0049,Q,Q
2023-03-14 17:20:24:141,0,2.47197,-4.12681,77.9643,Q,Q
2023-03-14 17:20:24:151,0,2.46776,-4.10619,77.9308,Q,Q
2023-03-14 17:20:24:161,0,2.45531,-4.09069,77.9044,Q,Q
2023-03-14 17:20:24:171,0,2.43337,-4.08075,77.8895,Q,Q
2023-03-14 17:20:24:181,0,2.40624,-4.07367,77.8819,Q,Q
2023-03-14 17:20:24:191,0,2.38068,-4.06938,77.884,Q,Q
2023-03-14 17:20:24:201,0,2.35107,-4.06568,77.8929,Q,Q
2023-03-14 17:20:24:211,0,2.32193,-4.06739,77.9073,Q,Q
2023-03-14 17:20:24:221,0,2.28386,-4.06908,77.9246,Q,Q
2023-03-14 17:20:24:231,0,2.24841,-4.07716,77.9432,Q,Q
2023-03-14 17:20:24:241,0,2.2052,-4.08751,77.959,Q,Q
2023-03-14 17:20:24:251,0,2.16927,-4.10245,77.9723,Q,Q
2023-03-14 17:20:24:261,0,2.13251,-4.12019,77.9879,Q,Q
2023-03-14 17:20:24:271,0,2.10238,-4.14573,78.0057,Q,Q
2023-03-14 17:20:24:281,0,2.07513,-4.17214,78.0212,Q,Q
2023-03-14 17:20:24:291,0,2.05156,-4.20335,78.0412,Q,Q
2023-03-14 17:20:24:301,0,2.03135,-4.23909,78.063,Q,Q
2023-03-14 17:20:24:311,0,2.01823,-4.27667,78.0886,Q,Q
2023-03-14 17:20:24:321,0,2.01256,-4.32393,78.1198,Q,Q
2023-03-14 17:20:24:331,0,2.01401,-4.37672,78.1542,Q,Q
2023-03-14 17:20:24:341,0,2.02193,-4.43375,78.1923,Q,Q
2023-03-14 17:20:24:351,0,2.02963,-4.49225,78.2389,Q,Q
2023-03-14 17:20:24:361,0,2.03772,-4.55101,78.292,Q,Q
2023-03-14 17:20:24:371,0,2.04488,-4.61329,78.3462,Q,Q
2023-03-14 17:20:24:381,0,2.05126,-4.6717,78.4036,Q,Q
2023-03-14 17:20:24:391,0,2.06476,-4.7329,78.4615,Q,Q
2023-03-14 17:20:24:401,0,2.07813,-4.79345,78.5202,Q,Q
2023-03-14 17:20:24:411,0,2.08861,-4.85161,78.5803,Q,Q
2023-03-14 17:20:24:421,0,2.09954,-4.90661,78.6443,Q,Q
2023-03-14 17:20:24:431,0,2.10729,-4.95867,78.7082,Q,Q
2023-03-14 17:20:24:441,0,2.10808,-5.00745,78.7696,Q,Q
2023-03-14 17:20:24:451,0,2.10864,-5.04713,78.8329,Q,Q
2023-03-14 17:20:24:461,0,2.10424,-5.07748,78.895,Q,Q
2023-03-14 17:20:24:471,0,2.09965,-5.10478,78.9575,Q,Q
2023-03-14 17:20:24:481,0,2.09608,-5.12809,79.0163,Q,Q
2023-03-14 17:20:24:491,0,2.09024,-5.14718,79.0705,Q,Q
2023-03-14 17:20:24:501,0,2.08405,-5.15902,79.1222,Q,Q
2023-03-14 17:20:24:511,0,2.0857,-5.16747,79.1709,Q,Q
2023-03-14 17:20:24:521,0,2.08636,-5.17747,79.2182,Q,Q
2023-03-14 17:20:24:531,0,2.08795,-5.1861,79.2603,Q,Q
2023-03-14 17:20:24:541,0,2.09375,-5.19371,79.295,Q,Q
2023-03-14 17:20:24:551,0,2.10258,-5.20567,79.3247,Q,Q
2023-03-14 17:20:24:561,0,2.11689,-5.21999,79.3492,Q,Q
2023-03-14 17:20:24:571,0,2.13529,-5.23271,79.3647,Q,Q
2023-03-14 17:20:24:581,0,2.15499,-5.24493,79.3789,Q,Q
2023-03-14 17:20:24:591,0,2.17476,-5.2532,79.3833,Q,Q
2023-03-14 17:20:24:601,0,2.1941,-5.25794,79.3819,Q,Q
2023-03-14 17:20:24:611,0,2.21465,-5.26115,79.3767,Q,Q
2023-03-14 17:20:24:621,0,2.23346,-5.25904,79.3641,Q,Q
2023-03-14 17:20:24:631,0,2.25373,-5.25558,79.3496,Q,Q
2023-03-14 17:20:24:641,0,2.26962,-5.24397,79.3261,Q,Q
2023-03-14 17:20:24:651,0,2.28305,-5.23255,79.3012,Q,Q
2023-03-14 17:20:24:661,0,2.29498,-5.22474,79.2708,Q,Q
2023-03-14 17:20:24:671,0,2.29902,-5.22036,79.2464,Q,Q
2023-03-14 17:20:24:681,0,2.29411,-5.22016,79.2215,Q,Q
2023-03-14 17:20:24:691,0,2.28231,-5.22325,79.2053,Q,Q
2023-03-14 17:20:24:701,0,2.26802,-5.2271,79.1913,Q,Q
2023-03-14 17:20:24:711,0,2.24872,-5.23328,79.177,Q,Q
2023-03-14 17:20:24:721,0,2.22117,-5.2378,79.1658,Q,Q
2023-03-14 17:20:24:731,0,2.19147,-5.24812,79.1545,Q,Q
2023-03-14 17:20:24:741,0,2.15581,-5.25282,79.1436,Q,Q
2023-03-14 17:20:24:751,0,2.11902,-5.26481,79.1335,Q,Q
2023-03-14 17:20:24:761,0,2.0868,-5.27623,79.1252,Q,Q
2023-03-14 17:20:24:771,0,2.0609,-5.28867,79.1158,Q,Q
2023-03-14 17:20:24:781,0,2.04576,-5.30604,79.1101,Q,Q
2023-03-14 17:20:24:791,0,2.04327,-5.33123,79.1073,Q,Q
2023-03-14 17:20:24:801,0,2.04153,-5.36063,79.1071,Q,Q
2023-03-14 17:20:24:811,0,2.04009,-5.39377,79.1089,Q,Q
2023-03-14 17:20:24:821,0,2.04335,-5.42612,79.1099,Q,Q
2023-03-14 17:20:24:831,0,2.04984,-5.46057,79.1152,Q,Q
2023-03-14 17:20:24:841,0,2.0602,-5.4945,79.1186,Q,Q
2023-03-14 17:20:24:851,0,2.0738,-5.52583,79.125,Q,Q
2023-03-14 17:20:24:861,0,2.08521,-5.56058,79.1297,Q,Q
2023-03-14 17:20:24:871,0,2.09749,-5.59685,79.1306,Q,Q
2023-03-14 17:20:24:881,0,2.11183,-5.62708,79.1354,Q,Q
2023-03-14 17:20:24:891,0,2.12862,-5.66002,79.1412,Q,Q
2023-03-14 17:20:24:901,0,2.14967,-5.70124,79.1445,Q,Q
2023-03-14 17:20:24:911,0,2.17385,-5.73949,79.1486,Q,Q
2023-03-14 17:20:24:921,0,2.19638,-5.77675,79.1547,Q,Q
2023-03-14 17:20:24:931,0,2.22232,-5.81178,79.1612,Q,Q
2023-03-14 17:20:24:941,0,2.24245,-5.84718,79.1679,Q,Q
2023-03-14 17:20:24:951,0,2.26222,-5.87826,79.1769,Q,Q
2023-03-14 17:20:24:961,0,2.28087,-5.90769,79.1847,Q,Q
2023-03-14 17:20:24:971,0,2.29345,-5.9351,79.1913,Q,Q
2023-03-14 17:20:24:981,0,2.3041,-5.95887,79.199,Q,Q
2023-03-14 17:20:24:991,0,2.30985,-5.97356,79.207,Q,Q
2023-03-14 17:20:25:1,0,2.31126,-5.98629,79.2138,Q,Q
2023-03-14 17:20:25:11,0,2.31181,-5.99268,79.2173,Q,Q
2023-03-14 17:20:25:21,0,2.30223,-5.99751,79.2235,Q,Q
2023-03-14 17:20:25:31,0,2.29325,-5.99831,79.2281,Q,Q
2023-03-14 17:20:25:41,0,2.27884,-6.00043,79.2319,Q,Q
2023-03-14 17:20:25:51,0,2.26908,-6.00197,79.2369,Q,Q
2023-03-14 17:20:25:61,0,2.25726,-6.00408,79.2384,Q,Q
2023-03-14 17:20:25:71,0,2.24939,-6.00132,79.2373,Q,Q
2023-03-14 17:20:25:81,0,2.24078,-6.00038,79.2371,Q,Q
2023-03-14 17:20:25:91,0,2.23202,-6.00215,79.2346,Q,Q
2023-03-14 17:20:25:101,0,2.2221,-5.99932,79.2321,Q,Q
2023-03-14 17:20:25:111,0,2.21092,-5.99766,79.2286,Q,Q
2023-03-14 17:20:25:121,0,2.19998,-5.99218,79.2202,Q,Q
2023-03-14 17:20:25:131,0,2.18595,-5.98543,79.2122,Q,Q
2023-03-14 17:20:25:141,0,2.17136,-5.97774,79.2033,Q,Q
2023-03-14 17:20:25:151,0,2.15289,-5.96784,79.1914,Q,Q
2023-03-14 17:20:25:161,0,2.13782,-5.95563,79.1766,Q,Q
2023-03-14 17:20:25:171,0,2.12247,-5.93978,79.1576,Q,Q
2023-03-14 17:20:25:181,0,2.10134,-5.91755,79.1365,Q,Q
2023-03-14 17:20:25:191,0,2.08213,-5.89017,79.1101,Q,Q
2023-03-14 17:20:25:201,0,2.05855,-5.86284,79.0811,Q,Q
2023-03-14 17:20:25:211,0,2.03113,-5.83218,79.0441,Q,Q
2023-03-14 17:20:25:221,0,1.99675,-5.80211,79.0022,Q,Q
2023-03-14 17:20:25:231,0,1.95713,-5.77298,78.9579,Q,Q
2023-03-14 17:20:25:241,0,1.9155,-5.74437,78.9111,Q,Q
2023-03-14 17:20:25:251,0,1.86799,-5.72073,78.8598,Q,Q
2023-03-14 17:20:25:261,0,1.82333,-5.69739,78.8027,Q,Q
2023-03-14 17:20:25:271,0,1.7792,-5.677,78.7403,Q,Q
2023-03-14 17:20:25:281,0,1.73543,-5.66065,78.6743,Q,Q
2023-03-14 17:20:25:291,0,1.69777,-5.64431,78.6075,Q,Q
2023-03-14 17:20:25:301,0,1.6645,-5.63337,78.5406,Q,Q
2023-03-14 17:20:25:311,0,1.6342,-5.62343,78.4738,Q,Q
2023-03-14 17:20:25:321,0,1.60466,-5.61394,78.4122,Q,Q
2023-03-14 17:20:25:331,0,1.575,-5.60532,78.3519,Q,Q
2023-03-14 17:20:25:341,0,1.55215,-5.59873,78.2969,Q,Q
2023-03-14 17:20:25:351,0,1.53298,-5.59112,78.2474,Q,Q
2023-03-14 17:20:25:361,0,1.51742,-5.58102,78.2072,Q,Q
2023-03-14 17:20:25:371,0,1.50645,-5.57242,78.1687,Q,Q
2023-03-14 17:20:25:381,0,1.5048,-5.5665,78.1417,Q,Q
2023-03-14 17:20:25:391,0,1.50445,-5.56133,78.1186,Q,Q
2023-03-14 17:20:25:401,0,1.50496,-5.55473,78.1071,Q,Q
2023-03-14 17:20:25:411,0,1.50783,-5.54866,78.1039,Q,Q
2023-03-14 17:20:25:421,0,1.5041,-5.5463,78.1098,Q,Q
2023-03-14 17:20:25:431,0,1.49671,-5.5426,78.118,Q,Q
2023-03-14 17:20:25:441,0,1.48622,-5.54202,78.1327,Q,Q
2023-03-14 17:20:25:451,0,1.47015,-5.54506,78.1518,Q,Q
2023-03-14 17:20:25:461,0,1.45169,-5.55195,78.1728,Q,Q
2023-03-14 17:20:25:471,0,1.43023,-5.56087,78.1946,Q,Q
2023-03-14 17:20:25:481,0,1.40742,-5.56969,78.2155,Q,Q
2023-03-14 17:20:25:491,0,1.38352,-5.58175,78.2355,Q,Q
2023-03-14 17:20:25:501,0,1.36306,-5.5935,78.2533,Q,Q
2023-03-14 17:20:25:511,0,1.34028,-5.6083,78.2717,Q,Q
2023-03-14 17:20:25:521,0,1.31577,-5.6195,78.2835,Q,Q
2023-03-14 17:20:25:531,0,1.28765,-5.62358,78.2911,Q,Q
2023-03-14 17:20:25:541,0,1.26077,-5.62524,78.2929,Q,Q
2023-03-14 17:20:25:551,0,1.23812,-5.62371,78.2899,Q,Q
2023-03-14 17:20:25:561,0,1.21583,-5.62466,78.288,Q,Q
2023-03-14 17:20:25:571,0,1.19222,-5.624,78.2848,Q,Q
2023-03-14 17:20:25:581,0,1.16699,-5.62126,78.2828,Q,Q
2023-03-14 17:20:25:591,0,1.13896,-5.61419,78.2821,Q,Q
2023-03-14 17:20:25:601,0,1.11439,-5.60185,78.2824,Q,Q
2023-03-14 17:20:25:611,0,1.0928,-5.59051,78.2835,Q,Q
2023-03-14 17:20:25:621,0,1.07415,-5.57712,78.2886,Q,Q
2023-03-14 17:20:25:631,0,1.05711,-5.56188,78.2919,Q,Q
2023-03-14 17:20:25:641,0,1.04526,-5.54984,78.2952,Q,Q
2023-03-14 17:20:25:651,0,1.03647,-5.53611,78.2942,Q,Q
2023-03-14 17:20:25:661,0,1.02589,-5.52797,78.2917,Q,Q
2023-03-14 17:20:25:671,0,1.02066,-5.52557,78.2911,Q,Q
2023-03-14 17:20:25:681,0,1.01628,-5.52403,78.2926,Q,Q
2023-03-14 17:20:25:691,0,1.01079,-5.53055,78.2919,Q,Q
2023-03-14 17:20:25:701,0,1.00654,-5.53673,78.2856,Q,Q
2023-03-14 17:20:25:711,0,1.00169,-5.54263,78.2772,Q,Q
2023-03-14 17:20:25:721,0,1.00026,-5.54914,78.2653,Q,Q
2023-03-14 17:20:25:731,0,1.00143,-5.55758,78.2563,Q,Q
2023-03-14 17:20:25:741,0,0.9995,-5.56113,78.2443,Q,Q
2023-03-14 17:20:25:751,0,1.0002,-5.56762,78.235,Q,Q
2023-03-14 17:20:25:761,0,1.00166,-5.57457,78.2272,Q,Q
2023-03-14 17:20:25:771,0,1.00369,-5.58094,78.2244,Q,Q
2023-03-14 17:20:25:781,0,1.00669,-5.58551,78.225,Q,Q
2023-03-14 17:20:25:791,0,1.01235,-5.59034,78.2242,Q,Q
2023-03-14 17:20:25:801,0,1.01634,-5.59524,78.2283,Q,Q
2023-03-14 17:20:25:811,0,1.01687,-5.59551,78.2334,Q,Q
2023-03-14 17:20:25:821,0,1.01893,-5.59892,78.2452,Q,Q
2023-03-14 17:20:25:831,0,1.0186,-5.60199,78.2573,Q,Q
2023-03-14 17:20:25:841,0,1.01412,-5.60613,78.2699,Q,Q
2023-03-14 17:20:25:851,0,1.00583,-5.61134,78.2819,Q,Q
2023-03-14 17:20:25:861,0,0.994212,-5.6177,78.294,Q,Q
2023-03-14 17:20:25:871,0,0.981258,-5.62751,78.3082,Q,Q
2023-03-14 17:20:25:881,0,0.970634,-5.63673,78.3227,Q,Q
2023-03-14 17:20:25:891,0,0.964069,-5.64899,78.335,Q,Q
2023-03-14 17:20:25:901,0,0.957187,-5.65509,78.3442,Q,Q
2023-03-14 17:20:25:911,0,0.95327,-5.65454,78.356,Q,Q
2023-03-14 17:20:25:921,0,0.947399,-5.65376,78.364,Q,Q
2023-03-14 17:20:25:931,0,0.940652,-5.64729,78.3725,Q,Q
2023-03-14 17:20:25:941,0,0.932848,-5.63887,78.3777,Q,Q
2023-03-14 17:20:25:951,0,0.92161,-5.62806,78.3779,Q,Q
2023-03-14 17:20:25:961,0,0.907669,-5.61115,78.3762,Q,Q
2023-03-14 17:20:25:971,0,0.889023,-5.59003,78.3734,Q,Q
2023-03-14 17:20:25:981,0,0.875913,-5.56949,78.3653,Q,Q
2023-03-14 17:20:25:991,0,0.859567,-5.55026,78.3528,Q,Q
2023-03-14 17:20:26:1,0,0.841675,-5.53018,78.3384,Q,Q
2023-03-14 17:20:26:11,0,0.829715,-5.50754,78.3172,Q,Q
2023-03-14 17:20:26:21,0,0.810339,-5.48329,78.2919,Q,Q
2023-03-14 17:20:26:31,0,0.793931,-5.46323,78.2672,Q,Q
2023-03-14 17:20:26:41,0,0.779731,-5.45015,78.24,Q,Q
2023-03-14 17:20:26:51,0,0.76484,-5.43884,78.211,Q,Q
2023-03-14 17:20:26:61,0,0.74868,-5.43262,78.1802,Q,Q
2023-03-14 17:20:26:71,0,0.736644,-5.43192,78.1511,Q,Q
2023-03-14 17:20:26:81,0,0.724389,-5.43477,78.1236,Q,Q
2023-03-14 17:20:26:91,0,0.718317,-5.43672,78.1001,Q,Q
2023-03-14 17:20:26:101,0,0.715247,-5.43779,78.0777,Q,Q
2023-03-14 17:20:26:111,0,0.724284,-5.43965,78.0637,Q,Q
2023-03-14 17:20:26:121,0,0.739694,-5.4414,78.0468,Q,Q
2023-03-14 17:20:26:131,0,0.759656,-5.44578,78.0316,Q,Q
2023-03-14 17:20:26:141,0,0.778823,-5.44849,78.019,Q,Q
2023-03-14 17:20:26:151,0,0.797508,-5.45128,78.0049,Q,Q
2023-03-14 17:20:26:161,0,0.815339,-5.45686,77.9932,Q,Q
2023-03-14 17:20:26:171,0,0.829719,-5.46427,77.9804,Q,Q
2023-03-14 17:20:26:181,0,0.840495,-5.47021,77.9708,Q,Q
2023-03-14 17:20:26:191,0,0.850142,-5.47764,77.9615,Q,Q
2023-03-14 17:20:26:201,0,0.861697,-5.48513,77.953,Q,Q
2023-03-14 17:20:26:211,0,0.875375,-5.4974,77.9472,Q,Q
2023-03-14 17:20:26:221,0,0.886845,-5.51344,77.9465,Q,Q
2023-03-14 17:20:26:231,0,0.895805,-5.53188,77.9487,Q,Q
2023-03-14 17:20:26:241,0,0.904254,-5.54833,77.952,Q,Q
2023-03-14 17:20:26:251,0,0.907056,-5.56719,77.9622,Q,Q
2023-03-14 17:20:26:261,0,0.909086,-5.58729,77.9696,Q,Q
2023-03-14 17:20:26:271,0,0.908833,-5.60273,77.9809,Q,Q
2023-03-14 17:20:26:281,0,0.908951,-5.61984,77.9932,Q,Q
2023-03-14 17:20:26:291,0,0.911423,-5.63846,78.0072,Q,Q
2023-03-14 17:20:26:301,0,0.912613,-5.65589,78.0181,Q,Q
2023-03-14 17:20:26:311,0,0.917208,-5.67222,78.0288,Q,Q
2023-03-14 17:20:26:321,0,0.92162,-5.68643,78.0401,Q,Q
2023-03-14 17:20:26:331,0,0.920975,-5.69556,78.052,Q,Q
2023-03-14 17:20:26:341,0,0.917791,-5.70607,78.0605,Q,Q
2023-03-14 17:20:26:351,0,0.912537,-5.71656,78.0697,Q,Q
2023-03-14 17:20:26:361,0,0.900582,-5.72267,78.0753,Q,Q
2023-03-14 17:20:26:371,0,0.888008,-5.72541,78.0763,Q,Q
2023-03-14 17:20:26:381,0,0.869919,-5.72535,78.0793,Q,Q
2023-03-14 17:20:26:391,0,0.851849,-5.72433,78.0748,Q,Q
2023-03-14 17:20:26:401,0,0.834976,-5.71808,78.0693,Q,Q
2023-03-14 17:20:26:411,0,0.813504,-5.71401,78.0602,Q,Q
2023-03-14 17:20:26:421,0,0.795283,-5.70822,78.0552,Q,Q
2023-03-14 17:20:26:431,0,0.781161,-5.70603,78.0495,Q,Q
2023-03-14 17:20:26:441,0,0.76908,-5.69805,78.0428,Q,Q
2023-03-14 17:20:26:451,0,0.762229,-5.68616,78.0364,Q,Q
2023-03-14 17:20:26:461,0,0.757276,-5.67416,78.027,Q,Q
2023-03-14 17:20:26:471,0,0.762111,-5.66344,78.0176,Q,Q
2023-03-14 17:20:26:481,0,0.773429,-5.65525,78.0148,Q,Q
2023-03-14 17:20:26:491,0,0.789596,-5.65116,78.0151,Q,Q
2023-03-14 17:20:26:501,0,0.806232,-5.64625,78.0172,Q,Q
2023-03-14 17:20:26:511,0,0.826373,-5.64025,78.02,Q,Q
