Timestamp_cmd,imu_cmd,roll_delta,pitch_delta,yaw_delta
2023-03-11 18:05:55:798,0,-5.00502,0.113733,83.683
2023-03-11 18:05:55:806,0,-5.01904,0.104398,83.6803
2023-03-11 18:05:55:817,0,-5.02658,0.0963593,83.6763
2023-03-11 18:05:55:827,0,-5.0329,0.0886002,83.6731
2023-03-11 18:05:55:837,0,-5.04169,0.078299,83.6697
2023-03-11 18:05:55:847,0,-5.05092,0.0703468,83.6652
2023-03-11 18:05:55:857,0,-5.06489,0.0590231,83.6588
2023-03-11 18:05:55:867,0,-5.07697,0.0458721,83.6519
2023-03-11 18:05:55:877,0,-5.08926,0.0306226,83.6515
2023-03-11 18:05:55:887,0,-5.10474,0.0181807,83.6435
2023-03-11 18:05:55:897,0,-5.11237,0.0108964,83.6314
2023-03-11 18:05:55:907,0,-5.1171,0.0110566,83.6219
2023-03-11 18:05:55:917,0,-5.11955,0.0155314,83.6103
2023-03-11 18:05:55:927,0,-5.11912,0.0230507,83.596
2023-03-11 18:05:55:937,0,-5.11798,0.0353645,83.5855
2023-03-11 18:05:55:947,0,-5.11713,0.0496311,83.5755
2023-03-11 18:05:55:957,0,-5.11913,0.0728868,83.5603
2023-03-11 18:05:55:967,0,-5.11838,0.104883,83.5365
2023-03-11 18:05:55:977,0,-5.12151,0.146453,83.5104
2023-03-11 18:05:55:987,0,-5.12648,0.1927,83.481
2023-03-11 18:05:55:997,0,-5.13617,0.237183,83.4569
2023-03-11 18:05:56:7,0,-5.16066,0.277222,83.4353
2023-03-11 18:05:56:17,0,-5.19422,0.313427,83.4197
2023-03-11 18:05:56:27,0,-5.24211,0.343317,83.4067
2023-03-11 18:05:56:37,0,-5.29748,0.372168,83.3931
2023-03-11 18:05:56:47,0,-5.34741,0.395462,83.3806
2023-03-11 18:05:56:57,0,-5.39071,0.413806,83.3672
2023-03-11 18:05:56:67,0,-5.42845,0.428779,83.362
2023-03-11 18:05:56:77,0,-5.45365,0.436906,83.3546
2023-03-11 18:05:56:87,0,-5.47698,0.441135,83.3526
2023-03-11 18:05:56:97,0,-5.505,0.44129,83.3477
2023-03-11 18:05:56:107,0,-5.53075,0.441565,83.3484
2023-03-11 18:05:56:117,0,-5.55017,0.436113,83.3485
2023-03-11 18:05:56:127,0,-5.56385,0.428543,83.3529
2023-03-11 18:05:56:137,0,-5.56933,0.42245,83.3567
2023-03-11 18:05:56:146,0,-5.57208,0.409512,83.3628
2023-03-11 18:05:56:156,0,-5.56859,0.393688,83.3713
2023-03-11 18:05:56:166,0,-5.56533,0.374923,83.3793
2023-03-11 18:05:56:176,0,-5.56122,0.353553,83.3923
2023-03-11 18:05:56:186,0,-5.55078,0.33035,83.4019
2023-03-11 18:05:56:196,0,-5.53791,0.305021,83.4074
2023-03-11 18:05:56:206,0,-5.52426,0.285811,83.4061
2023-03-11 18:05:56:216,0,-5.50647,0.264215,83.4045
2023-03-11 18:05:56:226,0,-5.48499,0.245051,83.3981
2023-03-11 18:05:56:237,0,-5.46038,0.225085,83.386
2023-03-11 18:05:56:247,0,-5.4384,0.208008,83.378
2023-03-11 18:05:56:257,0,-5.41969,0.190501,83.365
2023-03-11 18:05:56:267,0,-5.40187,0.174168,83.3547
2023-03-11 18:05:56:277,0,-5.38857,0.162362,83.3514
2023-03-11 18:05:56:287,0,-5.37205,0.154544,83.351
2023-03-11 18:05:56:297,0,-5.35541,0.148518,83.352
2023-03-11 18:05:56:307,0,-5.34087,0.146664,83.3565
2023-03-11 18:05:56:317,0,-5.32984,0.148738,83.3628
2023-03-11 18:05:56:327,0,-5.32226,0.151011,83.366
2023-03-11 18:05:56:337,0,-5.32118,0.154506,83.3763
2023-03-11 18:05:56:347,0,-5.32266,0.15634,83.3854
2023-03-11 18:05:56:357,0,-5.32343,0.156444,83.394
2023-03-11 18:05:56:367,0,-5.32433,0.157528,83.3988
2023-03-11 18:05:56:377,0,-5.32737,0.158238,83.4037
2023-03-11 18:05:56:387,0,-5.32946,0.160964,83.4053
2023-03-11 18:05:56:397,0,-5.33086,0.165358,83.4063
2023-03-11 18:05:56:407,0,-5.33563,0.169459,83.4087
2023-03-11 18:05:56:417,0,-5.34068,0.175193,83.4142
2023-03-11 18:05:56:427,0,-5.35203,0.174168,83.4208
2023-03-11 18:05:56:437,0,-5.36307,0.170365,83.4287
2023-03-11 18:05:56:447,0,-5.37177,0.166355,83.4405
2023-03-11 18:05:56:457,0,-5.37906,0.163803,83.4498
2023-03-11 18:05:56:467,0,-5.38011,0.162757,83.4555
2023-03-11 18:05:56:477,0,-5.3741,0.162482,83.4577
2023-03-11 18:05:56:487,0,-5.35954,0.162478,83.4538
2023-03-11 18:05:56:497,0,-5.34426,0.159327,83.4483
2023-03-11 18:05:56:507,0,-5.32748,0.154876,83.4445
2023-03-11 18:05:56:517,0,-5.31263,0.154158,83.4409
2023-03-11 18:05:56:527,0,-5.29757,0.15606,83.4388
2023-03-11 18:05:56:537,0,-5.28693,0.158808,83.4316
2023-03-11 18:05:56:547,0,-5.27686,0.173413,83.4253
2023-03-11 18:05:56:557,0,-5.26298,0.190547,83.4168
2023-03-11 18:05:56:567,0,-5.24747,0.208929,83.4101
2023-03-11 18:05:56:577,0,-5.22605,0.22141,83.4041
2023-03-11 18:05:56:587,0,-5.20582,0.234737,83.4032
2023-03-11 18:05:56:597,0,-5.19058,0.245758,83.4013
2023-03-11 18:05:56:607,0,-5.18137,0.254114,83.4057
2023-03-11 18:05:56:617,0,-5.18007,0.253695,83.4211
2023-03-11 18:05:56:627,0,-5.18256,0.247162,83.4403
2023-03-11 18:05:56:637,0,-5.19123,0.231271,83.4667
2023-03-11 18:05:56:647,0,-5.20258,0.208496,83.4956
2023-03-11 18:05:56:657,0,-5.21178,0.184952,83.528
2023-03-11 18:05:56:667,0,-5.21619,0.16048,83.5525
2023-03-11 18:05:56:677,0,-5.21243,0.135693,83.5747
2023-03-11 18:05:56:687,0,-5.20368,0.112506,83.5832
2023-03-11 18:05:56:697,0,-5.19065,0.0959351,83.5875
2023-03-11 18:05:56:707,0,-5.17747,0.0891907,83.5822
2023-03-11 18:05:56:717,0,-5.16764,0.0887653,83.5718
2023-03-11 18:05:56:727,0,-5.16793,0.0908982,83.556
2023-03-11 18:05:56:737,0,-5.17791,0.101044,83.5404
2023-03-11 18:05:56:747,0,-5.19306,0.108923,83.5233
2023-03-11 18:05:56:757,0,-5.21362,0.115621,83.5106
2023-03-11 18:05:56:767,0,-5.23366,0.115893,83.5002
2023-03-11 18:05:56:776,0,-5.25441,0.117181,83.4962
2023-03-11 18:05:56:786,0,-5.27864,0.11747,83.49
2023-03-11 18:05:56:796,0,-5.30162,0.109584,83.4826
2023-03-11 18:05:56:806,0,-5.31826,0.0992527,83.4744
2023-03-11 18:05:56:817,0,-5.33158,0.0822612,83.4681
2023-03-11 18:05:56:826,0,-5.33052,0.0573111,83.465
2023-03-11 18:05:56:837,0,-5.32306,0.0267821,83.4608
2023-03-11 18:05:56:846,0,-5.3052,-0.00680626,83.4588
2023-03-11 18:05:56:856,0,-5.28816,-0.0393031,83.456
2023-03-11 18:05:56:867,0,-5.26728,-0.0710782,83.4582
2023-03-11 18:05:56:876,0,-5.24281,-0.0998437,83.4649
2023-03-11 18:05:56:887,0,-5.21208,-0.127312,83.4701
2023-03-11 18:05:56:896,0,-5.18188,-0.154144,83.4765
2023-03-11 18:05:56:906,0,-5.14521,-0.180963,83.4906
2023-03-11 18:05:56:917,0,-5.10966,-0.198713,83.5084
2023-03-11 18:05:56:926,0,-5.07212,-0.215648,83.5294
2023-03-11 18:05:56:937,0,-5.03167,-0.227377,83.5527
2023-03-11 18:05:56:947,0,-4.99388,-0.243762,83.5761
2023-03-11 18:05:56:957,0,-4.95457,-0.255521,83.5984
2023-03-11 18:05:56:967,0,-4.91407,-0.26606,83.6217
2023-03-11 18:05:56:977,0,-4.87453,-0.27761,83.6409
2023-03-11 18:05:56:987,0,-4.8413,-0.288955,83.6587
2023-03-11 18:05:56:997,0,-4.81073,-0.29251,83.6717
2023-03-11 18:05:57:7,0,-4.78718,-0.297224,83.6853
2023-03-11 18:05:57:17,0,-4.76994,-0.296036,83.6929
2023-03-11 18:05:57:27,0,-4.75321,-0.295727,83.6999
2023-03-11 18:05:57:37,0,-4.73934,-0.291193,83.7081
2023-03-11 18:05:57:47,0,-4.73524,-0.286892,83.7138
2023-03-11 18:05:57:57,0,-4.737,-0.284778,83.7277
2023-03-11 18:05:57:67,0,-4.74215,-0.281941,83.7479
2023-03-11 18:05:57:76,0,-4.75332,-0.281471,83.7753
2023-03-11 18:05:57:87,0,-4.76179,-0.28126,83.8039
2023-03-11 18:05:57:97,0,-4.77479,-0.283062,83.8418
2023-03-11 18:05:57:107,0,-4.79042,-0.289918,83.8843
2023-03-11 18:05:57:117,0,-4.80841,-0.298554,83.9279
2023-03-11 18:05:57:127,0,-4.82957,-0.310561,83.9712
2023-03-11 18:05:57:137,0,-4.85199,-0.326032,84.0112
2023-03-11 18:05:57:147,0,-4.87544,-0.338843,84.05
2023-03-11 18:05:57:157,0,-4.89788,-0.356684,84.0864
2023-03-11 18:05:57:167,0,-4.92396,-0.372745,84.1152
2023-03-11 18:05:57:177,0,-4.95014,-0.389808,84.1448
2023-03-11 18:05:57:187,0,-4.9768,-0.408004,84.1703
2023-03-11 18:05:57:197,0,-5.00103,-0.42312,84.1896
2023-03-11 18:05:57:207,0,-5.02896,-0.435737,84.2068
2023-03-11 18:05:57:217,0,-5.05982,-0.451538,84.2238
2023-03-11 18:05:57:227,0,-5.08911,-0.465253,84.2401
2023-03-11 18:05:57:237,0,-5.11607,-0.478302,84.2573
2023-03-11 18:05:57:247,0,-5.14738,-0.48851,84.2728
2023-03-11 18:05:57:257,0,-5.17613,-0.497431,84.2858
2023-03-11 18:05:57:267,0,-5.19957,-0.502767,84.2934
2023-03-11 18:05:57:277,0,-5.22307,-0.50755,84.3007
2023-03-11 18:05:57:287,0,-5.2438,-0.51191,84.3081
2023-03-11 18:05:57:297,0,-5.25727,-0.512553,84.3081
2023-03-11 18:05:57:307,0,-5.27028,-0.515086,84.3046
2023-03-11 18:05:57:317,0,-5.2832,-0.514384,84.2989
2023-03-11 18:05:57:327,0,-5.29287,-0.5119,84.2899
2023-03-11 18:05:57:337,0,-5.30177,-0.507259,84.2733
2023-03-11 18:05:57:347,0,-5.30705,-0.502522,84.2595
2023-03-11 18:05:57:357,0,-5.30941,-0.500939,84.2435
2023-03-11 18:05:57:367,0,-5.31182,-0.496894,84.2269
2023-03-11 18:05:57:377,0,-5.31203,-0.488552,84.2099
2023-03-11 18:05:57:387,0,-5.31085,-0.475776,84.1932
2023-03-11 18:05:57:397,0,-5.30169,-0.470081,84.1802
2023-03-11 18:05:57:406,0,-5.2905,-0.462181,84.1653
2023-03-11 18:05:57:417,0,-5.28432,-0.456581,84.1565
2023-03-11 18:05:57:427,0,-5.2841,-0.451245,84.1461
2023-03-11 18:05:57:437,0,-5.28202,-0.449122,84.1332
2023-03-11 18:05:57:447,0,-5.28144,-0.450027,84.1218
2023-03-11 18:05:57:457,0,-5.27562,-0.448955,84.1122
2023-03-11 18:05:57:467,0,-5.27375,-0.44952,84.0972
2023-03-11 18:05:57:477,0,-5.2673,-0.446534,84.082
2023-03-11 18:05:57:487,0,-5.26028,-0.440436,84.0655
2023-03-11 18:05:57:497,0,-5.25357,-0.434265,84.0496
2023-03-11 18:05:57:507,0,-5.25145,-0.43133,84.0365
2023-03-11 18:05:57:517,0,-5.25096,-0.427836,84.0257
2023-03-11 18:05:57:527,0,-5.25095,-0.428212,84.0179
2023-03-11 18:05:57:537,0,-5.25496,-0.432195,84.0149
2023-03-11 18:05:57:547,0,-5.26308,-0.435568,84.0137
2023-03-11 18:05:57:557,0,-5.27018,-0.434055,84.0127
2023-03-11 18:05:57:567,0,-5.27535,-0.433333,84.0134
2023-03-11 18:05:57:577,0,-5.2823,-0.436926,84.0108
2023-03-11 18:05:57:587,0,-5.2885,-0.441644,84.0127
2023-03-11 18:05:57:597,0,-5.29104,-0.447781,84.0159
2023-03-11 18:05:57:607,0,-5.29446,-0.456668,84.0242
2023-03-11 18:05:57:617,0,-5.29486,-0.462905,84.0318
2023-03-11 18:05:57:627,0,-5.29717,-0.465322,84.0349
2023-03-11 18:05:57:637,0,-5.3006,-0.462738,84.0425
2023-03-11 18:05:57:647,0,-5.30629,-0.459242,84.0482
2023-03-11 18:05:57:657,0,-5.30993,-0.453794,84.0508
2023-03-11 18:05:57:667,0,-5.31581,-0.446914,84.0563
2023-03-11 18:05:57:677,0,-5.32824,-0.437758,84.0612
2023-03-11 18:05:57:687,0,-5.34413,-0.428168,84.0647
2023-03-11 18:05:57:697,0,-5.35897,-0.419798,84.0669
2023-03-11 18:05:57:706,0,-5.37629,-0.41415,84.0692
2023-03-11 18:05:57:716,0,-5.39446,-0.411584,84.0703
2023-03-11 18:05:57:727,0,-5.40951,-0.408962,84.0655
2023-03-11 18:05:57:737,0,-5.42848,-0.408392,84.0612
2023-03-11 18:05:57:747,0,-5.44055,-0.409671,84.0525
2023-03-11 18:05:57:757,0,-5.44881,-0.410003,84.0442
2023-03-11 18:05:57:767,0,-5.45528,-0.415324,84.0361
2023-03-11 18:05:57:777,0,-5.45837,-0.41489,84.0312
2023-03-11 18:05:57:787,0,-5.46409,-0.409895,84.0257
2023-03-11 18:05:57:797,0,-5.4705,-0.407539,84.0191
2023-03-11 18:05:57:807,0,-5.47725,-0.403225,84.0138
2023-03-11 18:05:57:817,0,-5.47951,-0.398569,84.0123
2023-03-11 18:05:57:827,0,-5.48258,-0.391959,84.0099
2023-03-11 18:05:57:837,0,-5.48935,-0.38713,84.0097
2023-03-11 18:05:57:847,0,-5.49337,-0.37966,84.0072
2023-03-11 18:05:57:857,0,-5.49659,-0.372849,84.0058
2023-03-11 18:05:57:867,0,-5.49532,-0.364654,84.0084
2023-03-11 18:05:57:877,0,-5.49569,-0.357097,84.0092
2023-03-11 18:05:57:887,0,-5.49258,-0.353588,84.0055
2023-03-11 18:05:57:897,0,-5.48717,-0.352774,84.0021
2023-03-11 18:05:57:907,0,-5.47945,-0.35249,84.001
2023-03-11 18:05:57:917,0,-5.46357,-0.35671,83.9957
2023-03-11 18:05:57:927,0,-5.44435,-0.36175,83.9914
2023-03-11 18:05:57:937,0,-5.42537,-0.363186,83.9881
2023-03-11 18:05:57:947,0,-5.39992,-0.365177,83.9804
2023-03-11 18:05:57:957,0,-5.38013,-0.367372,83.9743
2023-03-11 18:05:57:967,0,-5.35649,-0.365951,83.9701
2023-03-11 18:05:57:977,0,-5.33239,-0.367812,83.9713
2023-03-11 18:05:57:987,0,-5.30818,-0.365287,83.969
2023-03-11 18:05:57:997,0,-5.28626,-0.362557,83.9696
2023-03-11 18:05:58:7,0,-5.26429,-0.356312,83.9719
2023-03-11 18:05:58:17,0,-5.2432,-0.346568,83.9756
2023-03-11 18:05:58:27,0,-5.22183,-0.340785,83.9806
2023-03-11 18:05:58:37,0,-5.20464,-0.332206,83.9872
2023-03-11 18:05:58:47,0,-5.18348,-0.325472,83.997
2023-03-11 18:05:58:57,0,-5.16718,-0.319803,84.0018
2023-03-11 18:05:58:67,0,-5.15751,-0.317001,84.0014
2023-03-11 18:05:58:77,0,-5.14388,-0.312149,83.9978
2023-03-11 18:05:58:87,0,-5.13448,-0.311981,83.9915
2023-03-11 18:05:58:97,0,-5.12824,-0.305567,83.9832
2023-03-11 18:05:58:107,0,-5.12583,-0.302456,83.9747
2023-03-11 18:05:58:117,0,-5.12617,-0.302397,83.9675
2023-03-11 18:05:58:127,0,-5.12043,-0.300966,83.9606
2023-03-11 18:05:58:137,0,-5.11289,-0.305231,83.9558
2023-03-11 18:05:58:147,0,-5.09956,-0.312262,83.9513
2023-03-11 18:05:58:157,0,-5.08244,-0.317901,83.95
2023-03-11 18:05:58:167,0,-5.06067,-0.33095,83.9502
2023-03-11 18:05:58:177,0,-5.04008,-0.345061,83.9503
2023-03-11 18:05:58:187,0,-5.01803,-0.359737,83.9539
2023-03-11 18:05:58:197,0,-4.99928,-0.3782,83.9565
2023-03-11 18:05:58:207,0,-4.98484,-0.392613,83.9564
2023-03-11 18:05:58:217,0,-4.96958,-0.408423,83.9622
2023-03-11 18:05:58:227,0,-4.95386,-0.418822,83.9661
2023-03-11 18:05:58:237,0,-4.93812,-0.431864,83.973
2023-03-11 18:05:58:247,0,-4.92512,-0.437574,83.9832
2023-03-11 18:05:58:257,0,-4.91475,-0.443218,83.9951
2023-03-11 18:05:58:267,0,-4.90782,-0.446172,84.0091
2023-03-11 18:05:58:277,0,-4.90161,-0.446252,84.0201
2023-03-11 18:05:58:287,0,-4.89711,-0.444695,84.0278
2023-03-11 18:05:58:297,0,-4.89132,-0.444851,84.035
2023-03-11 18:05:58:307,0,-4.88223,-0.442126,84.0394
2023-03-11 18:05:58:317,0,-4.87317,-0.436758,84.0384
2023-03-11 18:05:58:327,0,-4.86323,-0.428823,84.0362
2023-03-11 18:05:58:337,0,-4.8567,-0.421976,84.0317
2023-03-11 18:05:58:347,0,-4.85253,-0.410276,84.0273
2023-03-11 18:05:58:357,0,-4.85169,-0.402616,84.0248
2023-03-11 18:05:58:367,0,-4.85542,-0.39597,84.0169
2023-03-11 18:05:58:377,0,-4.86045,-0.392503,84.0111
2023-03-11 18:05:58:387,0,-4.86247,-0.386631,84.005
2023-03-11 18:05:58:397,0,-4.85879,-0.383893,83.9996
2023-03-11 18:05:58:407,0,-4.85262,-0.38314,83.9979
2023-03-11 18:05:58:417,0,-4.84385,-0.380593,83.9953
2023-03-11 18:05:58:427,0,-4.83896,-0.375489,83.991
2023-03-11 18:05:58:437,0,-4.82873,-0.367763,83.9862
2023-03-11 18:05:58:447,0,-4.8215,-0.361808,83.9845
2023-03-11 18:05:58:457,0,-4.8108,-0.351358,83.9856
2023-03-11 18:05:58:467,0,-4.80023,-0.343896,83.9891
2023-03-11 18:05:58:477,0,-4.79507,-0.341744,83.9965
2023-03-11 18:05:58:487,0,-4.79271,-0.338941,84.0054
2023-03-11 18:05:58:497,0,-4.78622,-0.339454,84.0144
2023-03-11 18:05:58:507,0,-4.77914,-0.340107,84.0273
2023-03-11 18:05:58:517,0,-4.77316,-0.346109,84.0374
2023-03-11 18:05:58:527,0,-4.75631,-0.346725,84.0487
2023-03-11 18:05:58:537,0,-4.74477,-0.349665,84.058
2023-03-11 18:05:58:547,0,-4.73489,-0.354582,84.0682
2023-03-11 18:05:58:557,0,-4.7274,-0.36232,84.0767
2023-03-11 18:05:58:567,0,-4.72558,-0.366009,84.0875
2023-03-11 18:05:58:577,0,-4.72482,-0.369599,84.0984
2023-03-11 18:05:58:587,0,-4.72407,-0.375255,84.1081
2023-03-11 18:05:58:597,0,-4.7266,-0.379263,84.123
2023-03-11 18:05:58:607,0,-4.72867,-0.384426,84.1342
2023-03-11 18:05:58:617,0,-4.73163,-0.392919,84.146
2023-03-11 18:05:58:627,0,-4.73133,-0.399902,84.1569
2023-03-11 18:05:58:637,0,-4.72706,-0.407142,84.1637
2023-03-11 18:05:58:647,0,-4.72355,-0.413222,84.1733
2023-03-11 18:05:58:657,0,-4.7179,-0.418938,84.1858
2023-03-11 18:05:58:667,0,-4.71202,-0.424552,84.1959
2023-03-11 18:05:58:677,0,-4.71259,-0.43133,84.2072
2023-03-11 18:05:58:687,0,-4.71457,-0.436771,84.215
2023-03-11 18:05:58:697,0,-4.7156,-0.445417,84.22
2023-03-11 18:05:58:707,0,-4.71286,-0.453552,84.2231
2023-03-11 18:05:58:717,0,-4.70971,-0.458517,84.2244
2023-03-11 18:05:58:727,0,-4.70602,-0.458493,84.2266
2023-03-11 18:05:58:737,0,-4.69974,-0.45713,84.2252
2023-03-11 18:05:58:747,0,-4.69183,-0.451775,84.2256
2023-03-11 18:05:58:757,0,-4.68621,-0.446609,84.2207
2023-03-11 18:05:58:767,0,-4.68367,-0.438724,84.2165
2023-03-11 18:05:58:777,0,-4.68143,-0.429447,84.2106
2023-03-11 18:05:58:787,0,-4.67884,-0.419616,84.2104
2023-03-11 18:05:58:797,0,-4.68072,-0.408729,84.2098
2023-03-11 18:05:58:807,0,-4.68955,-0.398045,84.2057
2023-03-11 18:05:58:817,0,-4.69619,-0.386602,84.1976
2023-03-11 18:05:58:827,0,-4.70359,-0.374624,84.1937
2023-03-11 18:05:58:837,0,-4.70904,-0.363668,84.1845
2023-03-11 18:05:58:847,0,-4.71549,-0.351933,84.1767
2023-03-11 18:05:58:857,0,-4.72268,-0.343675,84.1688
2023-03-11 18:05:58:867,0,-4.73055,-0.332856,84.158
2023-03-11 18:05:58:877,0,-4.73961,-0.319122,84.1448
2023-03-11 18:05:58:887,0,-4.75059,-0.306468,84.1301
2023-03-11 18:05:58:897,0,-4.76278,-0.295142,84.1188
2023-03-11 18:05:58:907,0,-4.77613,-0.28574,84.1038
2023-03-11 18:05:58:917,0,-4.78675,-0.275029,84.0921
2023-03-11 18:05:58:927,0,-4.7928,-0.266763,84.0806
2023-03-11 18:05:58:937,0,-4.80094,-0.257247,84.0724
2023-03-11 18:05:58:947,0,-4.81051,-0.254329,84.0687
2023-03-11 18:05:58:957,0,-4.81546,-0.247874,84.0593
2023-03-11 18:05:58:967,0,-4.82307,-0.245376,84.0552
2023-03-11 18:05:58:977,0,-4.82986,-0.251512,84.0543
2023-03-11 18:05:58:987,0,-4.84045,-0.260415,84.0559
2023-03-11 18:05:58:997,0,-4.851,-0.264091,84.0636
2023-03-11 18:05:59:7,0,-4.85891,-0.265614,84.0713
2023-03-11 18:05:59:17,0,-4.86623,-0.269802,84.079
2023-03-11 18:05:59:27,0,-4.87248,-0.274613,84.0888
2023-03-11 18:05:59:37,0,-4.87578,-0.278037,84.1008
2023-03-11 18:05:59:47,0,-4.88609,-0.281253,84.1121
2023-03-11 18:05:59:57,0,-4.89413,-0.282898,84.1215
2023-03-11 18:05:59:67,0,-4.9046,-0.282129,84.1302
2023-03-11 18:05:59:77,0,-4.91899,-0.28107,84.1361
2023-03-11 18:05:59:87,0,-4.93685,-0.276864,84.142
2023-03-11 18:05:59:97,0,-4.95108,-0.271296,84.1491
2023-03-11 18:05:59:107,0,-4.96838,-0.266001,84.1522
2023-03-11 18:05:59:117,0,-4.98208,-0.254152,84.1552
2023-03-11 18:05:59:127,0,-4.99461,-0.245795,84.1566
2023-03-11 18:05:59:137,0,-5.00772,-0.23689,84.1561
2023-03-11 18:05:59:147,0,-5.02049,-0.231839,84.1549
2023-03-11 18:05:59:157,0,-5.03692,-0.225318,84.1537
2023-03-11 18:05:59:167,0,-5.05553,-0.213807,84.1482
2023-03-11 18:05:59:177,0,-5.07142,-0.205894,84.1421
2023-03-11 18:05:59:187,0,-5.08752,-0.200139,84.1306
2023-03-11 18:05:59:197,0,-5.10227,-0.198589,84.1264
2023-03-11 18:05:59:207,0,-5.11536,-0.201942,84.1228
2023-03-11 18:05:59:217,0,-5.12673,-0.20558,84.1193
2023-03-11 18:05:59:227,0,-5.13863,-0.207988,84.1174
2023-03-11 18:05:59:237,0,-5.15612,-0.210759,84.1163
2023-03-11 18:05:59:247,0,-5.17706,-0.208346,84.1134
2023-03-11 18:05:59:257,0,-5.2031,-0.210721,84.1095
2023-03-11 18:05:59:267,0,-5.22486,-0.212593,84.1075
2023-03-11 18:05:59:277,0,-5.24475,-0.214369,84.1068
2023-03-11 18:05:59:287,0,-5.26586,-0.216968,84.1042
2023-03-11 18:05:59:297,0,-5.27734,-0.217239,84.1028
2023-03-11 18:05:59:307,0,-5.2885,-0.216945,84.1009
2023-03-11 18:05:59:317,0,-5.28887,-0.212377,84.0986
2023-03-11 18:05:59:327,0,-5.2887,-0.208181,84.0987
2023-03-11 18:05:59:337,0,-5.28494,-0.204652,84.1037
2023-03-11 18:05:59:347,0,-5.27782,-0.200023,84.1134
2023-03-11 18:05:59:357,0,-5.26634,-0.197166,84.1259
2023-03-11 18:05:59:367,0,-5.24877,-0.198557,84.1408
2023-03-11 18:05:59:377,0,-5.23218,-0.206016,84.1598
2023-03-11 18:05:59:387,0,-5.21604,-0.211646,84.1727
2023-03-11 18:05:59:397,0,-5.19944,-0.223843,84.1877
2023-03-11 18:05:59:407,0,-5.18647,-0.236527,84.1983
2023-03-11 18:05:59:417,0,-5.18074,-0.250821,84.2098
2023-03-11 18:05:59:427,0,-5.17421,-0.26101,84.2189
2023-03-11 18:05:59:437,0,-5.17636,-0.27194,84.2239
2023-03-11 18:05:59:447,0,-5.1745,-0.285192,84.229
2023-03-11 18:05:59:457,0,-5.17279,-0.301457,84.2328
2023-03-11 18:05:59:467,0,-5.17119,-0.317648,84.2452
2023-03-11 18:05:59:477,0,-5.16611,-0.335175,84.2566
2023-03-11 18:05:59:487,0,-5.16423,-0.346507,84.2679
2023-03-11 18:05:59:497,0,-5.16271,-0.357249,84.2844
2023-03-11 18:05:59:507,0,-5.1673,-0.363084,84.2982
2023-03-11 18:05:59:517,0,-5.17254,-0.366583,84.3132
2023-03-11 18:05:59:527,0,-5.17663,-0.367574,84.3295
2023-03-11 18:05:59:537,0,-5.18441,-0.366115,84.3446
2023-03-11 18:05:59:547,0,-5.18723,-0.365648,84.3594
2023-03-11 18:05:59:557,0,-5.19025,-0.364663,84.3721
2023-03-11 18:05:59:567,0,-5.19319,-0.365614,84.3875
2023-03-11 18:05:59:577,0,-5.19509,-0.369877,84.4026
2023-03-11 18:05:59:587,0,-5.19338,-0.378126,84.4131
2023-03-11 18:05:59:597,0,-5.18844,-0.385895,84.4247
2023-03-11 18:05:59:607,0,-5.19102,-0.391715,84.4307
2023-03-11 18:05:59:617,0,-5.19493,-0.398825,84.4355
2023-03-11 18:05:59:627,0,-5.20014,-0.399989,84.4323
2023-03-11 18:05:59:637,0,-5.19889,-0.402465,84.4296
2023-03-11 18:05:59:647,0,-5.19941,-0.402416,84.4269
2023-03-11 18:05:59:657,0,-5.19765,-0.405725,84.4179
2023-03-11 18:05:59:667,0,-5.19045,-0.407007,84.4095
2023-03-11 18:05:59:677,0,-5.17902,-0.410587,84.3968
2023-03-11 18:05:59:687,0,-5.16207,-0.413414,84.3834
2023-03-11 18:05:59:697,0,-5.14337,-0.415024,84.3764
2023-03-11 18:05:59:707,0,-5.12153,-0.41713,84.3678
2023-03-11 18:05:59:717,0,-5.10133,-0.41657,84.3618
2023-03-11 18:05:59:727,0,-5.08317,-0.419399,84.3578
2023-03-11 18:05:59:737,0,-5.07354,-0.423685,84.3587
2023-03-11 18:05:59:747,0,-5.06625,-0.427934,84.363
2023-03-11 18:05:59:757,0,-5.05773,-0.430932,84.3696
2023-03-11 18:05:59:767,0,-5.04867,-0.434095,84.3773
2023-03-11 18:05:59:777,0,-5.03503,-0.440561,84.3877
2023-03-11 18:05:59:787,0,-5.02377,-0.450544,84.3967
2023-03-11 18:05:59:797,0,-5.0099,-0.460366,84.406
2023-03-11 18:05:59:807,0,-4.99769,-0.466644,84.4181
2023-03-11 18:05:59:817,0,-4.99184,-0.469003,84.429
2023-03-11 18:05:59:827,0,-4.98777,-0.474788,84.4411
2023-03-11 18:05:59:837,0,-4.98734,-0.479326,84.4509
2023-03-11 18:05:59:847,0,-4.99854,-0.484008,84.4594
2023-03-11 18:05:59:857,0,-5.00767,-0.485221,84.4683
2023-03-11 18:05:59:867,0,-5.01723,-0.486247,84.478
2023-03-11 18:05:59:877,0,-5.02903,-0.48773,84.481
2023-03-11 18:05:59:887,0,-5.04025,-0.487348,84.4774
2023-03-11 18:05:59:897,0,-5.05053,-0.489178,84.4698
2023-03-11 18:05:59:907,0,-5.06072,-0.484803,84.4622
2023-03-11 18:05:59:917,0,-5.07427,-0.479274,84.4498
2023-03-11 18:05:59:927,0,-5.09164,-0.472163,84.4363
2023-03-11 18:05:59:937,0,-5.1112,-0.465386,84.4205
2023-03-11 18:05:59:947,0,-5.12532,-0.459986,84.4046
2023-03-11 18:05:59:957,0,-5.14038,-0.449589,84.389
2023-03-11 18:05:59:967,0,-5.1545,-0.442453,84.3718
2023-03-11 18:05:59:977,0,-5.17076,-0.433406,84.3515
2023-03-11 18:05:59:987,0,-5.18903,-0.422153,84.3394
2023-03-11 18:05:59:997,0,-5.19887,-0.414655,84.3244
2023-03-11 18:06:00:7,0,-5.20829,-0.410832,84.3144
2023-03-11 18:06:00:17,0,-5.21489,-0.411178,84.3088
2023-03-11 18:06:00:27,0,-5.22417,-0.410926,84.307
2023-03-11 18:06:00:37,0,-5.23176,-0.409182,84.3076
2023-03-11 18:06:00:47,0,-5.23856,-0.407975,84.3086
2023-03-11 18:06:00:57,0,-5.24616,-0.406945,84.3112
2023-03-11 18:06:00:67,0,-5.24865,-0.40418,84.3167
2023-03-11 18:06:00:77,0,-5.24826,-0.403103,84.3232
2023-03-11 18:06:00:87,0,-5.23851,-0.401201,84.3305
2023-03-11 18:06:00:97,0,-5.23044,-0.401992,84.3356
2023-03-11 18:06:00:107,0,-5.22302,-0.397682,84.3444
2023-03-11 18:06:00:117,0,-5.21328,-0.391947,84.3519
2023-03-11 18:06:00:127,0,-5.20559,-0.375959,84.3609
2023-03-11 18:06:00:137,0,-5.19636,-0.357641,84.3738
2023-03-11 18:06:00:147,0,-5.1934,-0.332645,84.3892
2023-03-11 18:06:00:157,0,-5.18885,-0.312278,84.4109
2023-03-11 18:06:00:167,0,-5.17638,-0.298188,84.4384
2023-03-11 18:06:00:177,0,-5.16666,-0.294916,84.4756
2023-03-11 18:06:00:187,0,-5.15451,-0.304489,84.5159
2023-03-11 18:06:00:197,0,-5.13835,-0.323454,84.5583
2023-03-11 18:06:00:207,0,-5.11982,-0.347526,84.5975
2023-03-11 18:06:00:217,0,-5.10542,-0.378287,84.6351
2023-03-11 18:06:00:227,0,-5.09335,-0.41058,84.6662
2023-03-11 18:06:00:237,0,-5.08625,-0.447731,84.6908
2023-03-11 18:06:00:247,0,-5.08486,-0.48895,84.717
2023-03-11 18:06:00:257,0,-5.08353,-0.532361,84.7348
2023-03-11 18:06:00:267,0,-5.08933,-0.573577,84.7557
2023-03-11 18:06:00:277,0,-5.09699,-0.611588,84.7767
2023-03-11 18:06:00:287,0,-5.11258,-0.645645,84.8009
2023-03-11 18:06:00:297,0,-5.12253,-0.676642,84.8296
2023-03-11 18:06:00:307,0,-5.13,-0.698125,84.8591
2023-03-11 18:06:00:317,0,-5.13661,-0.717931,84.8866
2023-03-11 18:06:00:327,0,-5.14252,-0.733826,84.92
2023-03-11 18:06:00:337,0,-5.15211,-0.750031,84.9518
2023-03-11 18:06:00:347,0,-5.1606,-0.763784,84.9843
2023-03-11 18:06:00:357,0,-5.17119,-0.77523,85.0158
2023-03-11 18:06:00:367,0,-5.18208,-0.7886,85.0446
2023-03-11 18:06:00:377,0,-5.19183,-0.807182,85.0669
2023-03-11 18:06:00:387,0,-5.20235,-0.822104,85.0833
2023-03-11 18:06:00:397,0,-5.20545,-0.839065,85.0835
2023-03-11 18:06:00:407,0,-5.20783,-0.853557,85.0784
2023-03-11 18:06:00:417,0,-5.21202,-0.861061,85.062
2023-03-11 18:06:00:427,0,-5.21591,-0.868704,85.0321
2023-03-11 18:06:00:437,0,-5.2225,-0.869842,84.9934
2023-03-11 18:06:00:447,0,-5.23148,-0.869454,84.9511
2023-03-11 18:06:00:457,0,-5.24383,-0.873269,84.9025
2023-03-11 18:06:00:467,0,-5.25721,-0.875443,84.8513
2023-03-11 18:06:00:477,0,-5.27035,-0.880791,84.7989
2023-03-11 18:06:00:487,0,-5.28306,-0.881298,84.7449
2023-03-11 18:06:00:497,0,-5.29322,-0.878388,84.6909
2023-03-11 18:06:00:507,0,-5.29932,-0.870194,84.6323
2023-03-11 18:06:00:517,0,-5.30289,-0.860347,84.5775
2023-03-11 18:06:00:527,0,-5.31334,-0.850519,84.5263
2023-03-11 18:06:00:537,0,-5.32961,-0.846013,84.4846
2023-03-11 18:06:00:547,0,-5.35538,-0.84224,84.4529
2023-03-11 18:06:00:557,0,-5.39289,-0.841858,84.4372
2023-03-11 18:06:00:567,0,-5.43909,-0.846028,84.4349
2023-03-11 18:06:00:577,0,-5.48575,-0.853598,84.4442
2023-03-11 18:06:00:587,0,-5.52836,-0.860386,84.4613
2023-03-11 18:06:00:597,0,-5.56568,-0.863724,84.4886
2023-03-11 18:06:00:607,0,-5.59313,-0.87481,84.5288
2023-03-11 18:06:00:617,0,-5.6227,-0.889649,84.5778
2023-03-11 18:06:00:627,0,-5.65276,-0.907502,84.634
2023-03-11 18:06:00:637,0,-5.68354,-0.927666,84.6981
2023-03-11 18:06:00:647,0,-5.7158,-0.946365,84.7684
2023-03-11 18:06:00:657,0,-5.75007,-0.964696,84.8397
2023-03-11 18:06:00:667,0,-5.78579,-0.98786,84.9121
2023-03-11 18:06:00:677,0,-5.81883,-1.01113,84.9809
2023-03-11 18:06:00:687,0,-5.84769,-1.03333,85.0475
2023-03-11 18:06:00:697,0,-5.87031,-1.05767,85.1032
2023-03-11 18:06:00:707,0,-5.88344,-1.0827,85.1554
2023-03-11 18:06:00:717,0,-5.89627,-1.10627,85.2023
2023-03-11 18:06:00:727,0,-5.90817,-1.12625,85.2383
2023-03-11 18:06:00:737,0,-5.9218,-1.14799,85.2597
2023-03-11 18:06:00:747,0,-5.93247,-1.16681,85.2729
2023-03-11 18:06:00:757,0,-5.93909,-1.18973,85.2781
2023-03-11 18:06:00:767,0,-5.93969,-1.20949,85.272
2023-03-11 18:06:00:777,0,-5.92984,-1.22315,85.2593
2023-03-11 18:06:00:787,0,-5.91618,-1.23288,85.2386
2023-03-11 18:06:00:797,0,-5.89218,-1.23204,85.209
2023-03-11 18:06:00:807,0,-5.86478,-1.22018,85.1831
2023-03-11 18:06:00:817,0,-5.83279,-1.19597,85.153
2023-03-11 18:06:00:827,0,-5.80817,-1.16362,85.1243
2023-03-11 18:06:00:837,0,-5.77704,-1.13277,85.1015
2023-03-11 18:06:00:847,0,-5.75524,-1.10274,85.0872
2023-03-11 18:06:00:857,0,-5.73677,-1.0726,85.0812
2023-03-11 18:06:00:867,0,-5.72433,-1.05238,85.0846
2023-03-11 18:06:00:877,0,-5.71411,-1.02807,85.0965
2023-03-11 18:06:00:887,0,-5.70598,-1.00354,85.1144
2023-03-11 18:06:00:897,0,-5.69404,-0.971552,85.1379
2023-03-11 18:06:00:907,0,-5.6795,-0.941551,85.1618
2023-03-11 18:06:00:917,0,-5.66551,-0.910308,85.1931
2023-03-11 18:06:00:927,0,-5.6523,-0.881408,85.221
2023-03-11 18:06:00:937,0,-5.64408,-0.853945,85.2529
2023-03-11 18:06:00:947,0,-5.64332,-0.832104,85.2807
2023-03-11 18:06:00:957,0,-5.64887,-0.814248,85.3069
2023-03-11 18:06:00:967,0,-5.66606,-0.79543,85.3346
2023-03-11 18:06:00:977,0,-5.6923,-0.780411,85.354
2023-03-11 18:06:00:987,0,-5.72019,-0.769528,85.371
2023-03-11 18:06:00:997,0,-5.74702,-0.761546,85.3805
2023-03-11 18:06:01:7,0,-5.77475,-0.753148,85.3811
2023-03-11 18:06:01:17,0,-5.79568,-0.748577,85.3798
2023-03-11 18:06:01:27,0,-5.81108,-0.747597,85.3713
2023-03-11 18:06:01:37,0,-5.81871,-0.743399,85.3555
2023-03-11 18:06:01:47,0,-5.82051,-0.738861,85.3341
2023-03-11 18:06:01:57,0,-5.80941,-0.733336,85.3082
2023-03-11 18:06:01:67,0,-5.78849,-0.725871,85.2826
2023-03-11 18:06:01:77,0,-5.76851,-0.718366,85.2597
2023-03-11 18:06:01:87,0,-5.74849,-0.706891,85.2435
2023-03-11 18:06:01:97,0,-5.73508,-0.696669,85.2274
2023-03-11 18:06:01:107,0,-5.73097,-0.686173,85.2173
2023-03-11 18:06:01:117,0,-5.73512,-0.675735,85.2164
2023-03-11 18:06:01:127,0,-5.74794,-0.666259,85.2113
2023-03-11 18:06:01:137,0,-5.75953,-0.660472,85.2057
2023-03-11 18:06:01:147,0,-5.76607,-0.65638,85.1984
2023-03-11 18:06:01:157,0,-5.76773,-0.657498,85.1836
2023-03-11 18:06:01:167,0,-5.76853,-0.661448,85.1629
2023-03-11 18:06:01:177,0,-5.77013,-0.667834,85.133
2023-03-11 18:06:01:187,0,-5.7702,-0.678776,85.0963
2023-03-11 18:06:01:197,0,-5.77595,-0.690885,85.0568
2023-03-11 18:06:01:207,0,-5.78363,-0.70073,85.0096
2023-03-11 18:06:01:217,0,-5.79336,-0.709777,84.9548
2023-03-11 18:06:01:227,0,-5.80348,-0.718585,84.9014
2023-03-11 18:06:01:237,0,-5.80736,-0.72751,84.8461
2023-03-11 18:06:01:247,0,-5.81088,-0.730982,84.7913
2023-03-11 18:06:01:257,0,-5.81283,-0.73317,84.7426
2023-03-11 18:06:01:267,0,-5.81433,-0.738268,84.7012
2023-03-11 18:06:01:277,0,-5.81461,-0.740149,84.6698
2023-03-11 18:06:01:287,0,-5.81319,-0.74196,84.6527
2023-03-11 18:06:01:297,0,-5.8104,-0.738428,84.6462
2023-03-11 18:06:01:307,0,-5.80665,-0.727005,84.6502
2023-03-11 18:06:01:317,0,-5.8059,-0.709532,84.6595
2023-03-11 18:06:01:327,0,-5.80694,-0.688181,84.6755
2023-03-11 18:06:01:337,0,-5.80699,-0.66206,84.6986
2023-03-11 18:06:01:347,0,-5.8136,-0.636721,84.722
2023-03-11 18:06:01:357,0,-5.82377,-0.618644,84.7467
2023-03-11 18:06:01:367,0,-5.83586,-0.600844,84.7655
2023-03-11 18:06:01:377,0,-5.85172,-0.584941,84.7767
2023-03-11 18:06:01:387,0,-5.86304,-0.57892,84.7825
2023-03-11 18:06:01:397,0,-5.87587,-0.577239,84.7863
2023-03-11 18:06:01:407,0,-5.88765,-0.577464,84.7862
2023-03-11 18:06:01:417,0,-5.89672,-0.583169,84.7788
2023-03-11 18:06:01:427,0,-5.90165,-0.586533,84.7661
2023-03-11 18:06:01:437,0,-5.90371,-0.595604,84.7543
2023-03-11 18:06:01:447,0,-5.90865,-0.59942,84.7418
2023-03-11 18:06:01:457,0,-5.91338,-0.603627,84.7338
2023-03-11 18:06:01:467,0,-5.92425,-0.604411,84.7287
2023-03-11 18:06:01:477,0,-5.93595,-0.606482,84.7336
2023-03-11 18:06:01:487,0,-5.95019,-0.608656,84.7394
2023-03-11 18:06:01:497,0,-5.96832,-0.608884,84.7516
2023-03-11 18:06:01:507,0,-5.98287,-0.610944,84.7665
2023-03-11 18:06:01:517,0,-5.99524,-0.61137,84.7809
2023-03-11 18:06:01:527,0,-6.00301,-0.611915,84.7908
2023-03-11 18:06:01:537,0,-6.00695,-0.611328,84.7975
2023-03-11 18:06:01:547,0,-6.02101,-0.611594,84.8042
2023-03-11 18:06:01:557,0,-6.03558,-0.615775,84.8072
2023-03-11 18:06:01:567,0,-6.05347,-0.621039,84.8038
2023-03-11 18:06:01:577,0,-6.06894,-0.628599,84.8056
2023-03-11 18:06:01:587,0,-6.08231,-0.633221,84.7984
2023-03-11 18:06:01:597,0,-6.09695,-0.637397,84.7877
2023-03-11 18:06:01:607,0,-6.09773,-0.638369,84.7739
2023-03-11 18:06:01:617,0,-6.09161,-0.634043,84.7553
2023-03-11 18:06:01:627,0,-6.08681,-0.631103,84.7344
2023-03-11 18:06:01:636,0,-6.08823,-0.618319,84.7124
2023-03-11 18:06:01:647,0,-6.09022,-0.601332,84.6872
2023-03-11 18:06:01:657,0,-6.08962,-0.584776,84.664
2023-03-11 18:06:01:667,0,-6.0925,-0.568139,84.6405
2023-03-11 18:06:01:677,0,-6.09577,-0.55401,84.6202
2023-03-11 18:06:01:687,0,-6.09841,-0.536259,84.6004
2023-03-11 18:06:01:697,0,-6.09959,-0.512554,84.5784
2023-03-11 18:06:01:707,0,-6.09593,-0.490281,84.5524
2023-03-11 18:06:01:717,0,-6.09267,-0.47027,84.5271
2023-03-11 18:06:01:727,0,-6.08665,-0.449779,84.5027
2023-03-11 18:06:01:737,0,-6.08145,-0.434302,84.4783
2023-03-11 18:06:01:747,0,-6.0709,-0.419388,84.4535
2023-03-11 18:06:01:757,0,-6.06248,-0.407462,84.4293
2023-03-11 18:06:01:767,0,-6.05366,-0.403805,84.4077
2023-03-11 18:06:01:777,0,-6.04485,-0.400603,84.3874
2023-03-11 18:06:01:787,0,-6.03754,-0.397662,84.3692
2023-03-11 18:06:01:797,0,-6.03337,-0.400153,84.352
2023-03-11 18:06:01:806,0,-6.02643,-0.403653,84.3423
2023-03-11 18:06:01:816,0,-6.02009,-0.413813,84.3366
2023-03-11 18:06:01:826,0,-6.01101,-0.433633,84.338
2023-03-11 18:06:01:836,0,-5.99637,-0.45222,84.3424
2023-03-11 18:06:01:846,0,-5.97823,-0.473079,84.3472
2023-03-11 18:06:01:856,0,-5.96213,-0.499998,84.3518
2023-03-11 18:06:01:866,0,-5.94724,-0.523369,84.3542
2023-03-11 18:06:01:876,0,-5.93122,-0.55218,84.3575
2023-03-11 18:06:01:886,0,-5.92079,-0.580371,84.3594
2023-03-11 18:06:01:896,0,-5.91463,-0.609219,84.3611
2023-03-11 18:06:01:906,0,-5.91148,-0.63768,84.3588
2023-03-11 18:06:01:916,0,-5.91029,-0.66424,84.354
2023-03-11 18:06:01:926,0,-5.90523,-0.692436,84.3497
2023-03-11 18:06:01:936,0,-5.90081,-0.722983,84.352
2023-03-11 18:06:01:946,0,-5.90019,-0.760703,84.3643
2023-03-11 18:06:01:956,0,-5.90388,-0.798082,84.3877
2023-03-11 18:06:01:966,0,-5.90996,-0.837524,84.4237
2023-03-11 18:06:01:976,0,-5.91956,-0.876366,84.4625
2023-03-11 18:06:01:986,0,-5.92603,-0.911009,84.4995
2023-03-11 18:06:01:996,0,-5.92978,-0.940004,84.5335
2023-03-11 18:06:02:6,0,-5.93285,-0.965507,84.5592
2023-03-11 18:06:02:16,0,-5.93586,-0.989142,84.5788
2023-03-11 18:06:02:26,0,-5.93874,-1.00919,84.5892
2023-03-11 18:06:02:36,0,-5.9455,-1.02674,84.5911
2023-03-11 18:06:02:46,0,-5.95645,-1.04311,84.583
2023-03-11 18:06:02:56,0,-5.96881,-1.05466,84.5661
2023-03-11 18:06:02:66,0,-5.98409,-1.05921,84.544
2023-03-11 18:06:02:76,0,-5.99777,-1.058,84.5146
2023-03-11 18:06:02:86,0,-6.01047,-1.05544,84.4817
2023-03-11 18:06:02:96,0,-6.0224,-1.04439,84.4493
2023-03-11 18:06:02:106,0,-6.03621,-1.03309,84.4186
2023-03-11 18:06:02:116,0,-6.04862,-1.01828,84.3925
2023-03-11 18:06:02:126,0,-6.06363,-1.00115,84.3703
2023-03-11 18:06:02:136,0,-6.07952,-0.98456,84.3488
2023-03-11 18:06:02:146,0,-6.08791,-0.970229,84.3297
2023-03-11 18:06:02:156,0,-6.09528,-0.962481,84.3137
2023-03-11 18:06:02:166,0,-6.10303,-0.955405,84.2939
2023-03-11 18:06:02:176,0,-6.10813,-0.957564,84.2747
2023-03-11 18:06:02:186,0,-6.11243,-0.964594,84.254
2023-03-11 18:06:02:196,0,-6.11363,-0.981768,84.2332
2023-03-11 18:06:02:206,0,-6.11063,-1.00306,84.2116
2023-03-11 18:06:02:216,0,-6.10853,-1.02992,84.197
2023-03-11 18:06:02:226,0,-6.10592,-1.06525,84.1878
2023-03-11 18:06:02:236,0,-6.11016,-1.10742,84.1882
2023-03-11 18:06:02:246,0,-6.11643,-1.15703,84.1977
2023-03-11 18:06:02:256,0,-6.12865,-1.20817,84.2112
2023-03-11 18:06:02:266,0,-6.14128,-1.25434,84.2291
2023-03-11 18:06:02:276,0,-6.15938,-1.29678,84.2443
2023-03-11 18:06:02:286,0,-6.17356,-1.33978,84.2607
2023-03-11 18:06:02:296,0,-6.19262,-1.38447,84.282
2023-03-11 18:06:02:306,0,-6.21546,-1.43302,84.2978
2023-03-11 18:06:02:316,0,-6.23896,-1.48716,84.3051
2023-03-11 18:06:02:326,0,-6.267,-1.53622,84.3018
2023-03-11 18:06:02:336,0,-6.29329,-1.58539,84.2978
2023-03-11 18:06:02:347,0,-6.32101,-1.63455,84.2911
2023-03-11 18:06:02:356,0,-6.3488,-1.67503,84.279
2023-03-11 18:06:02:366,0,-6.37488,-1.7056,84.2641
2023-03-11 18:06:02:376,0,-6.39501,-1.72612,84.2535
2023-03-11 18:06:02:386,0,-6.41031,-1.74569,84.2441
2023-03-11 18:06:02:397,0,-6.41837,-1.76571,84.2419
2023-03-11 18:06:02:407,0,-6.4228,-1.7801,84.2447
2023-03-11 18:06:02:417,0,-6.43066,-1.78996,84.253
2023-03-11 18:06:02:427,0,-6.43165,-1.78975,84.2674
2023-03-11 18:06:02:437,0,-6.43719,-1.78528,84.2886
2023-03-11 18:06:02:447,0,-6.44414,-1.77835,84.3069
2023-03-11 18:06:02:457,0,-6.45033,-1.77353,84.3252
2023-03-11 18:06:02:467,0,-6.46481,-1.76824,84.347
2023-03-11 18:06:02:477,0,-6.48006,-1.76716,84.3645
2023-03-11 18:06:02:487,0,-6.50103,-1.77382,84.3827
2023-03-11 18:06:02:497,0,-6.51836,-1.7822,84.3982
2023-03-11 18:06:02:507,0,-6.54192,-1.79375,84.4109
2023-03-11 18:06:02:517,0,-6.56536,-1.80845,84.4222
2023-03-11 18:06:02:527,0,-6.59341,-1.82515,84.4314
2023-03-11 18:06:02:537,0,-6.62139,-1.84797,84.4446
2023-03-11 18:06:02:547,0,-6.64934,-1.87301,84.455
2023-03-11 18:06:02:557,0,-6.67397,-1.90267,84.4699
2023-03-11 18:06:02:567,0,-6.69954,-1.93711,84.4827
2023-03-11 18:06:02:577,0,-6.72078,-1.96853,84.5001
2023-03-11 18:06:02:587,0,-6.7415,-2.00045,84.5133
2023-03-11 18:06:02:597,0,-6.75562,-2.03291,84.5281
2023-03-11 18:06:02:607,0,-6.76893,-2.0695,84.5454
2023-03-11 18:06:02:617,0,-6.78413,-2.11341,84.5637
2023-03-11 18:06:02:627,0,-6.79893,-2.15657,84.5813
2023-03-11 18:06:02:637,0,-6.81404,-2.19782,84.6013
2023-03-11 18:06:02:647,0,-6.82522,-2.23478,84.6275
2023-03-11 18:06:02:657,0,-6.82519,-2.2712,84.649
2023-03-11 18:06:02:667,0,-6.82664,-2.30452,84.6749
2023-03-11 18:06:02:677,0,-6.83094,-2.33784,84.7016
2023-03-11 18:06:02:687,0,-6.8354,-2.36865,84.7273
2023-03-11 18:06:02:696,0,-6.8343,-2.39922,84.7505
2023-03-11 18:06:02:706,0,-6.83501,-2.4234,84.773
2023-03-11 18:06:02:716,0,-6.83437,-2.44667,84.7959
2023-03-11 18:06:02:726,0,-6.82492,-2.47027,84.8176
2023-03-11 18:06:02:736,0,-6.81589,-2.49163,84.8388
2023-03-11 18:06:02:747,0,-6.80515,-2.50953,84.8559
2023-03-11 18:06:02:757,0,-6.79516,-2.5271,84.8697
2023-03-11 18:06:02:767,0,-6.78363,-2.54254,84.8794
2023-03-11 18:06:02:777,0,-6.77086,-2.55726,84.8833
2023-03-11 18:06:02:787,0,-6.7541,-2.57058,84.8917
2023-03-11 18:06:02:797,0,-6.73664,-2.57926,84.8931
2023-03-11 18:06:02:807,0,-6.72171,-2.58455,84.89
2023-03-11 18:06:02:817,0,-6.70724,-2.58607,84.882
2023-03-11 18:06:02:827,0,-6.69519,-2.59385,84.8792
2023-03-11 18:06:02:837,0,-6.68694,-2.60005,84.8737
2023-03-11 18:06:02:847,0,-6.68058,-2.60673,84.8674
2023-03-11 18:06:02:857,0,-6.67355,-2.61517,84.8608
2023-03-11 18:06:02:867,0,-6.66443,-2.62712,84.8584
2023-03-11 18:06:02:877,0,-6.65398,-2.63407,84.8569
2023-03-11 18:06:02:887,0,-6.64486,-2.64038,84.8571
2023-03-11 18:06:02:897,0,-6.63325,-2.64948,84.8618
2023-03-11 18:06:02:907,0,-6.62584,-2.6584,84.8667
2023-03-11 18:06:02:917,0,-6.61506,-2.66483,84.8709
2023-03-11 18:06:02:927,0,-6.60687,-2.67302,84.8765
2023-03-11 18:06:02:937,0,-6.59939,-2.68098,84.8792
2023-03-11 18:06:02:947,0,-6.59375,-2.69051,84.8856
2023-03-11 18:06:02:957,0,-6.58798,-2.70328,84.8911
2023-03-11 18:06:02:967,0,-6.58225,-2.71374,84.8947
2023-03-11 18:06:02:977,0,-6.57593,-2.72194,84.8994
2023-03-11 18:06:02:987,0,-6.57015,-2.7325,84.9024
2023-03-11 18:06:02:997,0,-6.56088,-2.74386,84.9016
2023-03-11 18:06:03:7,0,-6.55214,-2.75849,84.9029
2023-03-11 18:06:03:17,0,-6.54499,-2.77617,84.905
2023-03-11 18:06:03:27,0,-6.53478,-2.79886,84.908
2023-03-11 18:06:03:37,0,-6.53297,-2.82338,84.9138
2023-03-11 18:06:03:47,0,-6.53156,-2.84497,84.9205
2023-03-11 18:06:03:57,0,-6.53799,-2.86452,84.9271
2023-03-11 18:06:03:67,0,-6.5424,-2.88772,84.9373
2023-03-11 18:06:03:77,0,-6.55074,-2.90793,84.9473
2023-03-11 18:06:03:87,0,-6.56297,-2.92553,84.9579
2023-03-11 18:06:03:97,0,-6.57661,-2.94549,84.9729
2023-03-11 18:06:03:107,0,-6.59598,-2.96384,84.9875
2023-03-11 18:06:03:117,0,-6.61308,-2.98027,85.0029
2023-03-11 18:06:03:127,0,-6.63025,-2.99197,85.0204
2023-03-11 18:06:03:137,0,-6.64989,-3.00124,85.0366
2023-03-11 18:06:03:147,0,-6.66629,-3.01002,85.0496
2023-03-11 18:06:03:157,0,-6.68789,-3.01739,85.0659
2023-03-11 18:06:03:167,0,-6.70875,-3.01792,85.0797
2023-03-11 18:06:03:177,0,-6.73322,-3.01738,85.0917
2023-03-11 18:06:03:187,0,-6.75644,-3.01807,85.102
2023-03-11 18:06:03:197,0,-6.78072,-3.01303,85.113
2023-03-11 18:06:03:207,0,-6.80696,-3.01168,85.1209
2023-03-11 18:06:03:217,0,-6.83674,-3.00393,85.1218
2023-03-11 18:06:03:227,0,-6.86895,-2.99356,85.1251
2023-03-11 18:06:03:237,0,-6.89732,-2.98396,85.1218
2023-03-11 18:06:03:247,0,-6.92033,-2.97216,85.1138
2023-03-11 18:06:03:257,0,-6.94059,-2.96033,85.1058
2023-03-11 18:06:03:267,0,-6.96282,-2.95164,85.0973
2023-03-11 18:06:03:277,0,-6.98341,-2.94126,85.0903
2023-03-11 18:06:03:287,0,-7.00154,-2.93353,85.0872
2023-03-11 18:06:03:297,0,-7.01809,-2.92149,85.0843
2023-03-11 18:06:03:307,0,-7.03461,-2.90959,85.0845
2023-03-11 18:06:03:317,0,-7.04694,-2.8969,85.0904
2023-03-11 18:06:03:327,0,-7.05477,-2.88909,85.0994
2023-03-11 18:06:03:337,0,-7.06226,-2.88434,85.1159
2023-03-11 18:06:03:347,0,-7.06406,-2.88076,85.1335
2023-03-11 18:06:03:357,0,-7.06542,-2.88267,85.1504
2023-03-11 18:06:03:367,0,-7.07006,-2.88246,85.1686
2023-03-11 18:06:03:377,0,-7.07418,-2.89121,85.1826
2023-03-11 18:06:03:387,0,-7.07751,-2.90001,85.2014
2023-03-11 18:06:03:397,0,-7.07668,-2.91125,85.2171
2023-03-11 18:06:03:406,0,-7.07771,-2.92607,85.2327
2023-03-11 18:06:03:417,0,-7.07438,-2.93996,85.2485
2023-03-11 18:06:03:427,0,-7.0679,-2.95564,85.2641
2023-03-11 18:06:03:437,0,-7.06236,-2.97315,85.2779
2023-03-11 18:06:03:447,0,-7.05562,-2.99342,85.2934
2023-03-11 18:06:03:457,0,-7.0496,-3.01068,85.3121
2023-03-11 18:06:03:467,0,-7.0442,-3.03066,85.3283
2023-03-11 18:06:03:477,0,-7.03915,-3.04752,85.3484
2023-03-11 18:06:03:487,0,-7.0389,-3.06621,85.3678
2023-03-11 18:06:03:497,0,-7.0344,-3.08188,85.383
2023-03-11 18:06:03:507,0,-7.03344,-3.09971,85.399
2023-03-11 18:06:03:517,0,-7.03726,-3.11487,85.4166
2023-03-11 18:06:03:527,0,-7.03627,-3.12743,85.427
2023-03-11 18:06:03:537,0,-7.03448,-3.14112,85.4379
2023-03-11 18:06:03:547,0,-7.03057,-3.1519,85.4446
2023-03-11 18:06:03:557,0,-7.02893,-3.15885,85.4553
2023-03-11 18:06:03:567,0,-7.02871,-3.16577,85.4643
2023-03-11 18:06:03:577,0,-7.0287,-3.17209,85.4747
2023-03-11 18:06:03:587,0,-7.02931,-3.17819,85.484
2023-03-11 18:06:03:597,0,-7.03366,-3.18133,85.495
2023-03-11 18:06:03:607,0,-7.03753,-3.18435,85.5078
2023-03-11 18:06:03:617,0,-7.04018,-3.18726,85.5223
2023-03-11 18:06:03:627,0,-7.04609,-3.18765,85.5384
2023-03-11 18:06:03:637,0,-7.05261,-3.18837,85.5539
2023-03-11 18:06:03:647,0,-7.06197,-3.18984,85.5727
2023-03-11 18:06:03:657,0,-7.07233,-3.1896,85.589
2023-03-11 18:06:03:667,0,-7.08221,-3.19384,85.6012
2023-03-11 18:06:03:677,0,-7.08999,-3.19892,85.6159
2023-03-11 18:06:03:687,0,-7.10219,-3.20508,85.632
2023-03-11 18:06:03:697,0,-7.10616,-3.21048,85.6476
2023-03-11 18:06:03:707,0,-7.1107,-3.21256,85.6632
2023-03-11 18:06:03:717,0,-7.11164,-3.21651,85.6821
2023-03-11 18:06:03:727,0,-7.11537,-3.21965,85.6985
2023-03-11 18:06:03:737,0,-7.12188,-3.22222,85.7147
2023-03-11 18:06:03:747,0,-7.13284,-3.22475,85.7337
2023-03-11 18:06:03:757,0,-7.1435,-3.22951,85.7498
2023-03-11 18:06:03:767,0,-7.15291,-3.23793,85.767
2023-03-11 18:06:03:777,0,-7.16727,-3.24483,85.784
2023-03-11 18:06:03:787,0,-7.18613,-3.25304,85.8009
2023-03-11 18:06:03:797,0,-7.20555,-3.26275,85.8186
2023-03-11 18:06:03:807,0,-7.22406,-3.27051,85.8325
2023-03-11 18:06:03:817,0,-7.23991,-3.27921,85.8474
2023-03-11 18:06:03:827,0,-7.25006,-3.28841,85.8594
2023-03-11 18:06:03:837,0,-7.25889,-3.30239,85.8666
2023-03-11 18:06:03:847,0,-7.26437,-3.31536,85.8802
2023-03-11 18:06:03:857,0,-7.27166,-3.32677,85.8932
2023-03-11 18:06:03:867,0,-7.2826,-3.33736,85.9011
2023-03-11 18:06:03:877,0,-7.2929,-3.34634,85.913
2023-03-11 18:06:03:887,0,-7.30262,-3.35081,85.9279
2023-03-11 18:06:03:897,0,-7.31798,-3.35762,85.9423
2023-03-11 18:06:03:907,0,-7.33373,-3.36204,85.9554
2023-03-11 18:06:03:917,0,-7.34686,-3.36803,85.9701
2023-03-11 18:06:03:927,0,-7.36066,-3.3686,85.9848
2023-03-11 18:06:03:937,0,-7.3718,-3.37,86.003
2023-03-11 18:06:03:947,0,-7.38014,-3.37522,86.0238
2023-03-11 18:06:03:957,0,-7.38673,-3.37445,86.0477
2023-03-11 18:06:03:967,0,-7.39446,-3.37575,86.0715
2023-03-11 18:06:03:977,0,-7.40376,-3.37545,86.093
2023-03-11 18:06:03:987,0,-7.41403,-3.37597,86.1201
2023-03-11 18:06:03:997,0,-7.42429,-3.37605,86.1487
2023-03-11 18:06:04:7,0,-7.43472,-3.37382,86.174
2023-03-11 18:06:04:17,0,-7.44493,-3.37407,86.2027
2023-03-11 18:06:04:27,0,-7.45884,-3.37496,86.2258
2023-03-11 18:06:04:37,0,-7.47542,-3.37441,86.2479
2023-03-11 18:06:04:47,0,-7.48839,-3.37175,86.2637
2023-03-11 18:06:04:57,0,-7.49702,-3.37254,86.2784
2023-03-11 18:06:04:67,0,-7.5008,-3.37519,86.2885
2023-03-11 18:06:04:77,0,-7.50834,-3.37896,86.2914
2023-03-11 18:06:04:87,0,-7.51636,-3.38053,86.294
2023-03-11 18:06:04:97,0,-7.5227,-3.38506,86.291
2023-03-11 18:06:04:107,0,-7.53197,-3.38758,86.2867
2023-03-11 18:06:04:117,0,-7.54085,-3.38653,86.2753
2023-03-11 18:06:04:127,0,-7.55116,-3.38538,86.2618
2023-03-11 18:06:04:137,0,-7.56402,-3.38169,86.2491
2023-03-11 18:06:04:147,0,-7.57149,-3.38028,86.2369
2023-03-11 18:06:04:157,0,-7.57743,-3.38104,86.2268
2023-03-11 18:06:04:167,0,-7.58582,-3.38068,86.2151
2023-03-11 18:06:04:177,0,-7.59021,-3.38093,86.2065
2023-03-11 18:06:04:187,0,-7.59619,-3.38021,86.2025
2023-03-11 18:06:04:197,0,-7.59774,-3.38103,86.1997
2023-03-11 18:06:04:207,0,-7.5945,-3.38006,86.1958
2023-03-11 18:06:04:217,0,-7.59485,-3.37959,86.1942
2023-03-11 18:06:04:227,0,-7.59619,-3.38136,86.1963
2023-03-11 18:06:04:237,0,-7.59829,-3.38359,86.2041
2023-03-11 18:06:04:247,0,-7.61004,-3.38914,86.2126
2023-03-11 18:06:04:257,0,-7.62136,-3.3946,86.2238
2023-03-11 18:06:04:267,0,-7.63579,-3.39302,86.2351
2023-03-11 18:06:04:277,0,-7.64998,-3.39275,86.2514
2023-03-11 18:06:04:287,0,-7.66169,-3.3876,86.2707
2023-03-11 18:06:04:297,0,-7.68233,-3.38421,86.2888
2023-03-11 18:06:04:307,0,-7.70272,-3.38162,86.3088
2023-03-11 18:06:04:317,0,-7.72606,-3.38012,86.3272
2023-03-11 18:06:04:327,0,-7.74589,-3.37615,86.3404
2023-03-11 18:06:04:337,0,-7.76563,-3.37137,86.3486
2023-03-11 18:06:04:347,0,-7.79014,-3.36609,86.3574
2023-03-11 18:06:04:357,0,-7.81323,-3.35968,86.3605
2023-03-11 18:06:04:367,0,-7.83631,-3.35617,86.3601
2023-03-11 18:06:04:377,0,-7.86217,-3.35394,86.3612
2023-03-11 18:06:04:387,0,-7.88523,-3.34847,86.3551
2023-03-11 18:06:04:397,0,-7.90839,-3.35005,86.3502
2023-03-11 18:06:04:407,0,-7.93026,-3.34771,86.3468
2023-03-11 18:06:04:417,0,-7.95153,-3.34732,86.3428
2023-03-11 18:06:04:427,0,-7.97067,-3.34189,86.3389
2023-03-11 18:06:04:437,0,-7.9865,-3.34015,86.3363
2023-03-11 18:06:04:447,0,-8.00347,-3.34117,86.3353
2023-03-11 18:06:04:457,0,-8.01785,-3.34289,86.3347
2023-03-11 18:06:04:467,0,-8.03446,-3.34258,86.3366
2023-03-11 18:06:04:477,0,-8.04384,-3.34319,86.3407
2023-03-11 18:06:04:487,0,-8.05671,-3.34321,86.3458
2023-03-11 18:06:04:497,0,-8.06664,-3.34357,86.3557
2023-03-11 18:06:04:507,0,-8.07254,-3.34522,86.3661
2023-03-11 18:06:04:517,0,-8.08459,-3.34505,86.3751
2023-03-11 18:06:04:527,0,-8.09006,-3.34873,86.3855
2023-03-11 18:06:04:537,0,-8.09557,-3.35254,86.3965
2023-03-11 18:06:04:547,0,-8.09998,-3.35338,86.4042
2023-03-11 18:06:04:557,0,-8.10276,-3.3556,86.4135
2023-03-11 18:06:04:567,0,-8.10931,-3.35665,86.4278
2023-03-11 18:06:04:577,0,-8.11601,-3.36049,86.4377
2023-03-11 18:06:04:587,0,-8.12112,-3.35766,86.4461
2023-03-11 18:06:04:597,0,-8.13097,-3.35643,86.4534
2023-03-11 18:06:04:607,0,-8.14393,-3.35356,86.4585
2023-03-11 18:06:04:617,0,-8.15816,-3.34987,86.4632
2023-03-11 18:06:04:627,0,-8.17207,-3.34909,86.4704
2023-03-11 18:06:04:637,0,-8.18214,-3.35088,86.474
2023-03-11 18:06:04:647,0,-8.19724,-3.35382,86.4767
2023-03-11 18:06:04:657,0,-8.21433,-3.36097,86.4838
2023-03-11 18:06:04:667,0,-8.22794,-3.36719,86.4848
2023-03-11 18:06:04:677,0,-8.24719,-3.37199,86.4846
2023-03-11 18:06:04:687,0,-8.26076,-3.37504,86.4852
2023-03-11 18:06:04:697,0,-8.27702,-3.37991,86.4869
2023-03-11 18:06:04:707,0,-8.28982,-3.38634,86.487
2023-03-11 18:06:04:717,0,-8.30125,-3.38974,86.4899
2023-03-11 18:06:04:727,0,-8.31247,-3.39048,86.4926
2023-03-11 18:06:04:737,0,-8.32259,-3.39031,86.4944
2023-03-11 18:06:04:747,0,-8.33391,-3.39045,86.4953
2023-03-11 18:06:04:757,0,-8.34461,-3.39062,86.498
2023-03-11 18:06:04:767,0,-8.35313,-3.39161,86.4967
2023-03-11 18:06:04:777,0,-8.36362,-3.39297,86.4937
2023-03-11 18:06:04:787,0,-8.37304,-3.39034,86.4885
2023-03-11 18:06:04:797,0,-8.38604,-3.3896,86.4839
2023-03-11 18:06:04:807,0,-8.40155,-3.38329,86.4772
2023-03-11 18:06:04:817,0,-8.40904,-3.37794,86.4706
2023-03-11 18:06:04:827,0,-8.41936,-3.3698,86.4648
2023-03-11 18:06:04:837,0,-8.4246,-3.3615,86.4562
2023-03-11 18:06:04:847,0,-8.43227,-3.35434,86.448
2023-03-11 18:06:04:857,0,-8.44081,-3.34528,86.4379
2023-03-11 18:06:04:867,0,-8.44011,-3.33334,86.4272
2023-03-11 18:06:04:877,0,-8.43965,-3.3285,86.416
2023-03-11 18:06:04:887,0,-8.43669,-3.32362,86.4064
2023-03-11 18:06:04:897,0,-8.43441,-3.31726,86.4024
2023-03-11 18:06:04:907,0,-8.42973,-3.31214,86.3972
2023-03-11 18:06:04:917,0,-8.4261,-3.30638,86.3915
2023-03-11 18:06:04:927,0,-8.41861,-3.29777,86.385
2023-03-11 18:06:04:937,0,-8.41211,-3.2921,86.3834
2023-03-11 18:06:04:947,0,-8.40526,-3.2897,86.3807
2023-03-11 18:06:04:957,0,-8.3925,-3.28614,86.3786
2023-03-11 18:06:04:967,0,-8.38338,-3.28165,86.3781
2023-03-11 18:06:04:977,0,-8.37388,-3.27544,86.3773
2023-03-11 18:06:04:987,0,-8.36254,-3.2734,86.3753
2023-03-11 18:06:04:997,0,-8.35324,-3.27378,86.3759
2023-03-11 18:06:05:7,0,-8.33995,-3.27281,86.3741
2023-03-11 18:06:05:17,0,-8.32486,-3.27333,86.3722
2023-03-11 18:06:05:27,0,-8.31021,-3.27442,86.372
2023-03-11 18:06:05:37,0,-8.29573,-3.28003,86.374
2023-03-11 18:06:05:47,0,-8.28956,-3.28804,86.3749
2023-03-11 18:06:05:57,0,-8.27885,-3.29289,86.3756
2023-03-11 18:06:05:67,0,-8.26771,-3.29759,86.3771
2023-03-11 18:06:05:77,0,-8.25761,-3.30329,86.3796
2023-03-11 18:06:05:87,0,-8.24684,-3.30588,86.3838
2023-03-11 18:06:05:97,0,-8.23821,-3.30723,86.3837
2023-03-11 18:06:05:107,0,-8.22829,-3.30437,86.3839
2023-03-11 18:06:05:117,0,-8.22327,-3.30729,86.386
2023-03-11 18:06:05:127,0,-8.22022,-3.30461,86.3858
2023-03-11 18:06:05:137,0,-8.2174,-3.30196,86.3831
2023-03-11 18:06:05:147,0,-8.21298,-3.29442,86.38
2023-03-11 18:06:05:157,0,-8.21129,-3.28917,86.3743
2023-03-11 18:06:05:167,0,-8.21105,-3.28544,86.3683
2023-03-11 18:06:05:177,0,-8.21387,-3.2779,86.3603
2023-03-11 18:06:05:187,0,-8.2132,-3.27271,86.3499
2023-03-11 18:06:05:197,0,-8.21164,-3.26247,86.3399
2023-03-11 18:06:05:207,0,-8.20988,-3.25602,86.3324
2023-03-11 18:06:05:217,0,-8.20949,-3.24565,86.3209
2023-03-11 18:06:05:227,0,-8.20658,-3.23891,86.3158
2023-03-11 18:06:05:237,0,-8.20696,-3.23175,86.3096
2023-03-11 18:06:05:247,0,-8.21213,-3.22701,86.3077
2023-03-11 18:06:05:257,0,-8.21651,-3.22427,86.3064
2023-03-11 18:06:05:267,0,-8.22187,-3.22023,86.3068
2023-03-11 18:06:05:277,0,-8.22417,-3.21252,86.3071
2023-03-11 18:06:05:287,0,-8.2277,-3.20741,86.3071
2023-03-11 18:06:05:297,0,-8.22673,-3.20142,86.3069
2023-03-11 18:06:05:307,0,-8.22352,-3.1908,86.3048
2023-03-11 18:06:05:317,0,-8.22219,-3.18751,86.3041
2023-03-11 18:06:05:327,0,-8.21669,-3.17959,86.2999
2023-03-11 18:06:05:337,0,-8.21045,-3.17445,86.2939
2023-03-11 18:06:05:347,0,-8.2069,-3.16571,86.2859
2023-03-11 18:06:05:357,0,-8.20564,-3.15505,86.2781
2023-03-11 18:06:05:367,0,-8.20427,-3.14975,86.2692
2023-03-11 18:06:05:377,0,-8.20422,-3.14586,86.2601
2023-03-11 18:06:05:387,0,-8.2105,-3.13901,86.2593
2023-03-11 18:06:05:397,0,-8.21173,-3.1363,86.2541
2023-03-11 18:06:05:407,0,-8.20712,-3.13014,86.2517
2023-03-11 18:06:05:417,0,-8.19863,-3.13102,86.249
2023-03-11 18:06:05:427,0,-8.18998,-3.1361,86.246
2023-03-11 18:06:05:437,0,-8.18261,-3.14376,86.2471
2023-03-11 18:06:05:447,0,-8.17746,-3.1509,86.2524
2023-03-11 18:06:05:457,0,-8.17512,-3.15535,86.2623
2023-03-11 18:06:05:467,0,-8.17525,-3.16094,86.2732
2023-03-11 18:06:05:477,0,-8.17879,-3.16791,86.2893
2023-03-11 18:06:05:487,0,-8.17999,-3.17541,86.3035
2023-03-11 18:06:05:497,0,-8.17942,-3.17771,86.3156
2023-03-11 18:06:05:507,0,-8.17649,-3.18088,86.3295
2023-03-11 18:06:05:517,0,-8.17314,-3.18646,86.342
2023-03-11 18:06:05:527,0,-8.17283,-3.18874,86.3534
2023-03-11 18:06:05:537,0,-8.17122,-3.18969,86.3613
2023-03-11 18:06:05:547,0,-8.17281,-3.18993,86.3677
2023-03-11 18:06:05:557,0,-8.17477,-3.18742,86.3675
2023-03-11 18:06:05:567,0,-8.17968,-3.18367,86.368
2023-03-11 18:06:05:577,0,-8.18298,-3.18045,86.3625
2023-03-11 18:06:05:587,0,-8.19145,-3.17365,86.3566
2023-03-11 18:06:05:597,0,-8.19326,-3.16706,86.3501
2023-03-11 18:06:05:607,0,-8.19485,-3.16352,86.34
2023-03-11 18:06:05:617,0,-8.19347,-3.15473,86.3329
2023-03-11 18:06:05:627,0,-8.19115,-3.14425,86.3225
2023-03-11 18:06:05:637,0,-8.19027,-3.1314,86.3134
2023-03-11 18:06:05:647,0,-8.18336,-3.11742,86.2998
2023-03-11 18:06:05:657,0,-8.1744,-3.10996,86.2872
2023-03-11 18:06:05:667,0,-8.16694,-3.10729,86.2791
2023-03-11 18:06:05:677,0,-8.15963,-3.10739,86.274
2023-03-11 18:06:05:687,0,-8.15369,-3.10441,86.272
2023-03-11 18:06:05:697,0,-8.14595,-3.10424,86.2729
2023-03-11 18:06:05:707,0,-8.13557,-3.10192,86.2716
2023-03-11 18:06:05:717,0,-8.12739,-3.09886,86.2756
2023-03-11 18:06:05:727,0,-8.11839,-3.09954,86.2805
2023-03-11 18:06:05:737,0,-8.10648,-3.10131,86.2889
2023-03-11 18:06:05:747,0,-8.09889,-3.10633,86.2989
2023-03-11 18:06:05:757,0,-8.09096,-3.1155,86.3105
2023-03-11 18:06:05:767,0,-8.08071,-3.12011,86.3194
2023-03-11 18:06:05:777,0,-8.06966,-3.12733,86.327
2023-03-11 18:06:05:787,0,-8.05423,-3.13596,86.3313
2023-03-11 18:06:05:797,0,-8.04003,-3.14375,86.3362
2023-03-11 18:06:05:807,0,-8.02979,-3.15458,86.3395
2023-03-11 18:06:05:817,0,-8.01602,-3.16442,86.3407
2023-03-11 18:06:05:827,0,-8.01124,-3.17681,86.3488
2023-03-11 18:06:05:837,0,-8.00579,-3.1894,86.3593
2023-03-11 18:06:05:847,0,-8.00155,-3.19842,86.371
2023-03-11 18:06:05:857,0,-7.99396,-3.20983,86.3876
2023-03-11 18:06:05:867,0,-7.98979,-3.22335,86.4011
2023-03-11 18:06:05:877,0,-7.98406,-3.23359,86.4173
2023-03-11 18:06:05:887,0,-7.98271,-3.24365,86.4288
2023-03-11 18:06:05:897,0,-7.98317,-3.25375,86.4426
2023-03-11 18:06:05:907,0,-7.98616,-3.26095,86.4531
2023-03-11 18:06:05:917,0,-7.98695,-3.26198,86.463
2023-03-11 18:06:05:927,0,-7.98696,-3.2609,86.4723
2023-03-11 18:06:05:937,0,-7.98952,-3.26498,86.478
2023-03-11 18:06:05:947,0,-7.99524,-3.26602,86.4837
2023-03-11 18:06:05:957,0,-8.00043,-3.26565,86.4876
2023-03-11 18:06:05:967,0,-8.00619,-3.26936,86.4871
2023-03-11 18:06:05:977,0,-8.0103,-3.26678,86.4858
2023-03-11 18:06:05:987,0,-8.01541,-3.26498,86.4848
2023-03-11 18:06:05:997,0,-8.01432,-3.26323,86.4848
2023-03-11 18:06:06:7,0,-8.0137,-3.26362,86.4877
2023-03-11 18:06:06:17,0,-8.01673,-3.25872,86.4916
2023-03-11 18:06:06:27,0,-8.01583,-3.25391,86.494
2023-03-11 18:06:06:37,0,-8.01577,-3.25209,86.4973
2023-03-11 18:06:06:47,0,-8.01666,-3.25081,86.5036
2023-03-11 18:06:06:57,0,-8.01512,-3.25192,86.5083
2023-03-11 18:06:06:67,0,-8.01275,-3.25124,86.5168
2023-03-11 18:06:06:77,0,-8.01065,-3.25526,86.5244
2023-03-11 18:06:06:87,0,-8.0077,-3.25858,86.5322
2023-03-11 18:06:06:97,0,-7.99839,-3.2601,86.5376
2023-03-11 18:06:06:107,0,-7.98935,-3.26409,86.5457
2023-03-11 18:06:06:117,0,-7.9826,-3.26371,86.5531
2023-03-11 18:06:06:127,0,-7.97444,-3.26485,86.5567
2023-03-11 18:06:06:137,0,-7.96867,-3.26516,86.5622
2023-03-11 18:06:06:147,0,-7.96272,-3.26581,86.5665
2023-03-11 18:06:06:157,0,-7.95985,-3.26852,86.5701
2023-03-11 18:06:06:167,0,-7.95886,-3.26608,86.5726
2023-03-11 18:06:06:177,0,-7.95791,-3.26635,86.5754
2023-03-11 18:06:06:187,0,-7.95685,-3.26951,86.5783
2023-03-11 18:06:06:197,0,-7.95189,-3.27156,86.579
2023-03-11 18:06:06:207,0,-7.94729,-3.28075,86.5847
2023-03-11 18:06:06:217,0,-7.94482,-3.28958,86.5916
2023-03-11 18:06:06:227,0,-7.94466,-3.29699,86.5987
2023-03-11 18:06:06:237,0,-7.94625,-3.30407,86.6142
2023-03-11 18:06:06:247,0,-7.95187,-3.31327,86.6275
2023-03-11 18:06:06:257,0,-7.95782,-3.31499,86.6412
2023-03-11 18:06:06:267,0,-7.96144,-3.31874,86.6594
2023-03-11 18:06:06:277,0,-7.9659,-3.32531,86.6776
2023-03-11 18:06:06:287,0,-7.9719,-3.33198,86.695
2023-03-11 18:06:06:297,0,-7.97734,-3.33414,86.7128
2023-03-11 18:06:06:307,0,-7.98518,-3.33766,86.733
2023-03-11 18:06:06:317,0,-7.99152,-3.34241,86.741
2023-03-11 18:06:06:327,0,-7.99958,-3.34424,86.7496
2023-03-11 18:06:06:337,0,-8.0103,-3.34791,86.7575
2023-03-11 18:06:06:347,0,-8.02094,-3.34978,86.7592
2023-03-11 18:06:06:357,0,-8.03178,-3.34911,86.7664
2023-03-11 18:06:06:367,0,-8.04412,-3.34834,86.773
2023-03-11 18:06:06:377,0,-8.05206,-3.34733,86.7809
2023-03-11 18:06:06:387,0,-8.06421,-3.3463,86.7867
2023-03-11 18:06:06:397,0,-8.07639,-3.34793,86.7921
2023-03-11 18:06:06:407,0,-8.09108,-3.34699,86.7943
2023-03-11 18:06:06:417,0,-8.10127,-3.34409,86.795
2023-03-11 18:06:06:427,0,-8.10538,-3.34119,86.7976
2023-03-11 18:06:06:437,0,-8.10415,-3.34107,86.7992
2023-03-11 18:06:06:447,0,-8.09916,-3.34717,86.8048
2023-03-11 18:06:06:457,0,-8.09559,-3.35274,86.8084
2023-03-11 18:06:06:467,0,-8.09453,-3.35936,86.8123
2023-03-11 18:06:06:477,0,-8.09456,-3.3641,86.8189
2023-03-11 18:06:06:487,0,-8.09483,-3.36918,86.8246
2023-03-11 18:06:06:497,0,-8.09421,-3.37514,86.8301
2023-03-11 18:06:06:507,0,-8.0933,-3.38347,86.8381
2023-03-11 18:06:06:517,0,-8.09082,-3.39551,86.8439
2023-03-11 18:06:06:527,0,-8.08679,-3.40874,86.8513
2023-03-11 18:06:06:537,0,-8.08272,-3.41783,86.863
2023-03-11 18:06:06:547,0,-8.07845,-3.43219,86.8706
2023-03-11 18:06:06:557,0,-8.07749,-3.44648,86.8806
2023-03-11 18:06:06:567,0,-8.07782,-3.45813,86.8883
2023-03-11 18:06:06:577,0,-8.07959,-3.47082,86.8964
2023-03-11 18:06:06:587,0,-8.08338,-3.48508,86.9042
2023-03-11 18:06:06:597,0,-8.08937,-3.49938,86.9099
2023-03-11 18:06:06:607,0,-8.09751,-3.51787,86.9185
2023-03-11 18:06:06:617,0,-8.10459,-3.53058,86.9284
2023-03-11 18:06:06:627,0,-8.11742,-3.54728,86.9398
2023-03-11 18:06:06:637,0,-8.12993,-3.56364,86.953
2023-03-11 18:06:06:647,0,-8.14236,-3.57485,86.9663
2023-03-11 18:06:06:657,0,-8.15177,-3.5863,86.9771
2023-03-11 18:06:06:667,0,-8.15947,-3.59894,86.9889
2023-03-11 18:06:06:677,0,-8.16353,-3.60664,86.9979
2023-03-11 18:06:06:687,0,-8.16915,-3.61659,87.0069
2023-03-11 18:06:06:697,0,-8.17402,-3.62492,87.0102
2023-03-11 18:06:06:707,0,-8.18012,-3.63319,87.0136
2023-03-11 18:06:06:717,0,-8.18438,-3.64046,87.0126
2023-03-11 18:06:06:727,0,-8.19182,-3.647,87.0111
2023-03-11 18:06:06:737,0,-8.19518,-3.6533,87.0062
2023-03-11 18:06:06:747,0,-8.19404,-3.66063,87.0017
2023-03-11 18:06:06:757,0,-8.19181,-3.66224,86.995
2023-03-11 18:06:06:767,0,-8.18916,-3.66388,86.9904
2023-03-11 18:06:06:777,0,-8.18346,-3.66412,86.9871
2023-03-11 18:06:06:787,0,-8.18143,-3.66316,86.9861
2023-03-11 18:06:06:797,0,-8.17726,-3.66271,86.9838
2023-03-11 18:06:06:807,0,-8.1757,-3.65871,86.9851
2023-03-11 18:06:06:817,0,-8.1707,-3.65398,86.9876
2023-03-11 18:06:06:827,0,-8.1689,-3.65042,86.9905
2023-03-11 18:06:06:837,0,-8.16743,-3.64856,86.9975
2023-03-11 18:06:06:847,0,-8.16753,-3.64612,87.0042
2023-03-11 18:06:06:857,0,-8.16134,-3.64172,87.0105
2023-03-11 18:06:06:867,0,-8.15659,-3.63525,87.0153
2023-03-11 18:06:06:877,0,-8.14946,-3.63327,87.0174
2023-03-11 18:06:06:887,0,-8.14326,-3.62988,87.0168
2023-03-11 18:06:06:897,0,-8.13758,-3.6268,87.0114
2023-03-11 18:06:06:907,0,-8.12908,-3.62618,87.004
2023-03-11 18:06:06:917,0,-8.12178,-3.62404,86.9915
2023-03-11 18:06:06:927,0,-8.11833,-3.61665,86.9811
2023-03-11 18:06:06:937,0,-8.11088,-3.61304,86.9728
2023-03-11 18:06:06:947,0,-8.10934,-3.60976,86.9666
2023-03-11 18:06:06:957,0,-8.10947,-3.60462,86.9594
2023-03-11 18:06:06:967,0,-8.10585,-3.60271,86.9562
2023-03-11 18:06:06:977,0,-8.10519,-3.60159,86.9548
2023-03-11 18:06:06:987,0,-8.09923,-3.60281,86.959
2023-03-11 18:06:06:997,0,-8.10157,-3.60517,86.9626
2023-03-11 18:06:07:7,0,-8.10925,-3.60953,86.9719
2023-03-11 18:06:07:17,0,-8.11765,-3.61627,86.9805
2023-03-11 18:06:07:27,0,-8.12325,-3.62288,86.9839
2023-03-11 18:06:07:37,0,-8.12911,-3.62713,86.9892
2023-03-11 18:06:07:47,0,-8.13334,-3.63075,86.9935
2023-03-11 18:06:07:57,0,-8.13091,-3.63174,86.9938
2023-03-11 18:06:07:67,0,-8.12757,-3.63512,86.993
2023-03-11 18:06:07:77,0,-8.12775,-3.63543,86.9862
2023-03-11 18:06:07:87,0,-8.12627,-3.63646,86.9831
