Timestamp_cmd,imu_cmd,roll_delta,pitch_delta,yaw_delta,voice_type,voice_length
2023-03-15 15:08:03:285,0,-2.01763,-5.46367,-13.9998,Q,Q
2023-03-15 15:08:03:293,0,-2.02031,-5.46376,-14.0233,Q,Q
2023-03-15 15:08:03:303,0,-2.02294,-5.46671,-14.0471,Q,Q
2023-03-15 15:08:03:313,0,-2.02117,-5.47195,-14.0707,Q,Q
2023-03-15 15:08:03:323,0,-2.01863,-5.47467,-14.0914,Q,Q
2023-03-15 15:08:03:334,0,-2.01431,-5.48287,-14.1112,Q,Q
2023-03-15 15:08:03:344,0,-2.00887,-5.49066,-14.1299,Q,Q
2023-03-15 15:08:03:353,0,-2.00455,-5.49713,-14.147,Q,Q
2023-03-15 15:08:03:363,0,-2.00539,-5.50056,-14.1582,Q,Q
2023-03-15 15:08:03:374,0,-2.00794,-5.50382,-14.1673,Q,Q
2023-03-15 15:08:03:384,0,-2.01188,-5.50408,-14.1769,Q,Q
2023-03-15 15:08:03:394,0,-2.01321,-5.50422,-14.186,Q,Q
2023-03-15 15:08:03:404,0,-2.01023,-5.50574,-14.1923,Q,Q
2023-03-15 15:08:03:413,0,-2.00868,-5.50494,-14.1953,Q,Q
2023-03-15 15:08:03:424,0,-2.00897,-5.49686,-14.1953,Q,Q
2023-03-15 15:08:03:434,0,-2.00612,-5.48684,-14.1941,Q,Q
2023-03-15 15:08:03:443,0,-2.00147,-5.47586,-14.1841,Q,Q
2023-03-15 15:08:03:454,0,-2.00062,-5.46583,-14.1698,Q,Q
2023-03-15 15:08:03:464,0,-2.0013,-5.45887,-14.1526,Q,Q
2023-03-15 15:08:03:474,0,-2.0081,-5.45031,-14.1316,Q,Q
2023-03-15 15:08:03:483,0,-2.01847,-5.43967,-14.1093,Q,Q
2023-03-15 15:08:03:494,0,-2.02851,-5.4217,-14.0889,Q,Q
2023-03-15 15:08:03:504,0,-2.04318,-5.40261,-14.0698,Q,Q
2023-03-15 15:08:03:514,0,-2.06012,-5.38489,-14.0527,Q,Q
2023-03-15 15:08:03:524,0,-2.07372,-5.3722,-14.0359,Q,Q
2023-03-15 15:08:03:534,0,-2.08929,-5.35946,-14.0226,Q,Q
2023-03-15 15:08:03:544,0,-2.09881,-5.35624,-14.0086,Q,Q
2023-03-15 15:08:03:554,0,-2.11191,-5.36102,-13.9913,Q,Q
2023-03-15 15:08:03:564,0,-2.11991,-5.36857,-13.9749,Q,Q
2023-03-15 15:08:03:574,0,-2.12467,-5.37626,-13.9589,Q,Q
2023-03-15 15:08:03:583,0,-2.12883,-5.38263,-13.9424,Q,Q
2023-03-15 15:08:03:593,0,-2.13572,-5.38668,-13.9265,Q,Q
2023-03-15 15:08:03:603,0,-2.14314,-5.3935,-13.9082,Q,Q
2023-03-15 15:08:03:614,0,-2.15219,-5.39913,-13.888,Q,Q
2023-03-15 15:08:03:624,0,-2.16268,-5.41045,-13.8736,Q,Q
2023-03-15 15:08:03:634,0,-2.17673,-5.42217,-13.8554,Q,Q
2023-03-15 15:08:03:644,0,-2.19654,-5.43359,-13.8426,Q,Q
2023-03-15 15:08:03:654,0,-2.21404,-5.44324,-13.8398,Q,Q
2023-03-15 15:08:03:664,0,-2.22739,-5.44926,-13.848,Q,Q
2023-03-15 15:08:03:674,0,-2.23532,-5.45108,-13.8631,Q,Q
2023-03-15 15:08:03:684,0,-2.23633,-5.45574,-13.8813,Q,Q
2023-03-15 15:08:03:694,0,-2.23735,-5.46172,-13.8998,Q,Q
2023-03-15 15:08:03:704,0,-2.23872,-5.46864,-13.916,Q,Q
2023-03-15 15:08:03:714,0,-2.24284,-5.47901,-13.9301,Q,Q
2023-03-15 15:08:03:724,0,-2.2429,-5.47459,-13.9455,Q,Q
2023-03-15 15:08:03:734,0,-2.23235,-5.46692,-13.9632,Q,Q
2023-03-15 15:08:03:744,0,-2.21478,-5.45408,-13.9779,Q,Q
2023-03-15 15:08:03:753,0,-2.19158,-5.44023,-13.9896,Q,Q
2023-03-15 15:08:03:764,0,-2.1679,-5.43085,-14.0028,Q,Q
2023-03-15 15:08:03:774,0,-2.14799,-5.42508,-14.0111,Q,Q
2023-03-15 15:08:03:784,0,-2.12993,-5.41538,-14.0188,Q,Q
2023-03-15 15:08:03:794,0,-2.10769,-5.4032,-14.0275,Q,Q
2023-03-15 15:08:03:804,0,-2.09381,-5.39221,-14.0353,Q,Q
2023-03-15 15:08:03:814,0,-2.09734,-5.40355,-14.0421,Q,Q
2023-03-15 15:08:03:824,0,-2.11154,-5.39384,-14.0401,Q,Q
2023-03-15 15:08:03:834,0,-2.11604,-5.3824,-14.04,Q,Q
2023-03-15 15:08:03:844,0,-2.1095,-5.37068,-14.027,Q,Q
2023-03-15 15:08:03:854,0,-2.10209,-5.36788,-14.0071,Q,Q
2023-03-15 15:08:03:864,0,-2.0953,-5.36263,-13.982,Q,Q
2023-03-15 15:08:03:873,0,-2.0909,-5.37038,-13.9525,Q,Q
2023-03-15 15:08:03:883,0,-2.08862,-5.37945,-13.9156,Q,Q
2023-03-15 15:08:03:893,0,-2.08965,-5.39316,-13.8799,Q,Q
2023-03-15 15:08:03:903,0,-2.09787,-5.41204,-13.8483,Q,Q
2023-03-15 15:08:03:913,0,-2.11784,-5.44084,-13.8293,Q,Q
2023-03-15 15:08:03:923,0,-2.15986,-5.46185,-13.8269,Q,Q
2023-03-15 15:08:03:933,0,-2.1996,-5.4758,-13.8557,Q,Q
2023-03-15 15:08:03:943,0,-2.22377,-5.47652,-13.9094,Q,Q
2023-03-15 15:08:03:953,0,-2.22613,-5.4721,-13.9826,Q,Q
2023-03-15 15:08:03:963,0,-2.21265,-5.4739,-14.0618,Q,Q
2023-03-15 15:08:03:973,0,-2.18059,-5.48815,-14.138,Q,Q
2023-03-15 15:08:03:983,0,-2.13804,-5.50802,-14.2012,Q,Q
2023-03-15 15:08:03:993,0,-2.08516,-5.53926,-14.2514,Q,Q
2023-03-15 15:08:04:3,0,-2.02112,-5.57067,-14.2849,Q,Q
2023-03-15 15:08:04:13,0,-1.95328,-5.5933,-14.2971,Q,Q
2023-03-15 15:08:04:23,0,-1.87636,-5.61344,-14.2932,Q,Q
2023-03-15 15:08:04:33,0,-1.79269,-5.63054,-14.2664,Q,Q
2023-03-15 15:08:04:43,0,-1.70904,-5.64592,-14.2146,Q,Q
2023-03-15 15:08:04:53,0,-1.63074,-5.65554,-14.1423,Q,Q
2023-03-15 15:08:04:63,0,-1.55419,-5.66678,-14.0549,Q,Q
2023-03-15 15:08:04:73,0,-1.48288,-5.68009,-13.9548,Q,Q
2023-03-15 15:08:04:83,0,-1.42051,-5.69783,-13.8411,Q,Q
2023-03-15 15:08:04:93,0,-1.37694,-5.71632,-13.7222,Q,Q
2023-03-15 15:08:04:103,0,-1.35069,-5.74708,-13.5964,Q,Q
2023-03-15 15:08:04:114,0,-1.34335,-5.78299,-13.4716,Q,Q
2023-03-15 15:08:04:124,0,-1.34208,-5.82774,-13.3588,Q,Q
2023-03-15 15:08:04:134,0,-1.34616,-5.87716,-13.2566,Q,Q
2023-03-15 15:08:04:144,0,-1.36155,-5.92902,-13.1607,Q,Q
2023-03-15 15:08:04:153,0,-1.38186,-5.97981,-13.0741,Q,Q
2023-03-15 15:08:04:163,0,-1.40133,-6.02845,-12.9969,Q,Q
2023-03-15 15:08:04:174,0,-1.42371,-6.07639,-12.9241,Q,Q
2023-03-15 15:08:04:184,0,-1.43444,-6.12482,-12.8562,Q,Q
2023-03-15 15:08:04:194,0,-1.4425,-6.17188,-12.7891,Q,Q
2023-03-15 15:08:04:204,0,-1.45297,-6.21306,-12.7256,Q,Q
2023-03-15 15:08:04:214,0,-1.46324,-6.24803,-12.6668,Q,Q
2023-03-15 15:08:04:224,0,-1.47781,-6.2768,-12.6148,Q,Q
2023-03-15 15:08:04:234,0,-1.4916,-6.29684,-12.5701,Q,Q
2023-03-15 15:08:04:244,0,-1.49825,-6.30638,-12.5363,Q,Q
2023-03-15 15:08:04:254,0,-1.50205,-6.30751,-12.5083,Q,Q
2023-03-15 15:08:04:264,0,-1.49667,-6.30039,-12.4859,Q,Q
2023-03-15 15:08:04:274,0,-1.48507,-6.28408,-12.4677,Q,Q
2023-03-15 15:08:04:284,0,-1.47017,-6.2691,-12.4626,Q,Q
2023-03-15 15:08:04:294,0,-1.44767,-6.24522,-12.4599,Q,Q
2023-03-15 15:08:04:304,0,-1.41765,-6.21365,-12.4709,Q,Q
2023-03-15 15:08:04:314,0,-1.37756,-6.1822,-12.4869,Q,Q
2023-03-15 15:08:04:324,0,-1.33696,-6.14667,-12.5017,Q,Q
2023-03-15 15:08:04:334,0,-1.29872,-6.11342,-12.5253,Q,Q
2023-03-15 15:08:04:344,0,-1.26486,-6.06961,-12.5576,Q,Q
2023-03-15 15:08:04:354,0,-1.23647,-6.02244,-12.5905,Q,Q
2023-03-15 15:08:04:364,0,-1.2124,-5.98092,-12.6308,Q,Q
2023-03-15 15:08:04:374,0,-1.20145,-5.93714,-12.6789,Q,Q
2023-03-15 15:08:04:384,0,-1.19004,-5.89106,-12.7257,Q,Q
2023-03-15 15:08:04:394,0,-1.18536,-5.83149,-12.7749,Q,Q
2023-03-15 15:08:04:404,0,-1.18333,-5.77798,-12.8168,Q,Q
2023-03-15 15:08:04:413,0,-1.18898,-5.73164,-12.8502,Q,Q
2023-03-15 15:08:04:424,0,-1.20052,-5.68857,-12.8723,Q,Q
2023-03-15 15:08:04:433,0,-1.21818,-5.65641,-12.8901,Q,Q
2023-03-15 15:08:04:443,0,-1.2438,-5.62841,-12.901,Q,Q
2023-03-15 15:08:04:453,0,-1.26462,-5.59924,-12.9105,Q,Q
2023-03-15 15:08:04:463,0,-1.28549,-5.5698,-12.917,Q,Q
2023-03-15 15:08:04:473,0,-1.30153,-5.53842,-12.9192,Q,Q
2023-03-15 15:08:04:483,0,-1.31481,-5.51385,-12.9207,Q,Q
2023-03-15 15:08:04:494,0,-1.32541,-5.4954,-12.9238,Q,Q
2023-03-15 15:08:04:503,0,-1.33039,-5.47901,-12.9239,Q,Q
2023-03-15 15:08:04:513,0,-1.34005,-5.46548,-12.9291,Q,Q
2023-03-15 15:08:04:524,0,-1.35336,-5.45615,-12.9352,Q,Q
2023-03-15 15:08:04:533,0,-1.36549,-5.45432,-12.9472,Q,Q
2023-03-15 15:08:04:544,0,-1.38494,-5.45653,-12.9603,Q,Q
2023-03-15 15:08:04:553,0,-1.40595,-5.46462,-12.9862,Q,Q
2023-03-15 15:08:04:563,0,-1.42756,-5.47597,-13.0209,Q,Q
2023-03-15 15:08:04:574,0,-1.44431,-5.48959,-13.0626,Q,Q
2023-03-15 15:08:04:583,0,-1.45668,-5.50736,-13.1083,Q,Q
2023-03-15 15:08:04:594,0,-1.46528,-5.52748,-13.1601,Q,Q
2023-03-15 15:08:04:603,0,-1.47204,-5.54794,-13.2165,Q,Q
2023-03-15 15:08:04:613,0,-1.47874,-5.57105,-13.2803,Q,Q
2023-03-15 15:08:04:623,0,-1.48133,-5.58699,-13.355,Q,Q
2023-03-15 15:08:04:633,0,-1.48405,-5.59585,-13.435,Q,Q
2023-03-15 15:08:04:643,0,-1.48399,-5.59728,-13.5196,Q,Q
2023-03-15 15:08:04:653,0,-1.48686,-5.59686,-13.6042,Q,Q
2023-03-15 15:08:04:664,0,-1.48759,-5.6016,-13.6921,Q,Q
2023-03-15 15:08:04:674,0,-1.49617,-5.60305,-13.7778,Q,Q
2023-03-15 15:08:04:684,0,-1.50171,-5.60677,-13.8575,Q,Q
2023-03-15 15:08:04:694,0,-1.50677,-5.61713,-13.9402,Q,Q
2023-03-15 15:08:04:703,0,-1.50806,-5.6271,-14.0168,Q,Q
2023-03-15 15:08:04:713,0,-1.50093,-5.63539,-14.0879,Q,Q
2023-03-15 15:08:04:723,0,-1.49133,-5.64548,-14.1586,Q,Q
2023-03-15 15:08:04:733,0,-1.48046,-5.6543,-14.2222,Q,Q
2023-03-15 15:08:04:743,0,-1.47149,-5.66517,-14.2854,Q,Q
2023-03-15 15:08:04:753,0,-1.46671,-5.67104,-14.3406,Q,Q
2023-03-15 15:08:04:763,0,-1.46276,-5.67552,-14.3926,Q,Q
2023-03-15 15:08:04:774,0,-1.46069,-5.68331,-14.445,Q,Q
2023-03-15 15:08:04:783,0,-1.45699,-5.68828,-14.4896,Q,Q
2023-03-15 15:08:04:794,0,-1.44558,-5.68535,-14.5373,Q,Q
2023-03-15 15:08:04:803,0,-1.4293,-5.67486,-14.5774,Q,Q
2023-03-15 15:08:04:813,0,-1.41253,-5.66464,-14.6171,Q,Q
2023-03-15 15:08:04:823,0,-1.39672,-5.65383,-14.652,Q,Q
2023-03-15 15:08:04:834,0,-1.38226,-5.6429,-14.6871,Q,Q
2023-03-15 15:08:04:843,0,-1.36993,-5.63147,-14.7184,Q,Q
2023-03-15 15:08:04:853,0,-1.36256,-5.62462,-14.7428,Q,Q
2023-03-15 15:08:04:863,0,-1.3574,-5.62176,-14.7665,Q,Q
2023-03-15 15:08:04:874,0,-1.36064,-5.61588,-14.7915,Q,Q
2023-03-15 15:08:04:883,0,-1.36984,-5.6078,-14.8143,Q,Q
2023-03-15 15:08:04:893,0,-1.38346,-5.59705,-14.8406,Q,Q
2023-03-15 15:08:04:903,0,-1.40087,-5.58713,-14.8667,Q,Q
2023-03-15 15:08:04:913,0,-1.41116,-5.57448,-14.8909,Q,Q
2023-03-15 15:08:04:923,0,-1.42298,-5.56415,-14.919,Q,Q
2023-03-15 15:08:04:933,0,-1.43593,-5.5513,-14.9467,Q,Q
2023-03-15 15:08:04:943,0,-1.44433,-5.53913,-14.9761,Q,Q
2023-03-15 15:08:04:953,0,-1.45201,-5.52878,-15.0054,Q,Q
2023-03-15 15:08:04:963,0,-1.46282,-5.51715,-15.0349,Q,Q
2023-03-15 15:08:04:974,0,-1.47377,-5.50939,-15.0651,Q,Q
2023-03-15 15:08:04:984,0,-1.48665,-5.49666,-15.1018,Q,Q
2023-03-15 15:08:04:994,0,-1.50095,-5.4879,-15.1347,Q,Q
2023-03-15 15:08:05:3,0,-1.51188,-5.47887,-15.1736,Q,Q
2023-03-15 15:08:05:13,0,-1.52315,-5.47203,-15.2174,Q,Q
2023-03-15 15:08:05:24,0,-1.53607,-5.45707,-15.2637,Q,Q
2023-03-15 15:08:05:34,0,-1.55138,-5.43443,-15.3153,Q,Q
2023-03-15 15:08:05:43,0,-1.56048,-5.4036,-15.3771,Q,Q
2023-03-15 15:08:05:53,0,-1.5652,-5.38047,-15.4345,Q,Q
2023-03-15 15:08:05:63,0,-1.56802,-5.3624,-15.4891,Q,Q
2023-03-15 15:08:05:74,0,-1.5712,-5.35074,-15.5437,Q,Q
2023-03-15 15:08:05:83,0,-1.57632,-5.33866,-15.604,Q,Q
2023-03-15 15:08:05:94,0,-1.58043,-5.3285,-15.6635,Q,Q
2023-03-15 15:08:05:103,0,-1.58021,-5.31519,-15.7187,Q,Q
2023-03-15 15:08:05:113,0,-1.57529,-5.30617,-15.7726,Q,Q
2023-03-15 15:08:05:123,0,-1.57042,-5.28833,-15.8266,Q,Q
2023-03-15 15:08:05:133,0,-1.55742,-5.25653,-15.8782,Q,Q
2023-03-15 15:08:05:143,0,-1.53446,-5.22874,-15.926,Q,Q
2023-03-15 15:08:05:153,0,-1.51273,-5.20738,-15.9676,Q,Q
2023-03-15 15:08:05:164,0,-1.49657,-5.19084,-16.0103,Q,Q
2023-03-15 15:08:05:173,0,-1.48093,-5.17652,-16.0472,Q,Q
2023-03-15 15:08:05:184,0,-1.46592,-5.1685,-16.0885,Q,Q
2023-03-15 15:08:05:194,0,-1.44791,-5.15978,-16.1275,Q,Q
2023-03-15 15:08:05:203,0,-1.43074,-5.15101,-16.1681,Q,Q
2023-03-15 15:08:05:214,0,-1.41315,-5.14591,-16.2137,Q,Q
2023-03-15 15:08:05:223,0,-1.3951,-5.1487,-16.2553,Q,Q
2023-03-15 15:08:05:233,0,-1.38172,-5.15802,-16.2931,Q,Q
2023-03-15 15:08:05:243,0,-1.3639,-5.16673,-16.333,Q,Q
2023-03-15 15:08:05:253,0,-1.34012,-5.17035,-16.37,Q,Q
2023-03-15 15:08:05:263,0,-1.31486,-5.18067,-16.4009,Q,Q
2023-03-15 15:08:05:273,0,-1.29037,-5.1894,-16.4247,Q,Q
2023-03-15 15:08:05:283,0,-1.26657,-5.19693,-16.4418,Q,Q
2023-03-15 15:08:05:293,0,-1.25218,-5.20227,-16.4569,Q,Q
2023-03-15 15:08:05:303,0,-1.23591,-5.21295,-16.4708,Q,Q
2023-03-15 15:08:05:314,0,-1.22062,-5.22171,-16.4794,Q,Q
2023-03-15 15:08:05:323,0,-1.20658,-5.22809,-16.4888,Q,Q
2023-03-15 15:08:05:333,0,-1.19144,-5.23569,-16.4992,Q,Q
2023-03-15 15:08:05:343,0,-1.17797,-5.23957,-16.5093,Q,Q
2023-03-15 15:08:05:354,0,-1.16096,-5.24652,-16.5168,Q,Q
2023-03-15 15:08:05:363,0,-1.14637,-5.25126,-16.5229,Q,Q
2023-03-15 15:08:05:373,0,-1.13401,-5.25879,-16.5255,Q,Q
2023-03-15 15:08:05:384,0,-1.11772,-5.26868,-16.5248,Q,Q
2023-03-15 15:08:05:393,0,-1.09296,-5.28161,-16.5261,Q,Q
2023-03-15 15:08:05:403,0,-1.06518,-5.29576,-16.5302,Q,Q
2023-03-15 15:08:05:413,0,-1.03581,-5.30454,-16.5346,Q,Q
2023-03-15 15:08:05:423,0,-1.00094,-5.3167,-16.5445,Q,Q
2023-03-15 15:08:05:434,0,-0.965299,-5.32695,-16.5575,Q,Q
2023-03-15 15:08:05:443,0,-0.933231,-5.33334,-16.5768,Q,Q
2023-03-15 15:08:05:453,0,-0.908388,-5.33812,-16.595,Q,Q
2023-03-15 15:08:05:463,0,-0.886868,-5.3376,-16.6212,Q,Q
2023-03-15 15:08:05:474,0,-0.873646,-5.33541,-16.6525,Q,Q
2023-03-15 15:08:05:483,0,-0.861145,-5.32991,-16.6863,Q,Q
2023-03-15 15:08:05:493,0,-0.853608,-5.3244,-16.7174,Q,Q
2023-03-15 15:08:05:503,0,-0.851321,-5.32265,-16.7441,Q,Q
2023-03-15 15:08:05:513,0,-0.859715,-5.31839,-16.7666,Q,Q
2023-03-15 15:08:05:523,0,-0.876818,-5.31631,-16.7816,Q,Q
2023-03-15 15:08:05:534,0,-0.898829,-5.31546,-16.7985,Q,Q
2023-03-15 15:08:05:543,0,-0.91769,-5.31148,-16.8164,Q,Q
2023-03-15 15:08:05:554,0,-0.93367,-5.308,-16.8328,Q,Q
2023-03-15 15:08:05:563,0,-0.945427,-5.30286,-16.8509,Q,Q
2023-03-15 15:08:05:573,0,-0.958765,-5.30214,-16.8671,Q,Q
2023-03-15 15:08:05:583,0,-0.963048,-5.30094,-16.8856,Q,Q
2023-03-15 15:08:05:593,0,-0.962714,-5.29721,-16.9093,Q,Q
2023-03-15 15:08:05:603,0,-0.960742,-5.29434,-16.933,Q,Q
2023-03-15 15:08:05:613,0,-0.957196,-5.29416,-16.9551,Q,Q
2023-03-15 15:08:05:623,0,-0.955143,-5.29367,-16.9732,Q,Q
2023-03-15 15:08:05:634,0,-0.952802,-5.29561,-16.9955,Q,Q
2023-03-15 15:08:05:643,0,-0.946135,-5.293,-17.0146,Q,Q
2023-03-15 15:08:05:653,0,-0.940012,-5.29301,-17.0264,Q,Q
2023-03-15 15:08:05:663,0,-0.934998,-5.29512,-17.0319,Q,Q
2023-03-15 15:08:05:673,0,-0.932286,-5.2888,-17.0401,Q,Q
2023-03-15 15:08:05:683,0,-0.930355,-5.2802,-17.0452,Q,Q
2023-03-15 15:08:05:693,0,-0.928944,-5.26377,-17.0474,Q,Q
2023-03-15 15:08:05:703,0,-0.927557,-5.25117,-17.0441,Q,Q
2023-03-15 15:08:05:713,0,-0.931202,-5.24003,-17.0362,Q,Q
2023-03-15 15:08:05:724,0,-0.930929,-5.22585,-17.0264,Q,Q
2023-03-15 15:08:05:733,0,-0.930919,-5.21495,-17.016,Q,Q
2023-03-15 15:08:05:743,0,-0.927537,-5.20167,-17.0041,Q,Q
2023-03-15 15:08:05:753,0,-0.922115,-5.19151,-16.9906,Q,Q
2023-03-15 15:08:05:763,0,-0.914783,-5.18238,-16.973,Q,Q
2023-03-15 15:08:05:773,0,-0.903023,-5.17294,-16.9562,Q,Q
2023-03-15 15:08:05:784,0,-0.892568,-5.16677,-16.9395,Q,Q
2023-03-15 15:08:05:793,0,-0.875633,-5.15796,-16.9189,Q,Q
2023-03-15 15:08:05:803,0,-0.855719,-5.14856,-16.9016,Q,Q
2023-03-15 15:08:05:813,0,-0.830459,-5.14018,-16.8823,Q,Q
2023-03-15 15:08:05:823,0,-0.809465,-5.13407,-16.8625,Q,Q
2023-03-15 15:08:05:834,0,-0.792062,-5.12955,-16.8435,Q,Q
2023-03-15 15:08:05:843,0,-0.774781,-5.1303,-16.8237,Q,Q
2023-03-15 15:08:05:853,0,-0.756163,-5.13388,-16.8093,Q,Q
2023-03-15 15:08:05:863,0,-0.74074,-5.13544,-16.7953,Q,Q
2023-03-15 15:08:05:873,0,-0.73065,-5.13942,-16.7878,Q,Q
2023-03-15 15:08:05:884,0,-0.721413,-5.1426,-16.782,Q,Q
2023-03-15 15:08:05:893,0,-0.706587,-5.14673,-16.7773,Q,Q
2023-03-15 15:08:05:903,0,-0.693798,-5.15069,-16.7768,Q,Q
2023-03-15 15:08:05:913,0,-0.683988,-5.15421,-16.7718,Q,Q
2023-03-15 15:08:05:924,0,-0.67048,-5.15593,-16.7659,Q,Q
2023-03-15 15:08:05:934,0,-0.659381,-5.15951,-16.7577,Q,Q
2023-03-15 15:08:05:944,0,-0.650798,-5.15746,-16.7508,Q,Q
2023-03-15 15:08:05:954,0,-0.645823,-5.16091,-16.7412,Q,Q
2023-03-15 15:08:05:964,0,-0.642949,-5.16423,-16.7283,Q,Q
2023-03-15 15:08:05:974,0,-0.639729,-5.16875,-16.7159,Q,Q
2023-03-15 15:08:05:984,0,-0.636775,-5.17299,-16.7063,Q,Q
2023-03-15 15:08:05:994,0,-0.629349,-5.18015,-16.6938,Q,Q
2023-03-15 15:08:06:3,0,-0.628234,-5.1853,-16.6819,Q,Q
2023-03-15 15:08:06:13,0,-0.625067,-5.19075,-16.673,Q,Q
2023-03-15 15:08:06:23,0,-0.61715,-5.19943,-16.6675,Q,Q
2023-03-15 15:08:06:33,0,-0.612226,-5.20354,-16.6556,Q,Q
2023-03-15 15:08:06:43,0,-0.60803,-5.20729,-16.6459,Q,Q
2023-03-15 15:08:06:53,0,-0.602139,-5.21578,-16.6406,Q,Q
2023-03-15 15:08:06:63,0,-0.598242,-5.22073,-16.6333,Q,Q
2023-03-15 15:08:06:73,0,-0.596566,-5.22596,-16.6221,Q,Q
2023-03-15 15:08:06:83,0,-0.594549,-5.23427,-16.6144,Q,Q
2023-03-15 15:08:06:93,0,-0.589639,-5.24521,-16.6084,Q,Q
2023-03-15 15:08:06:103,0,-0.581036,-5.26333,-16.5976,Q,Q
2023-03-15 15:08:06:113,0,-0.57047,-5.27976,-16.5915,Q,Q
2023-03-15 15:08:06:123,0,-0.565412,-5.29938,-16.5852,Q,Q
2023-03-15 15:08:06:133,0,-0.555869,-5.31753,-16.5837,Q,Q
2023-03-15 15:08:06:143,0,-0.547922,-5.33974,-16.5798,Q,Q
2023-03-15 15:08:06:153,0,-0.543331,-5.36008,-16.575,Q,Q
2023-03-15 15:08:06:163,0,-0.53962,-5.38006,-16.5729,Q,Q
2023-03-15 15:08:06:173,0,-0.531371,-5.39677,-16.5682,Q,Q
2023-03-15 15:08:06:183,0,-0.515822,-5.41062,-16.5615,Q,Q
2023-03-15 15:08:06:193,0,-0.496382,-5.42912,-16.5544,Q,Q
2023-03-15 15:08:06:203,0,-0.481976,-5.45293,-16.5443,Q,Q
2023-03-15 15:08:06:213,0,-0.473397,-5.47355,-16.5332,Q,Q
2023-03-15 15:08:06:223,0,-0.457784,-5.49209,-16.5289,Q,Q
2023-03-15 15:08:06:233,0,-0.445075,-5.50641,-16.5251,Q,Q
2023-03-15 15:08:06:243,0,-0.429373,-5.51827,-16.5218,Q,Q
2023-03-15 15:08:06:253,0,-0.4134,-5.52682,-16.5192,Q,Q
2023-03-15 15:08:06:263,0,-0.396739,-5.53459,-16.518,Q,Q
2023-03-15 15:08:06:273,0,-0.373039,-5.53643,-16.5195,Q,Q
2023-03-15 15:08:06:283,0,-0.34533,-5.54305,-16.5274,Q,Q
2023-03-15 15:08:06:293,0,-0.31217,-5.54576,-16.533,Q,Q
2023-03-15 15:08:06:303,0,-0.28016,-5.54857,-16.5382,Q,Q
2023-03-15 15:08:06:313,0,-0.2546,-5.55501,-16.541,Q,Q
2023-03-15 15:08:06:323,0,-0.230417,-5.56113,-16.5417,Q,Q
2023-03-15 15:08:06:333,0,-0.21029,-5.56526,-16.5413,Q,Q
2023-03-15 15:08:06:343,0,-0.195998,-5.56853,-16.542,Q,Q
2023-03-15 15:08:06:353,0,-0.183843,-5.57045,-16.5414,Q,Q
2023-03-15 15:08:06:363,0,-0.172384,-5.57469,-16.5374,Q,Q
2023-03-15 15:08:06:373,0,-0.164893,-5.58144,-16.5323,Q,Q
2023-03-15 15:08:06:383,0,-0.156457,-5.58233,-16.5318,Q,Q
2023-03-15 15:08:06:393,0,-0.143384,-5.57683,-16.5345,Q,Q
2023-03-15 15:08:06:403,0,-0.117546,-5.57506,-16.5362,Q,Q
2023-03-15 15:08:06:413,0,-0.0907126,-5.57302,-16.5328,Q,Q
2023-03-15 15:08:06:423,0,-0.0639407,-5.57963,-16.5303,Q,Q
2023-03-15 15:08:06:433,0,-0.0374452,-5.58678,-16.5258,Q,Q
2023-03-15 15:08:06:443,0,-0.0126642,-5.58941,-16.5197,Q,Q
2023-03-15 15:08:06:453,0,0.00830215,-5.59431,-16.5162,Q,Q
2023-03-15 15:08:06:463,0,0.0300572,-5.59738,-16.5147,Q,Q
2023-03-15 15:08:06:473,0,0.0506917,-5.5963,-16.5191,Q,Q
2023-03-15 15:08:06:483,0,0.0720742,-5.58606,-16.5216,Q,Q
2023-03-15 15:08:06:493,0,0.0984832,-5.57261,-16.5274,Q,Q
2023-03-15 15:08:06:503,0,0.125071,-5.576,-16.5272,Q,Q
2023-03-15 15:08:06:513,0,0.142674,-5.58248,-16.5243,Q,Q
2023-03-15 15:08:06:523,0,0.151633,-5.58293,-16.5237,Q,Q
2023-03-15 15:08:06:533,0,0.160854,-5.58251,-16.5188,Q,Q
2023-03-15 15:08:06:544,0,0.159988,-5.58309,-16.5051,Q,Q
2023-03-15 15:08:06:553,0,0.152019,-5.58283,-16.4854,Q,Q
2023-03-15 15:08:06:564,0,0.142432,-5.58723,-16.4665,Q,Q
2023-03-15 15:08:06:574,0,0.131266,-5.59216,-16.4404,Q,Q
2023-03-15 15:08:06:584,0,0.120759,-5.6045,-16.4106,Q,Q
2023-03-15 15:08:06:594,0,0.119664,-5.62314,-16.3698,Q,Q
2023-03-15 15:08:06:604,0,0.123858,-5.64659,-16.3286,Q,Q
2023-03-15 15:08:06:614,0,0.134081,-5.66858,-16.2832,Q,Q
2023-03-15 15:08:06:623,0,0.151246,-5.68744,-16.2451,Q,Q
2023-03-15 15:08:06:634,0,0.16606,-5.69646,-16.2089,Q,Q
2023-03-15 15:08:06:644,0,0.178941,-5.69659,-16.1736,Q,Q
2023-03-15 15:08:06:654,0,0.188981,-5.69256,-16.1372,Q,Q
2023-03-15 15:08:06:664,0,0.197392,-5.68785,-16.0991,Q,Q
2023-03-15 15:08:06:673,0,0.206933,-5.67788,-16.0671,Q,Q
2023-03-15 15:08:06:683,0,0.213498,-5.66908,-16.0395,Q,Q
2023-03-15 15:08:06:693,0,0.219907,-5.65311,-16.0175,Q,Q
2023-03-15 15:08:06:703,0,0.22725,-5.63352,-16.0025,Q,Q
2023-03-15 15:08:06:714,0,0.233106,-5.61188,-15.992,Q,Q
2023-03-15 15:08:06:723,0,0.246796,-5.58102,-15.9864,Q,Q
2023-03-15 15:08:06:734,0,0.277562,-5.54816,-15.9809,Q,Q
2023-03-15 15:08:06:744,0,0.310012,-5.526,-15.9742,Q,Q
2023-03-15 15:08:06:754,0,0.335951,-5.5209,-15.9625,Q,Q
2023-03-15 15:08:06:764,0,0.357019,-5.52199,-15.9512,Q,Q
2023-03-15 15:08:06:774,0,0.378681,-5.51936,-15.9409,Q,Q
2023-03-15 15:08:06:784,0,0.404611,-5.51866,-15.9294,Q,Q
2023-03-15 15:08:06:794,0,0.427924,-5.52297,-15.9138,Q,Q
2023-03-15 15:08:06:804,0,0.438637,-5.52848,-15.8971,Q,Q
2023-03-15 15:08:06:813,0,0.44466,-5.53625,-15.8837,Q,Q
2023-03-15 15:08:06:824,0,0.447754,-5.54215,-15.8723,Q,Q
2023-03-15 15:08:06:834,0,0.450801,-5.55387,-15.8535,Q,Q
2023-03-15 15:08:06:843,0,0.454779,-5.56499,-15.8322,Q,Q
2023-03-15 15:08:06:854,0,0.454916,-5.5744,-15.8061,Q,Q
2023-03-15 15:08:06:863,0,0.462349,-5.58302,-15.7731,Q,Q
2023-03-15 15:08:06:873,0,0.471747,-5.58924,-15.7303,Q,Q
2023-03-15 15:08:06:884,0,0.484119,-5.59304,-15.6834,Q,Q
2023-03-15 15:08:06:894,0,0.49601,-5.58893,-15.6303,Q,Q
2023-03-15 15:08:06:904,0,0.511045,-5.58228,-15.5729,Q,Q
2023-03-15 15:08:06:913,0,0.518208,-5.57335,-15.5056,Q,Q
2023-03-15 15:08:06:924,0,0.520802,-5.55908,-15.4291,Q,Q
2023-03-15 15:08:06:934,0,0.523653,-5.54365,-15.3513,Q,Q
2023-03-15 15:08:06:943,0,0.525093,-5.52407,-15.2791,Q,Q
2023-03-15 15:08:06:953,0,0.530563,-5.50591,-15.2107,Q,Q
2023-03-15 15:08:06:963,0,0.534086,-5.48312,-15.1429,Q,Q
2023-03-15 15:08:06:973,0,0.541013,-5.46015,-15.0812,Q,Q
2023-03-15 15:08:06:984,0,0.551331,-5.43754,-15.0261,Q,Q
2023-03-15 15:08:06:994,0,0.563106,-5.4172,-14.9769,Q,Q
2023-03-15 15:08:07:4,0,0.576918,-5.39504,-14.9317,Q,Q
2023-03-15 15:08:07:14,0,0.595833,-5.37479,-14.8883,Q,Q
2023-03-15 15:08:07:24,0,0.613379,-5.35622,-14.846,Q,Q
2023-03-15 15:08:07:34,0,0.632243,-5.34163,-14.805,Q,Q
2023-03-15 15:08:07:43,0,0.649854,-5.32828,-14.7643,Q,Q
2023-03-15 15:08:07:54,0,0.662186,-5.31511,-14.7241,Q,Q
2023-03-15 15:08:07:64,0,0.672566,-5.30441,-14.681,Q,Q
2023-03-15 15:08:07:74,0,0.675745,-5.29642,-14.6417,Q,Q
2023-03-15 15:08:07:84,0,0.667086,-5.29268,-14.6046,Q,Q
2023-03-15 15:08:07:94,0,0.643192,-5.28805,-14.5737,Q,Q
2023-03-15 15:08:07:104,0,0.600467,-5.28008,-14.5548,Q,Q
2023-03-15 15:08:07:114,0,0.539788,-5.25994,-14.5564,Q,Q
2023-03-15 15:08:07:124,0,0.466289,-5.22859,-14.5806,Q,Q
2023-03-15 15:08:07:134,0,0.384219,-5.18451,-14.6205,Q,Q
2023-03-15 15:08:07:144,0,0.296146,-5.13252,-14.6789,Q,Q
2023-03-15 15:08:07:154,0,0.215687,-5.08388,-14.7514,Q,Q
2023-03-15 15:08:07:164,0,0.148558,-5.04482,-14.834,Q,Q
2023-03-15 15:08:07:174,0,0.0948648,-5.00993,-14.9239,Q,Q
2023-03-15 15:08:07:184,0,0.0611212,-4.98461,-15.0103,Q,Q
2023-03-15 15:08:07:194,0,0.0474843,-4.96606,-15.0886,Q,Q
2023-03-15 15:08:07:203,0,0.047373,-4.95518,-15.155,Q,Q
2023-03-15 15:08:07:213,0,0.0547569,-4.95342,-15.206,Q,Q
2023-03-15 15:08:07:223,0,0.0694439,-4.95772,-15.2411,Q,Q
2023-03-15 15:08:07:233,0,0.0831793,-4.96206,-15.2553,Q,Q
2023-03-15 15:08:07:243,0,0.0958659,-4.97306,-15.2581,Q,Q
2023-03-15 15:08:07:253,0,0.107992,-4.98034,-15.2471,Q,Q
2023-03-15 15:08:07:263,0,0.118795,-4.97939,-15.2264,Q,Q
2023-03-15 15:08:07:274,0,0.127576,-4.97887,-15.1971,Q,Q
2023-03-15 15:08:07:283,0,0.132469,-4.97172,-15.1595,Q,Q
2023-03-15 15:08:07:294,0,0.132206,-4.96782,-15.1212,Q,Q
2023-03-15 15:08:07:304,0,0.131559,-4.95862,-15.0863,Q,Q
2023-03-15 15:08:07:314,0,0.132556,-4.95297,-15.06,Q,Q
2023-03-15 15:08:07:324,0,0.133763,-4.94834,-15.0371,Q,Q
2023-03-15 15:08:07:334,0,0.141499,-4.94083,-15.0239,Q,Q
2023-03-15 15:08:07:344,0,0.151117,-4.92987,-15.0154,Q,Q
2023-03-15 15:08:07:354,0,0.165094,-4.92278,-15.0168,Q,Q
2023-03-15 15:08:07:364,0,0.182262,-4.91334,-15.0327,Q,Q
2023-03-15 15:08:07:374,0,0.19897,-4.90189,-15.0539,Q,Q
2023-03-15 15:08:07:384,0,0.215451,-4.89079,-15.0762,Q,Q
2023-03-15 15:08:07:394,0,0.230461,-4.88049,-15.1051,Q,Q
2023-03-15 15:08:07:404,0,0.243063,-4.87152,-15.1334,Q,Q
2023-03-15 15:08:07:414,0,0.251567,-4.86717,-15.1645,Q,Q
2023-03-15 15:08:07:424,0,0.257602,-4.86096,-15.1948,Q,Q
2023-03-15 15:08:07:434,0,0.255984,-4.85478,-15.2228,Q,Q
2023-03-15 15:08:07:444,0,0.253989,-4.84932,-15.2494,Q,Q
2023-03-15 15:08:07:454,0,0.251809,-4.84546,-15.2711,Q,Q
2023-03-15 15:08:07:464,0,0.242041,-4.84067,-15.2885,Q,Q
2023-03-15 15:08:07:474,0,0.225394,-4.83809,-15.3041,Q,Q
2023-03-15 15:08:07:484,0,0.208586,-4.8378,-15.316,Q,Q
2023-03-15 15:08:07:494,0,0.190836,-4.83767,-15.325,Q,Q
2023-03-15 15:08:07:504,0,0.166363,-4.83244,-15.331,Q,Q
2023-03-15 15:08:07:514,0,0.144426,-4.82823,-15.3361,Q,Q
2023-03-15 15:08:07:524,0,0.122191,-4.82159,-15.338,Q,Q
2023-03-15 15:08:07:534,0,0.0954798,-4.81806,-15.3377,Q,Q
2023-03-15 15:08:07:544,0,0.0674399,-4.8112,-15.3408,Q,Q
2023-03-15 15:08:07:554,0,0.0420589,-4.80131,-15.3436,Q,Q
2023-03-15 15:08:07:564,0,0.0155123,-4.79732,-15.3461,Q,Q
2023-03-15 15:08:07:574,0,-0.00545796,-4.7913,-15.3513,Q,Q
2023-03-15 15:08:07:584,0,-0.0185896,-4.78671,-15.3562,Q,Q
2023-03-15 15:08:07:594,0,-0.0256211,-4.78384,-15.3635,Q,Q
2023-03-15 15:08:07:604,0,-0.028055,-4.78491,-15.3733,Q,Q
2023-03-15 15:08:07:614,0,-0.0284022,-4.78598,-15.3761,Q,Q
2023-03-15 15:08:07:624,0,-0.0265066,-4.78408,-15.3808,Q,Q
2023-03-15 15:08:07:634,0,-0.0240737,-4.78445,-15.3795,Q,Q
2023-03-15 15:08:07:644,0,-0.0183275,-4.78937,-15.3748,Q,Q
2023-03-15 15:08:07:654,0,-0.0101777,-4.79724,-15.3661,Q,Q
2023-03-15 15:08:07:664,0,-0.0106085,-4.80579,-15.3581,Q,Q
2023-03-15 15:08:07:674,0,-0.00854527,-4.81615,-15.3422,Q,Q
2023-03-15 15:08:07:684,0,-0.0152808,-4.82173,-15.3263,Q,Q
2023-03-15 15:08:07:694,0,-0.0255574,-4.82171,-15.3123,Q,Q
2023-03-15 15:08:07:703,0,-0.0379273,-4.82346,-15.2987,Q,Q
2023-03-15 15:08:07:713,0,-0.0422013,-4.8254,-15.2882,Q,Q
2023-03-15 15:08:07:723,0,-0.0392438,-4.82927,-15.2771,Q,Q
2023-03-15 15:08:07:733,0,-0.0349278,-4.83047,-15.2661,Q,Q
2023-03-15 15:08:07:743,0,-0.0289274,-4.83498,-15.2565,Q,Q
2023-03-15 15:08:07:753,0,-0.0226124,-4.8378,-15.2543,Q,Q
2023-03-15 15:08:07:763,0,-0.0149602,-4.84022,-15.2528,Q,Q
2023-03-15 15:08:07:774,0,-0.00931175,-4.8436,-15.2539,Q,Q
2023-03-15 15:08:07:784,0,-0.00533081,-4.84765,-15.2613,Q,Q
2023-03-15 15:08:07:794,0,-0.00303608,-4.85276,-15.2719,Q,Q
2023-03-15 15:08:07:804,0,-0.00198231,-4.85721,-15.285,Q,Q
2023-03-15 15:08:07:814,0,-0.00109677,-4.8607,-15.2985,Q,Q
2023-03-15 15:08:07:824,0,-0.00298236,-4.86094,-15.3138,Q,Q
2023-03-15 15:08:07:834,0,-0.00315642,-4.86523,-15.3275,Q,Q
2023-03-15 15:08:07:844,0,-0.00187398,-4.86452,-15.3407,Q,Q
2023-03-15 15:08:07:854,0,-0.00306038,-4.86056,-15.3538,Q,Q
2023-03-15 15:08:07:864,0,0.00151052,-4.85402,-15.3686,Q,Q
2023-03-15 15:08:07:874,0,0.0122323,-4.84954,-15.379,Q,Q
2023-03-15 15:08:07:884,0,0.0238047,-4.84608,-15.385,Q,Q
2023-03-15 15:08:07:894,0,0.039149,-4.8478,-15.3912,Q,Q
2023-03-15 15:08:07:904,0,0.0532576,-4.84954,-15.3986,Q,Q
2023-03-15 15:08:07:914,0,0.0707531,-4.84736,-15.4062,Q,Q
2023-03-15 15:08:07:923,0,0.0905057,-4.84642,-15.4154,Q,Q
2023-03-15 15:08:07:933,0,0.109185,-4.84691,-15.4254,Q,Q
2023-03-15 15:08:07:944,0,0.130059,-4.8499,-15.4341,Q,Q
2023-03-15 15:08:07:954,0,0.153706,-4.85511,-15.4437,Q,Q
2023-03-15 15:08:07:964,0,0.175394,-4.86225,-15.4545,Q,Q
2023-03-15 15:08:07:974,0,0.204383,-4.86683,-15.4636,Q,Q
2023-03-15 15:08:07:984,0,0.233369,-4.87219,-15.4719,Q,Q
2023-03-15 15:08:07:994,0,0.265891,-4.88109,-15.4751,Q,Q
2023-03-15 15:08:08:4,0,0.296652,-4.89237,-15.4778,Q,Q
2023-03-15 15:08:08:14,0,0.323552,-4.90006,-15.4773,Q,Q
2023-03-15 15:08:08:24,0,0.352399,-4.9046,-15.4757,Q,Q
2023-03-15 15:08:08:34,0,0.381471,-4.91344,-15.4713,Q,Q
2023-03-15 15:08:08:44,0,0.408537,-4.9274,-15.4603,Q,Q
2023-03-15 15:08:08:54,0,0.42975,-4.94141,-15.4475,Q,Q
2023-03-15 15:08:08:64,0,0.449739,-4.95222,-15.4269,Q,Q
2023-03-15 15:08:08:74,0,0.467055,-4.95772,-15.4034,Q,Q
2023-03-15 15:08:08:84,0,0.489367,-4.96248,-15.3788,Q,Q
2023-03-15 15:08:08:94,0,0.506114,-4.96726,-15.3528,Q,Q
2023-03-15 15:08:08:104,0,0.522738,-4.9692,-15.3305,Q,Q
2023-03-15 15:08:08:114,0,0.538011,-4.97592,-15.3136,Q,Q
2023-03-15 15:08:08:124,0,0.549438,-4.98421,-15.3043,Q,Q
2023-03-15 15:08:08:134,0,0.564944,-4.9958,-15.2991,Q,Q
2023-03-15 15:08:08:144,0,0.578986,-5.00734,-15.3013,Q,Q
2023-03-15 15:08:08:154,0,0.586661,-5.01767,-15.3052,Q,Q
2023-03-15 15:08:08:164,0,0.595521,-5.03064,-15.3192,Q,Q
2023-03-15 15:08:08:174,0,0.606911,-5.04286,-15.3306,Q,Q
2023-03-15 15:08:08:184,0,0.612589,-5.05509,-15.3413,Q,Q
2023-03-15 15:08:08:194,0,0.616471,-5.06513,-15.3519,Q,Q
2023-03-15 15:08:08:204,0,0.620909,-5.06812,-15.3624,Q,Q
2023-03-15 15:08:08:214,0,0.625188,-5.07302,-15.3701,Q,Q
2023-03-15 15:08:08:224,0,0.629493,-5.07245,-15.3758,Q,Q
2023-03-15 15:08:08:233,0,0.637756,-5.07578,-15.3788,Q,Q
2023-03-15 15:08:08:243,0,0.64128,-5.08056,-15.3788,Q,Q
2023-03-15 15:08:08:254,0,0.649065,-5.08546,-15.3781,Q,Q
2023-03-15 15:08:08:263,0,0.65447,-5.09118,-15.3807,Q,Q
2023-03-15 15:08:08:274,0,0.6618,-5.09625,-15.3775,Q,Q
2023-03-15 15:08:08:284,0,0.669617,-5.10388,-15.3764,Q,Q
2023-03-15 15:08:08:294,0,0.677452,-5.10232,-15.3693,Q,Q
2023-03-15 15:08:08:304,0,0.687811,-5.09945,-15.3569,Q,Q
2023-03-15 15:08:08:314,0,0.700019,-5.09334,-15.3401,Q,Q
2023-03-15 15:08:08:324,0,0.709174,-5.08749,-15.3228,Q,Q
2023-03-15 15:08:08:334,0,0.717043,-5.08019,-15.3035,Q,Q
2023-03-15 15:08:08:344,0,0.727708,-5.07426,-15.2848,Q,Q
2023-03-15 15:08:08:354,0,0.737023,-5.06677,-15.2747,Q,Q
2023-03-15 15:08:08:364,0,0.744031,-5.0576,-15.2657,Q,Q
2023-03-15 15:08:08:374,0,0.750802,-5.04754,-15.2641,Q,Q
2023-03-15 15:08:08:384,0,0.754534,-5.03711,-15.2684,Q,Q
2023-03-15 15:08:08:394,0,0.759159,-5.0314,-15.2741,Q,Q
2023-03-15 15:08:08:404,0,0.768902,-5.02719,-15.2853,Q,Q
2023-03-15 15:08:08:414,0,0.783448,-5.02323,-15.2974,Q,Q
2023-03-15 15:08:08:424,0,0.80277,-5.01616,-15.3085,Q,Q
2023-03-15 15:08:08:434,0,0.818862,-5.0169,-15.3151,Q,Q
2023-03-15 15:08:08:444,0,0.836442,-5.02197,-15.3199,Q,Q
2023-03-15 15:08:08:454,0,0.845947,-5.0247,-15.3241,Q,Q
2023-03-15 15:08:08:464,0,0.853311,-5.02631,-15.3275,Q,Q
2023-03-15 15:08:08:474,0,0.85904,-5.03001,-15.3359,Q,Q
2023-03-15 15:08:08:483,0,0.860542,-5.02807,-15.3445,Q,Q
2023-03-15 15:08:08:494,0,0.867042,-5.03183,-15.3506,Q,Q
2023-03-15 15:08:08:504,0,0.881416,-5.03742,-15.3573,Q,Q
2023-03-15 15:08:08:514,0,0.89356,-5.03836,-15.3639,Q,Q
2023-03-15 15:08:08:524,0,0.910569,-5.03886,-15.3725,Q,Q
2023-03-15 15:08:08:534,0,0.932056,-5.03713,-15.3767,Q,Q
2023-03-15 15:08:08:544,0,0.954963,-5.02019,-15.3812,Q,Q
2023-03-15 15:08:08:554,0,0.991407,-4.9954,-15.387,Q,Q
2023-03-15 15:08:08:564,0,1.01871,-4.98763,-15.3831,Q,Q
2023-03-15 15:08:08:574,0,1.03482,-4.9882,-15.3734,Q,Q
2023-03-15 15:08:08:584,0,1.03651,-4.98386,-15.3688,Q,Q
2023-03-15 15:08:08:594,0,1.03805,-4.97392,-15.3717,Q,Q
2023-03-15 15:08:08:604,0,1.04454,-4.96195,-15.3738,Q,Q
2023-03-15 15:08:08:614,0,1.04622,-4.95218,-15.3738,Q,Q
2023-03-15 15:08:08:624,0,1.04499,-4.9429,-15.3775,Q,Q
2023-03-15 15:08:08:634,0,1.04163,-4.93788,-15.383,Q,Q
2023-03-15 15:08:08:644,0,1.0369,-4.92695,-15.3969,Q,Q
2023-03-15 15:08:08:654,0,1.04109,-4.91512,-15.414,Q,Q
2023-03-15 15:08:08:664,0,1.04946,-4.90206,-15.4297,Q,Q
2023-03-15 15:08:08:673,0,1.06429,-4.89104,-15.4428,Q,Q
2023-03-15 15:08:08:684,0,1.0776,-4.88562,-15.4526,Q,Q
2023-03-15 15:08:08:694,0,1.09302,-4.88331,-15.4607,Q,Q
2023-03-15 15:08:08:704,0,1.10623,-4.87995,-15.4674,Q,Q
2023-03-15 15:08:08:714,0,1.11481,-4.87593,-15.4687,Q,Q
2023-03-15 15:08:08:724,0,1.12151,-4.87577,-15.4652,Q,Q
2023-03-15 15:08:08:734,0,1.13148,-4.86833,-15.4654,Q,Q
2023-03-15 15:08:08:743,0,1.1406,-4.85459,-15.4631,Q,Q
2023-03-15 15:08:08:753,0,1.1637,-4.82048,-15.4668,Q,Q
2023-03-15 15:08:08:764,0,1.19532,-4.80506,-15.4682,Q,Q
2023-03-15 15:08:08:774,0,1.2148,-4.80408,-15.459,Q,Q
2023-03-15 15:08:08:784,0,1.22339,-4.80979,-15.4504,Q,Q
2023-03-15 15:08:08:794,0,1.2358,-4.81703,-15.4493,Q,Q
2023-03-15 15:08:08:804,0,1.25703,-4.81856,-15.4534,Q,Q
2023-03-15 15:08:08:814,0,1.27808,-4.82072,-15.4479,Q,Q
2023-03-15 15:08:08:824,0,1.29494,-4.82748,-15.4433,Q,Q
2023-03-15 15:08:08:834,0,1.3012,-4.83769,-15.4396,Q,Q
2023-03-15 15:08:08:844,0,1.3114,-4.84645,-15.4352,Q,Q
2023-03-15 15:08:08:854,0,1.31908,-4.85744,-15.4307,Q,Q
2023-03-15 15:08:08:864,0,1.33144,-4.86485,-15.4266,Q,Q
2023-03-15 15:08:08:874,0,1.34641,-4.86952,-15.4225,Q,Q
2023-03-15 15:08:08:884,0,1.35867,-4.87119,-15.4211,Q,Q
2023-03-15 15:08:08:894,0,1.37062,-4.8707,-15.4142,Q,Q
2023-03-15 15:08:08:904,0,1.3787,-4.86534,-15.4123,Q,Q
2023-03-15 15:08:08:914,0,1.38785,-4.86375,-15.413,Q,Q
2023-03-15 15:08:08:923,0,1.39581,-4.86277,-15.4163,Q,Q
2023-03-15 15:08:08:933,0,1.40622,-4.86129,-15.4226,Q,Q
2023-03-15 15:08:08:943,0,1.416,-4.8585,-15.4324,Q,Q
2023-03-15 15:08:08:953,0,1.43098,-4.85369,-15.4378,Q,Q
2023-03-15 15:08:08:964,0,1.44685,-4.85136,-15.4477,Q,Q
2023-03-15 15:08:08:974,0,1.46325,-4.85073,-15.4514,Q,Q
2023-03-15 15:08:08:984,0,1.47592,-4.85144,-15.4513,Q,Q
2023-03-15 15:08:08:994,0,1.48764,-4.85229,-15.4485,Q,Q
2023-03-15 15:08:09:4,0,1.50202,-4.83782,-15.4394,Q,Q
2023-03-15 15:08:09:14,0,1.53123,-4.81358,-15.4328,Q,Q
2023-03-15 15:08:09:24,0,1.55931,-4.8126,-15.4173,Q,Q
2023-03-15 15:08:09:34,0,1.5653,-4.82464,-15.3913,Q,Q
2023-03-15 15:08:09:44,0,1.56313,-4.83544,-15.3721,Q,Q
2023-03-15 15:08:09:54,0,1.56243,-4.83879,-15.3613,Q,Q
2023-03-15 15:08:09:63,0,1.57251,-4.84579,-15.3494,Q,Q
2023-03-15 15:08:09:74,0,1.58156,-4.85514,-15.3326,Q,Q
2023-03-15 15:08:09:84,0,1.58936,-4.86461,-15.3181,Q,Q
2023-03-15 15:08:09:94,0,1.59546,-4.87302,-15.3034,Q,Q
2023-03-15 15:08:09:104,0,1.59828,-4.87811,-15.2855,Q,Q
2023-03-15 15:08:09:114,0,1.60041,-4.88127,-15.2654,Q,Q
2023-03-15 15:08:09:124,0,1.60322,-4.88381,-15.2458,Q,Q
2023-03-15 15:08:09:134,0,1.60391,-4.87978,-15.224,Q,Q
2023-03-15 15:08:09:144,0,1.60198,-4.8752,-15.1964,Q,Q
2023-03-15 15:08:09:154,0,1.59216,-4.86928,-15.1733,Q,Q
2023-03-15 15:08:09:164,0,1.58227,-4.85639,-15.1561,Q,Q
2023-03-15 15:08:09:174,0,1.56925,-4.84091,-15.1417,Q,Q
2023-03-15 15:08:09:184,0,1.55355,-4.81918,-15.1267,Q,Q
2023-03-15 15:08:09:194,0,1.53752,-4.79437,-15.1145,Q,Q
2023-03-15 15:08:09:204,0,1.52032,-4.76788,-15.1029,Q,Q
2023-03-15 15:08:09:214,0,1.50372,-4.74295,-15.097,Q,Q
2023-03-15 15:08:09:224,0,1.4863,-4.71775,-15.0933,Q,Q
2023-03-15 15:08:09:234,0,1.46962,-4.69582,-15.0944,Q,Q
2023-03-15 15:08:09:244,0,1.45617,-4.67746,-15.1007,Q,Q
2023-03-15 15:08:09:254,0,1.44771,-4.66698,-15.1038,Q,Q
2023-03-15 15:08:09:264,0,1.4369,-4.6585,-15.1046,Q,Q
2023-03-15 15:08:09:273,0,1.42378,-4.65415,-15.1015,Q,Q
2023-03-15 15:08:09:284,0,1.408,-4.65265,-15.0982,Q,Q
2023-03-15 15:08:09:294,0,1.39706,-4.65191,-15.0939,Q,Q
2023-03-15 15:08:09:304,0,1.38339,-4.65256,-15.0903,Q,Q
2023-03-15 15:08:09:314,0,1.36767,-4.64931,-15.0881,Q,Q
2023-03-15 15:08:09:324,0,1.35218,-4.6494,-15.0833,Q,Q
2023-03-15 15:08:09:334,0,1.34478,-4.64582,-15.0782,Q,Q
2023-03-15 15:08:09:344,0,1.3398,-4.63931,-15.0743,Q,Q
2023-03-15 15:08:09:354,0,1.33353,-4.63573,-15.0725,Q,Q
2023-03-15 15:08:09:364,0,1.3303,-4.62981,-15.0648,Q,Q
2023-03-15 15:08:09:374,0,1.32896,-4.62406,-15.0613,Q,Q
2023-03-15 15:08:09:384,0,1.32028,-4.61856,-15.0556,Q,Q
2023-03-15 15:08:09:394,0,1.30884,-4.60863,-15.0504,Q,Q
2023-03-15 15:08:09:404,0,1.29294,-4.59937,-15.0481,Q,Q
2023-03-15 15:08:09:414,0,1.27315,-4.59079,-15.0438,Q,Q
2023-03-15 15:08:09:424,0,1.24912,-4.58235,-15.0426,Q,Q
2023-03-15 15:08:09:433,0,1.22743,-4.57125,-15.0424,Q,Q
2023-03-15 15:08:09:443,0,1.20487,-4.55888,-15.0474,Q,Q
2023-03-15 15:08:09:453,0,1.17842,-4.55036,-15.0471,Q,Q
2023-03-15 15:08:09:464,0,1.15515,-4.54375,-15.0517,Q,Q
2023-03-15 15:08:09:474,0,1.13183,-4.53174,-15.0612,Q,Q
2023-03-15 15:08:09:484,0,1.10502,-4.52218,-15.0687,Q,Q
2023-03-15 15:08:09:494,0,1.08382,-4.51363,-15.0799,Q,Q
2023-03-15 15:08:09:504,0,1.06891,-4.50568,-15.0912,Q,Q
2023-03-15 15:08:09:514,0,1.05483,-4.5012,-15.0994,Q,Q
2023-03-15 15:08:09:524,0,1.04386,-4.49911,-15.1107,Q,Q
2023-03-15 15:08:09:534,0,1.03255,-4.49705,-15.1199,Q,Q
2023-03-15 15:08:09:544,0,1.02185,-4.49135,-15.1295,Q,Q
2023-03-15 15:08:09:554,0,1.01309,-4.48954,-15.1386,Q,Q
2023-03-15 15:08:09:564,0,1.00516,-4.48601,-15.144,Q,Q
2023-03-15 15:08:09:574,0,1.00034,-4.48223,-15.1477,Q,Q
2023-03-15 15:08:09:584,0,1.0046,-4.4788,-15.1544,Q,Q
2023-03-15 15:08:09:594,0,1.00624,-4.47504,-15.1587,Q,Q
2023-03-15 15:08:09:604,0,1.0112,-4.47318,-15.1589,Q,Q
2023-03-15 15:08:09:614,0,1.01387,-4.46963,-15.1582,Q,Q
2023-03-15 15:08:09:624,0,1.0178,-4.4702,-15.1566,Q,Q
2023-03-15 15:08:09:634,0,1.0214,-4.47429,-15.153,Q,Q
2023-03-15 15:08:09:644,0,1.02406,-4.4749,-15.1488,Q,Q
2023-03-15 15:08:09:654,0,1.02341,-4.47631,-15.1453,Q,Q
2023-03-15 15:08:09:664,0,1.021,-4.48031,-15.1412,Q,Q
2023-03-15 15:08:09:674,0,1.01604,-4.48856,-15.1348,Q,Q
2023-03-15 15:08:09:684,0,1.01519,-4.49903,-15.1268,Q,Q
2023-03-15 15:08:09:693,0,1.01153,-4.50559,-15.116,Q,Q
2023-03-15 15:08:09:703,0,1.0062,-4.51474,-15.1081,Q,Q
2023-03-15 15:08:09:713,0,0.998197,-4.5274,-15.0981,Q,Q
2023-03-15 15:08:09:724,0,0.990092,-4.53683,-15.0889,Q,Q
2023-03-15 15:08:09:734,0,0.980142,-4.54868,-15.0834,Q,Q
2023-03-15 15:08:09:743,0,0.971028,-4.55677,-15.0777,Q,Q
2023-03-15 15:08:09:753,0,0.96048,-4.56701,-15.0724,Q,Q
2023-03-15 15:08:09:763,0,0.952045,-4.57637,-15.0709,Q,Q
2023-03-15 15:08:09:773,0,0.944357,-4.58703,-15.0715,Q,Q
2023-03-15 15:08:09:784,0,0.93977,-4.5954,-15.0766,Q,Q
2023-03-15 15:08:09:794,0,0.934756,-4.60493,-15.0758,Q,Q
2023-03-15 15:08:09:804,0,0.937819,-4.61062,-15.079,Q,Q
2023-03-15 15:08:09:814,0,0.93503,-4.61315,-15.0855,Q,Q
2023-03-15 15:08:09:824,0,0.935465,-4.61471,-15.0958,Q,Q
2023-03-15 15:08:09:834,0,0.939548,-4.61227,-15.1048,Q,Q
2023-03-15 15:08:09:844,0,0.946877,-4.61243,-15.116,Q,Q
2023-03-15 15:08:09:854,0,0.952467,-4.61381,-15.127,Q,Q
2023-03-15 15:08:09:864,0,0.958854,-4.61486,-15.1375,Q,Q
2023-03-15 15:08:09:874,0,0.961849,-4.60824,-15.1461,Q,Q
2023-03-15 15:08:09:884,0,0.964112,-4.60536,-15.1537,Q,Q
2023-03-15 15:08:09:894,0,0.963548,-4.61036,-15.1589,Q,Q
2023-03-15 15:08:09:904,0,0.962907,-4.61045,-15.1612,Q,Q
2023-03-15 15:08:09:914,0,0.96258,-4.61072,-15.1597,Q,Q
2023-03-15 15:08:09:924,0,0.963889,-4.61102,-15.157,Q,Q
2023-03-15 15:08:09:934,0,0.964934,-4.60976,-15.152,Q,Q
2023-03-15 15:08:09:944,0,0.967444,-4.60374,-15.1447,Q,Q
2023-03-15 15:08:09:954,0,0.972758,-4.59758,-15.1387,Q,Q
2023-03-15 15:08:09:964,0,0.979127,-4.58693,-15.1332,Q,Q
2023-03-15 15:08:09:974,0,0.98669,-4.57993,-15.125,Q,Q
2023-03-15 15:08:09:984,0,0.993418,-4.57491,-15.1185,Q,Q
2023-03-15 15:08:09:994,0,0.994433,-4.57017,-15.1079,Q,Q
2023-03-15 15:08:10:4,0,0.993574,-4.56785,-15.1001,Q,Q
2023-03-15 15:08:10:14,0,0.989333,-4.56645,-15.0929,Q,Q
2023-03-15 15:08:10:24,0,0.982579,-4.56363,-15.0892,Q,Q
2023-03-15 15:08:10:34,0,0.974156,-4.56048,-15.0811,Q,Q
2023-03-15 15:08:10:44,0,0.961892,-4.56138,-15.0746,Q,Q
2023-03-15 15:08:10:54,0,0.948932,-4.56377,-15.0672,Q,Q
2023-03-15 15:08:10:64,0,0.939046,-4.56773,-15.0579,Q,Q
2023-03-15 15:08:10:74,0,0.93391,-4.56964,-15.0544,Q,Q
2023-03-15 15:08:10:84,0,0.927727,-4.57159,-15.0513,Q,Q
2023-03-15 15:08:10:94,0,0.926619,-4.57039,-15.0493,Q,Q
2023-03-15 15:08:10:104,0,0.925342,-4.57007,-15.0494,Q,Q
2023-03-15 15:08:10:114,0,0.925869,-4.56903,-15.0539,Q,Q
2023-03-15 15:08:10:124,0,0.923115,-4.56972,-15.0596,Q,Q
2023-03-15 15:08:10:134,0,0.922953,-4.57101,-15.0687,Q,Q
2023-03-15 15:08:10:144,0,0.922513,-4.57171,-15.0745,Q,Q
2023-03-15 15:08:10:154,0,0.92451,-4.57443,-15.0824,Q,Q
2023-03-15 15:08:10:164,0,0.925992,-4.57936,-15.0825,Q,Q
2023-03-15 15:08:10:174,0,0.928047,-4.5882,-15.0788,Q,Q
2023-03-15 15:08:10:184,0,0.92811,-4.5989,-15.0707,Q,Q
2023-03-15 15:08:10:194,0,0.924708,-4.60741,-15.0597,Q,Q
2023-03-15 15:08:10:204,0,0.926331,-4.614,-15.0505,Q,Q
2023-03-15 15:08:10:214,0,0.92388,-4.62109,-15.0397,Q,Q
2023-03-15 15:08:10:224,0,0.924011,-4.62488,-15.0292,Q,Q
2023-03-15 15:08:10:234,0,0.925461,-4.62694,-15.0191,Q,Q
2023-03-15 15:08:10:244,0,0.930285,-4.63141,-15.0105,Q,Q
2023-03-15 15:08:10:254,0,0.934657,-4.63412,-15.0057,Q,Q
2023-03-15 15:08:10:264,0,0.941478,-4.6399,-15.0087,Q,Q
2023-03-15 15:08:10:274,0,0.951399,-4.64116,-15.0141,Q,Q
2023-03-15 15:08:10:284,0,0.959155,-4.64103,-15.0195,Q,Q
2023-03-15 15:08:10:294,0,0.962164,-4.64094,-15.0252,Q,Q
2023-03-15 15:08:10:304,0,0.962581,-4.63643,-15.0325,Q,Q
2023-03-15 15:08:10:314,0,0.961225,-4.63429,-15.0411,Q,Q
2023-03-15 15:08:10:324,0,0.956362,-4.6277,-15.0526,Q,Q
2023-03-15 15:08:10:334,0,0.954008,-4.61977,-15.0635,Q,Q
2023-03-15 15:08:10:344,0,0.952054,-4.61492,-15.0783,Q,Q
2023-03-15 15:08:10:354,0,0.945866,-4.6075,-15.09,Q,Q
2023-03-15 15:08:10:364,0,0.941308,-4.6026,-15.1014,Q,Q
2023-03-15 15:08:10:374,0,0.935405,-4.59652,-15.1127,Q,Q
2023-03-15 15:08:10:384,0,0.926239,-4.58769,-15.1234,Q,Q
2023-03-15 15:08:10:394,0,0.924661,-4.57752,-15.1362,Q,Q
2023-03-15 15:08:10:404,0,0.926012,-4.5683,-15.1465,Q,Q
2023-03-15 15:08:10:414,0,0.93029,-4.56087,-15.1585,Q,Q
2023-03-15 15:08:10:424,0,0.935678,-4.55708,-15.1719,Q,Q
2023-03-15 15:08:10:434,0,0.943941,-4.55149,-15.1784,Q,Q
2023-03-15 15:08:10:444,0,0.951888,-4.55018,-15.1855,Q,Q
2023-03-15 15:08:10:454,0,0.962099,-4.54724,-15.1906,Q,Q
2023-03-15 15:08:10:463,0,0.972934,-4.54589,-15.1935,Q,Q
2023-03-15 15:08:10:473,0,0.97936,-4.5414,-15.1931,Q,Q
2023-03-15 15:08:10:484,0,0.983978,-4.5378,-15.1936,Q,Q
2023-03-15 15:08:10:494,0,0.992437,-4.53596,-15.1941,Q,Q
2023-03-15 15:08:10:504,0,1.00126,-4.53659,-15.1968,Q,Q
2023-03-15 15:08:10:514,0,1.01647,-4.53852,-15.2019,Q,Q
2023-03-15 15:08:10:524,0,1.03551,-4.542,-15.2073,Q,Q
2023-03-15 15:08:10:534,0,1.05022,-4.54519,-15.2109,Q,Q
2023-03-15 15:08:10:544,0,1.06398,-4.54574,-15.2152,Q,Q
2023-03-15 15:08:10:554,0,1.07411,-4.55246,-15.2185,Q,Q
2023-03-15 15:08:10:564,0,1.07918,-4.56016,-15.219,Q,Q
2023-03-15 15:08:10:574,0,1.08287,-4.56974,-15.2216,Q,Q
2023-03-15 15:08:10:584,0,1.08153,-4.57474,-15.2228,Q,Q
2023-03-15 15:08:10:594,0,1.07848,-4.57957,-15.2209,Q,Q
2023-03-15 15:08:10:604,0,1.07543,-4.58615,-15.2196,Q,Q
2023-03-15 15:08:10:614,0,1.07126,-4.58957,-15.2146,Q,Q
2023-03-15 15:08:10:624,0,1.06833,-4.59091,-15.2084,Q,Q
2023-03-15 15:08:10:634,0,1.06633,-4.59248,-15.1982,Q,Q
2023-03-15 15:08:10:644,0,1.06587,-4.59698,-15.1922,Q,Q
2023-03-15 15:08:10:654,0,1.06002,-4.60046,-15.1838,Q,Q
2023-03-15 15:08:10:664,0,1.05611,-4.60004,-15.1769,Q,Q
2023-03-15 15:08:10:674,0,1.0501,-4.6019,-15.1716,Q,Q
2023-03-15 15:08:10:684,0,1.04909,-4.60187,-15.1705,Q,Q
2023-03-15 15:08:10:694,0,1.04813,-4.5983,-15.1715,Q,Q
2023-03-15 15:08:10:703,0,1.04888,-4.59358,-15.1747,Q,Q
2023-03-15 15:08:10:713,0,1.05097,-4.59076,-15.1827,Q,Q
2023-03-15 15:08:10:724,0,1.05747,-4.59049,-15.1907,Q,Q
2023-03-15 15:08:10:734,0,1.06935,-4.59112,-15.2001,Q,Q
2023-03-15 15:08:10:744,0,1.08197,-4.59086,-15.208,Q,Q
2023-03-15 15:08:10:754,0,1.0878,-4.59182,-15.2146,Q,Q
2023-03-15 15:08:10:764,0,1.09519,-4.5915,-15.2197,Q,Q
2023-03-15 15:08:10:773,0,1.1028,-4.58969,-15.2266,Q,Q
2023-03-15 15:08:10:784,0,1.11205,-4.58948,-15.2312,Q,Q
2023-03-15 15:08:10:794,0,1.11989,-4.58818,-15.2368,Q,Q
2023-03-15 15:08:10:804,0,1.1288,-4.58655,-15.2409,Q,Q
2023-03-15 15:08:10:814,0,1.13786,-4.58386,-15.2456,Q,Q
2023-03-15 15:08:10:824,0,1.14328,-4.58388,-15.2491,Q,Q
2023-03-15 15:08:10:834,0,1.15213,-4.58315,-15.2491,Q,Q
2023-03-15 15:08:10:844,0,1.15699,-4.58469,-15.2541,Q,Q
2023-03-15 15:08:10:854,0,1.15837,-4.58305,-15.2557,Q,Q
2023-03-15 15:08:10:864,0,1.1587,-4.5841,-15.262,Q,Q
2023-03-15 15:08:10:874,0,1.15934,-4.58426,-15.264,Q,Q
2023-03-15 15:08:10:884,0,1.15573,-4.5875,-15.2669,Q,Q
2023-03-15 15:08:10:894,0,1.15255,-4.59049,-15.2689,Q,Q
2023-03-15 15:08:10:904,0,1.15054,-4.59137,-15.2698,Q,Q
2023-03-15 15:08:10:914,0,1.1486,-4.59186,-15.2711,Q,Q
2023-03-15 15:08:10:924,0,1.14143,-4.59218,-15.2703,Q,Q
2023-03-15 15:08:10:934,0,1.13538,-4.59047,-15.2699,Q,Q
2023-03-15 15:08:10:944,0,1.1299,-4.58986,-15.2671,Q,Q
2023-03-15 15:08:10:954,0,1.12445,-4.58515,-15.2656,Q,Q
2023-03-15 15:08:10:964,0,1.12033,-4.5859,-15.2624,Q,Q
2023-03-15 15:08:10:973,0,1.11667,-4.58901,-15.2575,Q,Q
2023-03-15 15:08:10:983,0,1.1112,-4.59013,-15.2543,Q,Q
2023-03-15 15:08:10:994,0,1.10859,-4.5903,-15.2519,Q,Q
2023-03-15 15:08:11:4,0,1.10519,-4.59156,-15.2478,Q,Q
2023-03-15 15:08:11:14,0,1.10279,-4.59698,-15.2434,Q,Q
2023-03-15 15:08:11:24,0,1.1017,-4.60323,-15.2375,Q,Q
2023-03-15 15:08:11:34,0,1.09891,-4.60832,-15.229,Q,Q
2023-03-15 15:08:11:44,0,1.09457,-4.6135,-15.2258,Q,Q
2023-03-15 15:08:11:54,0,1.09563,-4.61936,-15.218,Q,Q
2023-03-15 15:08:11:64,0,1.09859,-4.62293,-15.2096,Q,Q
2023-03-15 15:08:11:74,0,1.10547,-4.62839,-15.2039,Q,Q
2023-03-15 15:08:11:84,0,1.10963,-4.63356,-15.1964,Q,Q
2023-03-15 15:08:11:94,0,1.11097,-4.63965,-15.1902,Q,Q
2023-03-15 15:08:11:104,0,1.11394,-4.64365,-15.182,Q,Q
2023-03-15 15:08:11:114,0,1.12046,-4.64395,-15.178,Q,Q
2023-03-15 15:08:11:124,0,1.12278,-4.64337,-15.1738,Q,Q
2023-03-15 15:08:11:134,0,1.12325,-4.64578,-15.1713,Q,Q
2023-03-15 15:08:11:144,0,1.12433,-4.65118,-15.1675,Q,Q
2023-03-15 15:08:11:154,0,1.12581,-4.65368,-15.1639,Q,Q
2023-03-15 15:08:11:164,0,1.12896,-4.65623,-15.1633,Q,Q
2023-03-15 15:08:11:174,0,1.13248,-4.65631,-15.1664,Q,Q
2023-03-15 15:08:11:184,0,1.13664,-4.65635,-15.1637,Q,Q
2023-03-15 15:08:11:194,0,1.13971,-4.6654,-15.1548,Q,Q
2023-03-15 15:08:11:204,0,1.14391,-4.67651,-15.1399,Q,Q
2023-03-15 15:08:11:214,0,1.13818,-4.68606,-15.1282,Q,Q
2023-03-15 15:08:11:224,0,1.13292,-4.69469,-15.1127,Q,Q
2023-03-15 15:08:11:234,0,1.12814,-4.70346,-15.1002,Q,Q
2023-03-15 15:08:11:244,0,1.12568,-4.71175,-15.0869,Q,Q
2023-03-15 15:08:11:254,0,1.12088,-4.71377,-15.0755,Q,Q
2023-03-15 15:08:11:264,0,1.12223,-4.72314,-15.07,Q,Q
2023-03-15 15:08:11:274,0,1.12697,-4.72867,-15.0676,Q,Q
2023-03-15 15:08:11:284,0,1.13353,-4.733,-15.0653,Q,Q
2023-03-15 15:08:11:293,0,1.14138,-4.73307,-15.0681,Q,Q
2023-03-15 15:08:11:303,0,1.14773,-4.73376,-15.0722,Q,Q
2023-03-15 15:08:11:314,0,1.15411,-4.73013,-15.076,Q,Q
2023-03-15 15:08:11:324,0,1.15516,-4.72832,-15.0781,Q,Q
2023-03-15 15:08:11:334,0,1.15392,-4.72624,-15.081,Q,Q
2023-03-15 15:08:11:344,0,1.15168,-4.72231,-15.0797,Q,Q
2023-03-15 15:08:11:354,0,1.15006,-4.71647,-15.079,Q,Q
2023-03-15 15:08:11:364,0,1.14709,-4.71004,-15.0817,Q,Q
2023-03-15 15:08:11:374,0,1.14391,-4.70329,-15.0824,Q,Q
2023-03-15 15:08:11:384,0,1.14051,-4.69495,-15.0834,Q,Q
2023-03-15 15:08:11:394,0,1.13811,-4.69006,-15.0867,Q,Q
2023-03-15 15:08:11:404,0,1.13748,-4.68619,-15.0881,Q,Q
2023-03-15 15:08:11:414,0,1.13757,-4.68114,-15.0915,Q,Q
2023-03-15 15:08:11:423,0,1.14426,-4.67441,-15.0994,Q,Q
2023-03-15 15:08:11:434,0,1.15156,-4.67019,-15.1041,Q,Q
2023-03-15 15:08:11:444,0,1.16116,-4.67314,-15.1019,Q,Q
2023-03-15 15:08:11:454,0,1.17141,-4.68106,-15.0976,Q,Q
2023-03-15 15:08:11:464,0,1.17685,-4.68593,-15.0944,Q,Q
2023-03-15 15:08:11:474,0,1.18326,-4.69192,-15.0873,Q,Q
2023-03-15 15:08:11:484,0,1.19108,-4.69527,-15.0791,Q,Q
2023-03-15 15:08:11:494,0,1.19599,-4.6981,-15.0698,Q,Q
2023-03-15 15:08:11:504,0,1.20241,-4.69815,-15.058,Q,Q
2023-03-15 15:08:11:514,0,1.20802,-4.70488,-15.0451,Q,Q
2023-03-15 15:08:11:524,0,1.21504,-4.7077,-15.0327,Q,Q
2023-03-15 15:08:11:534,0,1.22122,-4.71198,-15.0221,Q,Q
2023-03-15 15:08:11:544,0,1.22929,-4.71675,-15.0151,Q,Q
2023-03-15 15:08:11:554,0,1.23615,-4.72467,-15.0072,Q,Q
2023-03-15 15:08:11:564,0,1.24087,-4.73514,-15.0031,Q,Q
2023-03-15 15:08:11:574,0,1.24694,-4.73923,-15.0001,Q,Q
2023-03-15 15:08:11:584,0,1.24736,-4.74566,-14.9985,Q,Q
2023-03-15 15:08:11:594,0,1.24784,-4.75142,-14.9948,Q,Q
2023-03-15 15:08:11:604,0,1.24692,-4.75565,-14.9879,Q,Q
2023-03-15 15:08:11:614,0,1.24554,-4.75937,-14.9808,Q,Q
2023-03-15 15:08:11:624,0,1.24378,-4.75922,-14.9705,Q,Q
2023-03-15 15:08:11:634,0,1.23794,-4.75988,-14.9597,Q,Q
2023-03-15 15:08:11:644,0,1.23202,-4.75516,-14.9509,Q,Q
2023-03-15 15:08:11:654,0,1.22522,-4.75175,-14.9414,Q,Q
2023-03-15 15:08:11:664,0,1.2216,-4.74605,-14.9368,Q,Q
2023-03-15 15:08:11:674,0,1.21725,-4.73987,-14.9327,Q,Q
2023-03-15 15:08:11:684,0,1.21234,-4.73393,-14.9285,Q,Q
2023-03-15 15:08:11:694,0,1.21246,-4.72784,-14.9286,Q,Q
2023-03-15 15:08:11:704,0,1.21085,-4.7222,-14.9332,Q,Q
2023-03-15 15:08:11:714,0,1.21072,-4.71687,-14.942,Q,Q
2023-03-15 15:08:11:724,0,1.21368,-4.71569,-14.95,Q,Q
2023-03-15 15:08:11:734,0,1.21627,-4.71138,-14.9565,Q,Q
2023-03-15 15:08:11:744,0,1.21812,-4.70555,-14.9663,Q,Q
2023-03-15 15:08:11:754,0,1.21858,-4.70344,-14.9754,Q,Q
2023-03-15 15:08:11:764,0,1.22052,-4.7001,-14.9837,Q,Q
2023-03-15 15:08:11:774,0,1.22223,-4.69645,-14.9873,Q,Q
2023-03-15 15:08:11:784,0,1.22255,-4.69598,-14.9923,Q,Q
2023-03-15 15:08:11:794,0,1.22186,-4.694,-14.9927,Q,Q
2023-03-15 15:08:11:803,0,1.22367,-4.69135,-14.995,Q,Q
2023-03-15 15:08:11:814,0,1.22488,-4.69056,-14.9939,Q,Q
2023-03-15 15:08:11:824,0,1.22723,-4.69037,-14.9896,Q,Q
2023-03-15 15:08:11:834,0,1.22986,-4.69232,-14.9848,Q,Q
2023-03-15 15:08:11:844,0,1.23101,-4.69372,-14.9815,Q,Q
2023-03-15 15:08:11:854,0,1.2325,-4.69993,-14.975,Q,Q
2023-03-15 15:08:11:864,0,1.23651,-4.70316,-14.9738,Q,Q
2023-03-15 15:08:11:874,0,1.23571,-4.70595,-14.9696,Q,Q
2023-03-15 15:08:11:884,0,1.23902,-4.71181,-14.9635,Q,Q
2023-03-15 15:08:11:894,0,1.23764,-4.71677,-14.9622,Q,Q
2023-03-15 15:08:11:904,0,1.23492,-4.7256,-14.9579,Q,Q
2023-03-15 15:08:11:914,0,1.23627,-4.73112,-14.954,Q,Q
2023-03-15 15:08:11:924,0,1.234,-4.73815,-14.9461,Q,Q
2023-03-15 15:08:11:934,0,1.23404,-4.74654,-14.9382,Q,Q
2023-03-15 15:08:11:944,0,1.23854,-4.75413,-14.9307,Q,Q
2023-03-15 15:08:11:954,0,1.23817,-4.75962,-14.9209,Q,Q
2023-03-15 15:08:11:964,0,1.24018,-4.76937,-14.911,Q,Q
2023-03-15 15:08:11:974,0,1.24661,-4.77597,-14.8984,Q,Q
2023-03-15 15:08:11:983,0,1.25029,-4.78348,-14.8879,Q,Q
2023-03-15 15:08:11:993,0,1.25448,-4.79339,-14.8818,Q,Q
2023-03-15 15:08:12:3,0,1.25573,-4.80092,-14.8759,Q,Q
2023-03-15 15:08:12:14,0,1.25501,-4.80581,-14.8691,Q,Q
2023-03-15 15:08:12:24,0,1.25377,-4.80852,-14.8622,Q,Q
2023-03-15 15:08:12:34,0,1.25511,-4.81344,-14.8585,Q,Q
2023-03-15 15:08:12:43,0,1.26024,-4.81512,-14.8538,Q,Q
2023-03-15 15:08:12:53,0,1.26512,-4.81514,-14.8513,Q,Q
2023-03-15 15:08:12:63,0,1.26608,-4.81452,-14.8497,Q,Q
2023-03-15 15:08:12:74,0,1.26794,-4.81433,-14.8517,Q,Q
2023-03-15 15:08:12:84,0,1.26947,-4.81483,-14.8543,Q,Q
2023-03-15 15:08:12:94,0,1.27495,-4.81894,-14.8566,Q,Q
2023-03-15 15:08:12:104,0,1.27551,-4.81763,-14.8593,Q,Q
2023-03-15 15:08:12:114,0,1.27662,-4.81643,-14.8552,Q,Q
2023-03-15 15:08:12:124,0,1.28284,-4.8136,-14.8573,Q,Q
2023-03-15 15:08:12:134,0,1.2884,-4.81824,-14.855,Q,Q
2023-03-15 15:08:12:144,0,1.29426,-4.82184,-14.8451,Q,Q
2023-03-15 15:08:12:154,0,1.29557,-4.83053,-14.8334,Q,Q
2023-03-15 15:08:12:164,0,1.29062,-4.83587,-14.8253,Q,Q
2023-03-15 15:08:12:174,0,1.28802,-4.83886,-14.8142,Q,Q
2023-03-15 15:08:12:183,0,1.2864,-4.84409,-14.802,Q,Q
2023-03-15 15:08:12:193,0,1.2794,-4.84643,-14.7906,Q,Q
2023-03-15 15:08:12:203,0,1.27546,-4.8499,-14.7806,Q,Q
2023-03-15 15:08:12:213,0,1.27169,-4.85066,-14.7771,Q,Q
2023-03-15 15:08:12:223,0,1.2726,-4.85298,-14.7761,Q,Q
2023-03-15 15:08:12:233,0,1.27498,-4.85439,-14.7786,Q,Q
2023-03-15 15:08:12:243,0,1.27708,-4.85264,-14.7814,Q,Q
2023-03-15 15:08:12:253,0,1.27669,-4.84764,-14.785,Q,Q
2023-03-15 15:08:12:263,0,1.27565,-4.84784,-14.7863,Q,Q
2023-03-15 15:08:12:273,0,1.27397,-4.84639,-14.7883,Q,Q
2023-03-15 15:08:12:283,0,1.26943,-4.84142,-14.789,Q,Q
2023-03-15 15:08:12:293,0,1.26395,-4.83663,-14.7879,Q,Q
2023-03-15 15:08:12:303,0,1.25622,-4.8299,-14.791,Q,Q
2023-03-15 15:08:12:313,0,1.24985,-4.82224,-14.7907,Q,Q
2023-03-15 15:08:12:324,0,1.2412,-4.81459,-14.7866,Q,Q
2023-03-15 15:08:12:333,0,1.23147,-4.8076,-14.788,Q,Q
2023-03-15 15:08:12:344,0,1.21879,-4.79973,-14.7929,Q,Q
2023-03-15 15:08:12:353,0,1.213,-4.79288,-14.7982,Q,Q
2023-03-15 15:08:12:364,0,1.20789,-4.78676,-14.8086,Q,Q
2023-03-15 15:08:12:374,0,1.20996,-4.77982,-14.8141,Q,Q
2023-03-15 15:08:12:384,0,1.21464,-4.77585,-14.8181,Q,Q
2023-03-15 15:08:12:394,0,1.22036,-4.77869,-14.8194,Q,Q
2023-03-15 15:08:12:404,0,1.22567,-4.78345,-14.8204,Q,Q
2023-03-15 15:08:12:414,0,1.23555,-4.78935,-14.8204,Q,Q
2023-03-15 15:08:12:424,0,1.24143,-4.794,-14.8178,Q,Q
2023-03-15 15:08:12:434,0,1.24481,-4.79481,-14.8128,Q,Q
2023-03-15 15:08:12:444,0,1.24961,-4.79485,-14.8109,Q,Q
2023-03-15 15:08:12:454,0,1.25555,-4.79267,-14.8072,Q,Q
2023-03-15 15:08:12:464,0,1.26637,-4.79614,-14.8022,Q,Q
2023-03-15 15:08:12:474,0,1.27614,-4.79643,-14.7998,Q,Q
2023-03-15 15:08:12:484,0,1.28889,-4.79524,-14.7987,Q,Q
2023-03-15 15:08:12:493,0,1.30218,-4.79508,-14.797,Q,Q
2023-03-15 15:08:12:503,0,1.31364,-4.7978,-14.7954,Q,Q
2023-03-15 15:08:12:513,0,1.32557,-4.80098,-14.7944,Q,Q
2023-03-15 15:08:12:523,0,1.33642,-4.80669,-14.7986,Q,Q
2023-03-15 15:08:12:533,0,1.34466,-4.81322,-14.8029,Q,Q
2023-03-15 15:08:12:543,0,1.35151,-4.81747,-14.7997,Q,Q
2023-03-15 15:08:12:554,0,1.35484,-4.82403,-14.7996,Q,Q
2023-03-15 15:08:12:564,0,1.35734,-4.82922,-14.7967,Q,Q
2023-03-15 15:08:12:574,0,1.35607,-4.83416,-14.7901,Q,Q
2023-03-15 15:08:12:584,0,1.35684,-4.8373,-14.7817,Q,Q
2023-03-15 15:08:12:594,0,1.35179,-4.83845,-14.773,Q,Q
2023-03-15 15:08:12:604,0,1.34945,-4.8361,-14.7628,Q,Q
2023-03-15 15:08:12:614,0,1.34591,-4.83539,-14.7542,Q,Q
2023-03-15 15:08:12:624,0,1.33748,-4.83595,-14.7458,Q,Q
2023-03-15 15:08:12:634,0,1.3303,-4.83598,-14.7392,Q,Q
2023-03-15 15:08:12:644,0,1.328,-4.83228,-14.7302,Q,Q
2023-03-15 15:08:12:654,0,1.32377,-4.83074,-14.7282,Q,Q
2023-03-15 15:08:12:664,0,1.32038,-4.82791,-14.7262,Q,Q
2023-03-15 15:08:12:674,0,1.31801,-4.82381,-14.7257,Q,Q
2023-03-15 15:08:12:684,0,1.31815,-4.82539,-14.7309,Q,Q
2023-03-15 15:08:12:694,0,1.3159,-4.8238,-14.7367,Q,Q
2023-03-15 15:08:12:704,0,1.31313,-4.81987,-14.7461,Q,Q
2023-03-15 15:08:12:714,0,1.31486,-4.81587,-14.7555,Q,Q
2023-03-15 15:08:12:724,0,1.31951,-4.81238,-14.7664,Q,Q
2023-03-15 15:08:12:734,0,1.32267,-4.80725,-14.7731,Q,Q
2023-03-15 15:08:12:744,0,1.32729,-4.80334,-14.7769,Q,Q
2023-03-15 15:08:12:754,0,1.33497,-4.79968,-14.779,Q,Q
2023-03-15 15:08:12:764,0,1.34311,-4.80047,-14.7794,Q,Q
2023-03-15 15:08:12:774,0,1.34616,-4.80101,-14.7808,Q,Q
2023-03-15 15:08:12:784,0,1.35432,-4.79903,-14.7806,Q,Q
2023-03-15 15:08:12:794,0,1.36184,-4.79921,-14.7804,Q,Q
2023-03-15 15:08:12:804,0,1.37129,-4.80145,-14.7813,Q,Q
2023-03-15 15:08:12:814,0,1.37775,-4.8026,-14.7773,Q,Q
2023-03-15 15:08:12:823,0,1.38401,-4.80653,-14.7746,Q,Q
2023-03-15 15:08:12:834,0,1.39206,-4.80949,-14.7699,Q,Q
2023-03-15 15:08:12:843,0,1.39994,-4.81328,-14.7667,Q,Q
2023-03-15 15:08:12:854,0,1.40527,-4.81942,-14.762,Q,Q
2023-03-15 15:08:12:863,0,1.40511,-4.82349,-14.7581,Q,Q
2023-03-15 15:08:12:874,0,1.40568,-4.82423,-14.7546,Q,Q
2023-03-15 15:08:12:884,0,1.40387,-4.8255,-14.748,Q,Q
2023-03-15 15:08:12:894,0,1.40102,-4.83074,-14.7381,Q,Q
2023-03-15 15:08:12:904,0,1.39521,-4.8349,-14.7316,Q,Q
2023-03-15 15:08:12:914,0,1.39134,-4.83793,-14.7245,Q,Q
2023-03-15 15:08:12:924,0,1.38927,-4.84253,-14.7202,Q,Q
2023-03-15 15:08:12:934,0,1.38646,-4.84478,-14.7117,Q,Q
2023-03-15 15:08:12:944,0,1.38508,-4.84836,-14.7067,Q,Q
2023-03-15 15:08:12:954,0,1.38116,-4.84485,-14.7023,Q,Q
2023-03-15 15:08:12:964,0,1.381,-4.842,-14.7033,Q,Q
2023-03-15 15:08:12:974,0,1.37805,-4.83849,-14.702,Q,Q
2023-03-15 15:08:12:983,0,1.37584,-4.83224,-14.7051,Q,Q
2023-03-15 15:08:12:993,0,1.37285,-4.82993,-14.7073,Q,Q
2023-03-15 15:08:13:3,0,1.37292,-4.83003,-14.7113,Q,Q
2023-03-15 15:08:13:13,0,1.37334,-4.82693,-14.7156,Q,Q
2023-03-15 15:08:13:24,0,1.37128,-4.82441,-14.7229,Q,Q
2023-03-15 15:08:13:34,0,1.37123,-4.82053,-14.724,Q,Q
2023-03-15 15:08:13:44,0,1.3718,-4.82062,-14.7269,Q,Q
2023-03-15 15:08:13:54,0,1.37302,-4.82401,-14.7224,Q,Q
2023-03-15 15:08:13:64,0,1.37266,-4.83247,-14.7165,Q,Q
2023-03-15 15:08:13:73,0,1.36943,-4.84184,-14.7082,Q,Q
2023-03-15 15:08:13:84,0,1.36426,-4.84965,-14.6975,Q,Q
2023-03-15 15:08:13:94,0,1.36194,-4.85441,-14.6879,Q,Q
2023-03-15 15:08:13:104,0,1.35566,-4.85473,-14.6771,Q,Q
2023-03-15 15:08:13:114,0,1.34785,-4.8544,-14.6659,Q,Q
2023-03-15 15:08:13:124,0,1.34236,-4.85617,-14.6592,Q,Q
2023-03-15 15:08:13:134,0,1.34257,-4.86014,-14.6554,Q,Q
2023-03-15 15:08:13:144,0,1.35009,-4.86165,-14.6569,Q,Q
2023-03-15 15:08:13:154,0,1.35807,-4.86313,-14.6601,Q,Q
2023-03-15 15:08:13:164,0,1.37191,-4.8625,-14.6673,Q,Q
2023-03-15 15:08:13:174,0,1.38232,-4.86185,-14.6749,Q,Q
2023-03-15 15:08:13:184,0,1.38769,-4.86298,-14.6796,Q,Q
2023-03-15 15:08:13:194,0,1.38953,-4.86241,-14.6849,Q,Q
2023-03-15 15:08:13:204,0,1.38917,-4.85895,-14.6924,Q,Q
2023-03-15 15:08:13:214,0,1.38387,-4.85284,-14.6993,Q,Q
2023-03-15 15:08:13:224,0,1.37502,-4.84939,-14.7105,Q,Q
2023-03-15 15:08:13:234,0,1.37117,-4.8443,-14.7232,Q,Q
2023-03-15 15:08:13:244,0,1.37077,-4.84048,-14.7319,Q,Q
2023-03-15 15:08:13:254,0,1.37154,-4.83526,-14.7359,Q,Q
2023-03-15 15:08:13:264,0,1.37101,-4.83157,-14.7412,Q,Q
2023-03-15 15:08:13:274,0,1.37125,-4.82676,-14.7483,Q,Q
2023-03-15 15:08:13:284,0,1.37711,-4.81884,-14.7581,Q,Q
2023-03-15 15:08:13:293,0,1.38468,-4.81617,-14.7606,Q,Q
2023-03-15 15:08:13:304,0,1.38768,-4.81532,-14.7621,Q,Q
2023-03-15 15:08:13:314,0,1.39225,-4.82007,-14.7634,Q,Q
2023-03-15 15:08:13:324,0,1.39819,-4.82507,-14.7659,Q,Q
2023-03-15 15:08:13:334,0,1.40896,-4.8312,-14.7642,Q,Q
2023-03-15 15:08:13:343,0,1.41706,-4.83486,-14.7649,Q,Q
2023-03-15 15:08:13:354,0,1.42804,-4.83447,-14.7624,Q,Q
2023-03-15 15:08:13:364,0,1.43772,-4.83407,-14.7568,Q,Q
2023-03-15 15:08:13:374,0,1.44977,-4.8319,-14.7492,Q,Q
2023-03-15 15:08:13:384,0,1.46089,-4.83029,-14.7452,Q,Q
2023-03-15 15:08:13:394,0,1.46843,-4.82938,-14.7383,Q,Q
2023-03-15 15:08:13:404,0,1.47524,-4.82701,-14.7336,Q,Q
2023-03-15 15:08:13:414,0,1.48506,-4.82873,-14.7313,Q,Q
2023-03-15 15:08:13:424,0,1.49467,-4.83208,-14.7278,Q,Q
2023-03-15 15:08:13:434,0,1.50292,-4.83522,-14.728,Q,Q
2023-03-15 15:08:13:444,0,1.50909,-4.84096,-14.7262,Q,Q
2023-03-15 15:08:13:454,0,1.51505,-4.84425,-14.7242,Q,Q
2023-03-15 15:08:13:464,0,1.51641,-4.84995,-14.7184,Q,Q
2023-03-15 15:08:13:474,0,1.51618,-4.85492,-14.7097,Q,Q
2023-03-15 15:08:13:484,0,1.51862,-4.86028,-14.6987,Q,Q
2023-03-15 15:08:13:493,0,1.51783,-4.86491,-14.6856,Q,Q
2023-03-15 15:08:13:503,0,1.51379,-4.86644,-14.6701,Q,Q
2023-03-15 15:08:13:513,0,1.51146,-4.87164,-14.6569,Q,Q
2023-03-15 15:08:13:524,0,1.5046,-4.87014,-14.641,Q,Q
2023-03-15 15:08:13:534,0,1.49631,-4.86589,-14.6308,Q,Q
2023-03-15 15:08:13:544,0,1.48715,-4.86159,-14.6253,Q,Q
2023-03-15 15:08:13:554,0,1.48181,-4.85339,-14.6223,Q,Q
2023-03-15 15:08:13:564,0,1.47346,-4.85119,-14.6189,Q,Q
2023-03-15 15:08:13:574,0,1.46681,-4.84563,-14.6188,Q,Q
2023-03-15 15:08:13:584,0,1.46413,-4.84064,-14.625,Q,Q
2023-03-15 15:08:13:594,0,1.4639,-4.83486,-14.6357,Q,Q
2023-03-15 15:08:13:604,0,1.46556,-4.82763,-14.6453,Q,Q
2023-03-15 15:08:13:614,0,1.46852,-4.82391,-14.6546,Q,Q
2023-03-15 15:08:13:624,0,1.46905,-4.81998,-14.6615,Q,Q
2023-03-15 15:08:13:634,0,1.4709,-4.8173,-14.6684,Q,Q
2023-03-15 15:08:13:644,0,1.47387,-4.81529,-14.6711,Q,Q
2023-03-15 15:08:13:654,0,1.47805,-4.81306,-14.6721,Q,Q
2023-03-15 15:08:13:664,0,1.48193,-4.814,-14.6694,Q,Q
2023-03-15 15:08:13:674,0,1.48634,-4.81674,-14.6675,Q,Q
2023-03-15 15:08:13:684,0,1.49339,-4.8161,-14.6653,Q,Q
2023-03-15 15:08:13:694,0,1.49806,-4.81758,-14.6578,Q,Q
2023-03-15 15:08:13:704,0,1.50485,-4.82212,-14.6527,Q,Q
2023-03-15 15:08:13:714,0,1.5115,-4.8258,-14.6454,Q,Q
2023-03-15 15:08:13:724,0,1.52146,-4.82602,-14.642,Q,Q
