Timestamp_cmd,imu_cmd,roll_delta,pitch_delta,yaw_delta
2023-03-11 21:05:26:93,0,-4.8679,-8.03911,88.1524
2023-03-11 21:05:26:102,0,-4.87544,-8.02781,88.1386
2023-03-11 21:05:26:112,0,-4.88422,-8.02121,88.1274
2023-03-11 21:05:26:122,0,-4.89822,-8.01719,88.1192
2023-03-11 21:05:26:132,0,-4.91181,-8.01713,88.1114
2023-03-11 21:05:26:142,0,-4.92642,-8.0202,88.1046
2023-03-11 21:05:26:152,0,-4.93847,-8.02511,88.0998
2023-03-11 21:05:26:162,0,-4.94823,-8.03814,88.0935
2023-03-11 21:05:26:172,0,-4.95207,-8.05816,88.0842
2023-03-11 21:05:26:182,0,-4.95486,-8.07844,88.0643
2023-03-11 21:05:26:192,0,-4.95429,-8.09868,88.0314
2023-03-11 21:05:26:202,0,-4.94461,-8.11587,87.9855
2023-03-11 21:05:26:212,0,-4.93583,-8.12808,87.9265
2023-03-11 21:05:26:222,0,-4.92405,-8.13187,87.8618
2023-03-11 21:05:26:232,0,-4.91607,-8.13044,87.791
2023-03-11 21:05:26:242,0,-4.90996,-8.12609,87.7178
2023-03-11 21:05:26:252,0,-4.91471,-8.12105,87.6439
2023-03-11 21:05:26:262,0,-4.93961,-8.12879,87.5842
2023-03-11 21:05:26:272,0,-4.97594,-8.14452,87.5368
2023-03-11 21:05:26:282,0,-5.01146,-8.16408,87.5035
2023-03-11 21:05:26:292,0,-5.03874,-8.18158,87.4757
2023-03-11 21:05:26:302,0,-5.06018,-8.19275,87.4585
2023-03-11 21:05:26:312,0,-5.09011,-8.20024,87.4515
2023-03-11 21:05:26:322,0,-5.1175,-8.20308,87.4532
2023-03-11 21:05:26:332,0,-5.14645,-8.19875,87.466
2023-03-11 21:05:26:342,0,-5.17989,-8.19159,87.4833
2023-03-11 21:05:26:352,0,-5.21262,-8.18163,87.5118
2023-03-11 21:05:26:362,0,-5.25218,-8.17748,87.5496
2023-03-11 21:05:26:372,0,-5.28832,-8.17364,87.5944
2023-03-11 21:05:26:382,0,-5.32818,-8.16636,87.6453
2023-03-11 21:05:26:392,0,-5.3707,-8.16365,87.7022
2023-03-11 21:05:26:402,0,-5.41255,-8.16131,87.7596
2023-03-11 21:05:26:412,0,-5.44941,-8.1593,87.8188
2023-03-11 21:05:26:422,0,-5.48762,-8.15644,87.8715
2023-03-11 21:05:26:432,0,-5.52053,-8.15219,87.9176
2023-03-11 21:05:26:442,0,-5.55318,-8.15082,87.9598
2023-03-11 21:05:26:452,0,-5.57788,-8.14889,87.9972
2023-03-11 21:05:26:461,0,-5.60113,-8.14716,88.0294
2023-03-11 21:05:26:471,0,-5.6251,-8.14906,88.0539
2023-03-11 21:05:26:481,0,-5.6434,-8.14625,88.073
2023-03-11 21:05:26:491,0,-5.65763,-8.14673,88.0831
2023-03-11 21:05:26:501,0,-5.66682,-8.15069,88.092
2023-03-11 21:05:26:511,0,-5.67332,-8.15943,88.0983
2023-03-11 21:05:26:522,0,-5.67268,-8.16997,88.1028
2023-03-11 21:05:26:532,0,-5.67101,-8.17813,88.1041
2023-03-11 21:05:26:542,0,-5.66779,-8.18584,88.0986
2023-03-11 21:05:26:552,0,-5.66101,-8.19177,88.0941
2023-03-11 21:05:26:562,0,-5.65375,-8.18864,88.0905
2023-03-11 21:05:26:572,0,-5.64612,-8.18561,88.0857
2023-03-11 21:05:26:582,0,-5.63573,-8.17584,88.0817
2023-03-11 21:05:26:592,0,-5.62671,-8.16313,88.0786
2023-03-11 21:05:26:602,0,-5.62311,-8.1513,88.0764
2023-03-11 21:05:26:612,0,-5.61761,-8.13862,88.0734
2023-03-11 21:05:26:622,0,-5.61387,-8.12251,88.0727
2023-03-11 21:05:26:632,0,-5.61406,-8.1071,88.069
2023-03-11 21:05:26:642,0,-5.61829,-8.09168,88.0602
2023-03-11 21:05:26:652,0,-5.61998,-8.08433,88.0513
2023-03-11 21:05:26:662,0,-5.62344,-8.08119,88.0394
2023-03-11 21:05:26:672,0,-5.6305,-8.07566,88.0265
2023-03-11 21:05:26:682,0,-5.63661,-8.0702,88.0121
2023-03-11 21:05:26:692,0,-5.64069,-8.06976,87.9987
2023-03-11 21:05:26:702,0,-5.64865,-8.07069,87.9843
2023-03-11 21:05:26:712,0,-5.66083,-8.06918,87.9701
2023-03-11 21:05:26:722,0,-5.67021,-8.06828,87.9573
2023-03-11 21:05:26:732,0,-5.67681,-8.06397,87.9454
2023-03-11 21:05:26:742,0,-5.67891,-8.05735,87.9331
2023-03-11 21:05:26:752,0,-5.67742,-8.05141,87.9271
2023-03-11 21:05:26:762,0,-5.67999,-8.04386,87.9254
2023-03-11 21:05:26:772,0,-5.68459,-8.03548,87.928
2023-03-11 21:05:26:782,0,-5.69032,-8.02727,87.9301
2023-03-11 21:05:26:792,0,-5.69782,-8.02058,87.9374
2023-03-11 21:05:26:802,0,-5.70191,-8.01626,87.9401
2023-03-11 21:05:26:812,0,-5.70881,-8.01231,87.9448
2023-03-11 21:05:26:822,0,-5.7116,-8.01284,87.9509
2023-03-11 21:05:26:832,0,-5.71354,-8.01447,87.9577
2023-03-11 21:05:26:842,0,-5.71362,-8.01349,87.9626
2023-03-11 21:05:26:852,0,-5.71704,-8.01681,87.9681
2023-03-11 21:05:26:862,0,-5.72327,-8.01843,87.9751
2023-03-11 21:05:26:872,0,-5.73166,-8.01433,87.9815
2023-03-11 21:05:26:882,0,-5.74089,-8.00343,87.9885
2023-03-11 21:05:26:892,0,-5.74992,-7.98892,87.9982
2023-03-11 21:05:26:902,0,-5.75957,-7.97019,88.0083
2023-03-11 21:05:26:912,0,-5.76694,-7.95016,88.017
2023-03-11 21:05:26:922,0,-5.77721,-7.93346,88.0302
2023-03-11 21:05:26:932,0,-5.79408,-7.91727,88.0443
2023-03-11 21:05:26:942,0,-5.81146,-7.90342,88.0558
2023-03-11 21:05:26:952,0,-5.82674,-7.89115,88.0676
2023-03-11 21:05:26:962,0,-5.84081,-7.88592,88.0736
2023-03-11 21:05:26:972,0,-5.84359,-7.89064,88.0761
2023-03-11 21:05:26:982,0,-5.84286,-7.9066,88.082
2023-03-11 21:05:26:992,0,-5.83683,-7.921,88.0878
2023-03-11 21:05:27:2,0,-5.82619,-7.93931,88.0921
2023-03-11 21:05:27:12,0,-5.81637,-7.95149,88.0937
2023-03-11 21:05:27:22,0,-5.80946,-7.95959,88.0956
2023-03-11 21:05:27:32,0,-5.80326,-7.96211,88.0974
2023-03-11 21:05:27:42,0,-5.8004,-7.95935,88.0961
2023-03-11 21:05:27:52,0,-5.79924,-7.95267,88.0994
2023-03-11 21:05:27:62,0,-5.79928,-7.94162,88.101
2023-03-11 21:05:27:72,0,-5.80079,-7.92486,88.1021
2023-03-11 21:05:27:82,0,-5.79838,-7.90576,88.0951
2023-03-11 21:05:27:92,0,-5.79811,-7.88682,88.0819
2023-03-11 21:05:27:102,0,-5.79831,-7.86508,88.0654
2023-03-11 21:05:27:112,0,-5.80405,-7.85189,88.0449
2023-03-11 21:05:27:122,0,-5.81696,-7.8363,88.0238
2023-03-11 21:05:27:132,0,-5.8295,-7.82197,88.002
2023-03-11 21:05:27:142,0,-5.84976,-7.8108,87.9813
2023-03-11 21:05:27:151,0,-5.87455,-7.80525,87.9683
2023-03-11 21:05:27:162,0,-5.90167,-7.80042,87.9539
2023-03-11 21:05:27:171,0,-5.93028,-7.79349,87.939
2023-03-11 21:05:27:182,0,-5.9501,-7.78893,87.9246
2023-03-11 21:05:27:191,0,-5.96448,-7.78817,87.9149
2023-03-11 21:05:27:201,0,-5.97254,-7.78938,87.9088
2023-03-11 21:05:27:211,0,-5.97809,-7.79517,87.9022
2023-03-11 21:05:27:222,0,-5.97984,-7.80311,87.8995
2023-03-11 21:05:27:231,0,-5.98211,-7.81186,87.9008
2023-03-11 21:05:27:241,0,-5.98548,-7.81598,87.9027
2023-03-11 21:05:27:252,0,-5.98551,-7.81953,87.9074
2023-03-11 21:05:27:261,0,-5.98558,-7.81986,87.9133
2023-03-11 21:05:27:271,0,-5.98276,-7.8174,87.9167
2023-03-11 21:05:27:281,0,-5.98266,-7.81391,87.9213
2023-03-11 21:05:27:291,0,-5.98047,-7.80592,87.9212
2023-03-11 21:05:27:301,0,-5.98066,-7.79658,87.9271
2023-03-11 21:05:27:311,0,-5.97765,-7.78529,87.9275
2023-03-11 21:05:27:322,0,-5.97919,-7.7773,87.9295
2023-03-11 21:05:27:331,0,-5.98403,-7.77098,87.9383
2023-03-11 21:05:27:342,0,-5.98832,-7.76215,87.9455
2023-03-11 21:05:27:352,0,-5.99505,-7.76003,87.9536
2023-03-11 21:05:27:362,0,-6.00429,-7.75859,87.9637
2023-03-11 21:05:27:372,0,-6.01156,-7.75522,87.9691
2023-03-11 21:05:27:382,0,-6.01434,-7.75599,87.9742
2023-03-11 21:05:27:392,0,-6.01598,-7.75575,87.9808
2023-03-11 21:05:27:401,0,-6.01491,-7.75722,87.9872
2023-03-11 21:05:27:411,0,-6.01268,-7.75768,87.9882
2023-03-11 21:05:27:422,0,-6.00474,-7.76152,87.9892
2023-03-11 21:05:27:432,0,-5.99083,-7.76079,87.9888
2023-03-11 21:05:27:442,0,-5.97676,-7.75647,87.9876
2023-03-11 21:05:27:452,0,-5.96451,-7.75303,87.987
2023-03-11 21:05:27:462,0,-5.95498,-7.74876,87.9884
2023-03-11 21:05:27:472,0,-5.95187,-7.74674,87.9945
2023-03-11 21:05:27:482,0,-5.9462,-7.74899,87.9998
2023-03-11 21:05:27:492,0,-5.9414,-7.75099,88.004
2023-03-11 21:05:27:502,0,-5.93557,-7.75245,88.0051
2023-03-11 21:05:27:512,0,-5.93554,-7.75452,88.0046
2023-03-11 21:05:27:522,0,-5.94014,-7.75639,88.0088
2023-03-11 21:05:27:532,0,-5.94376,-7.76268,88.016
2023-03-11 21:05:27:542,0,-5.95193,-7.77005,88.0213
2023-03-11 21:05:27:552,0,-5.9579,-7.77965,88.0231
2023-03-11 21:05:27:562,0,-5.96692,-7.78753,88.0291
2023-03-11 21:05:27:572,0,-5.97076,-7.79332,88.033
2023-03-11 21:05:27:582,0,-5.97405,-7.80347,88.0381
2023-03-11 21:05:27:592,0,-5.977,-7.80465,88.0421
2023-03-11 21:05:27:602,0,-5.98139,-7.81088,88.0484
2023-03-11 21:05:27:612,0,-5.99135,-7.81136,88.0568
2023-03-11 21:05:27:622,0,-5.99887,-7.81609,88.0658
2023-03-11 21:05:27:632,0,-6.01022,-7.81831,88.0774
2023-03-11 21:05:27:642,0,-6.02183,-7.82705,88.094
2023-03-11 21:05:27:652,0,-6.02862,-7.84377,88.1163
2023-03-11 21:05:27:662,0,-6.03955,-7.86754,88.1408
2023-03-11 21:05:27:672,0,-6.0461,-7.90271,88.1729
2023-03-11 21:05:27:682,0,-6.05276,-7.93243,88.2066
2023-03-11 21:05:27:692,0,-6.05631,-7.96274,88.2398
2023-03-11 21:05:27:702,0,-6.06055,-7.98894,88.2701
2023-03-11 21:05:27:712,0,-6.06244,-8.0076,88.3013
2023-03-11 21:05:27:722,0,-6.06265,-8.01769,88.3281
2023-03-11 21:05:27:732,0,-6.05968,-8.02129,88.3498
2023-03-11 21:05:27:742,0,-6.05715,-8.02066,88.3694
2023-03-11 21:05:27:752,0,-6.05615,-8.01779,88.3877
2023-03-11 21:05:27:762,0,-6.05408,-8.00887,88.4021
2023-03-11 21:05:27:772,0,-6.04977,-8.00089,88.4144
2023-03-11 21:05:27:782,0,-6.04982,-7.98826,88.4267
2023-03-11 21:05:27:792,0,-6.05009,-7.97692,88.4379
2023-03-11 21:05:27:802,0,-6.05,-7.96435,88.4498
2023-03-11 21:05:27:812,0,-6.03767,-7.95004,88.4628
2023-03-11 21:05:27:822,0,-6.02454,-7.93651,88.477
2023-03-11 21:05:27:832,0,-6.01125,-7.91722,88.492
2023-03-11 21:05:27:842,0,-5.99977,-7.8971,88.505
2023-03-11 21:05:27:852,0,-5.99015,-7.88353,88.5252
2023-03-11 21:05:27:862,0,-5.97913,-7.87737,88.5461
2023-03-11 21:05:27:872,0,-5.96757,-7.87801,88.5731
2023-03-11 21:05:27:882,0,-5.95538,-7.89015,88.6029
2023-03-11 21:05:27:892,0,-5.94313,-7.90887,88.6348
2023-03-11 21:05:27:902,0,-5.92968,-7.93151,88.6653
2023-03-11 21:05:27:912,0,-5.91126,-7.95823,88.6908
2023-03-11 21:05:27:922,0,-5.88832,-7.98562,88.7146
2023-03-11 21:05:27:932,0,-5.8605,-8.01502,88.7318
2023-03-11 21:05:27:942,0,-5.83685,-8.0474,88.7458
2023-03-11 21:05:27:952,0,-5.81814,-8.07992,88.7619
2023-03-11 21:05:27:962,0,-5.80055,-8.11124,88.7774
2023-03-11 21:05:27:972,0,-5.78628,-8.14404,88.7918
2023-03-11 21:05:27:982,0,-5.77196,-8.16964,88.8025
2023-03-11 21:05:27:992,0,-5.75532,-8.19365,88.8079
2023-03-11 21:05:28:2,0,-5.73984,-8.21341,88.8131
2023-03-11 21:05:28:12,0,-5.72093,-8.23257,88.8127
2023-03-11 21:05:28:22,0,-5.69993,-8.24927,88.8071
2023-03-11 21:05:28:32,0,-5.68011,-8.26646,88.7996
2023-03-11 21:05:28:42,0,-5.66336,-8.28027,88.7913
2023-03-11 21:05:28:52,0,-5.64752,-8.29065,88.7795
2023-03-11 21:05:28:62,0,-5.63168,-8.30072,88.7661
2023-03-11 21:05:28:72,0,-5.61743,-8.3043,88.7427
2023-03-11 21:05:28:82,0,-5.60149,-8.30563,88.7183
2023-03-11 21:05:28:92,0,-5.58637,-8.30414,88.6887
2023-03-11 21:05:28:102,0,-5.57558,-8.29771,88.6562
2023-03-11 21:05:28:112,0,-5.56598,-8.28733,88.6251
2023-03-11 21:05:28:122,0,-5.55955,-8.27911,88.5924
2023-03-11 21:05:28:132,0,-5.55578,-8.26873,88.5591
2023-03-11 21:05:28:142,0,-5.55673,-8.25314,88.5272
2023-03-11 21:05:28:152,0,-5.56101,-8.23475,88.4951
2023-03-11 21:05:28:162,0,-5.57088,-8.21224,88.469
2023-03-11 21:05:28:172,0,-5.58467,-8.18902,88.4459
2023-03-11 21:05:28:182,0,-5.60365,-8.16717,88.4281
2023-03-11 21:05:28:192,0,-5.63157,-8.14625,88.4167
2023-03-11 21:05:28:202,0,-5.66297,-8.13052,88.4085
2023-03-11 21:05:28:212,0,-5.69373,-8.11457,88.4003
2023-03-11 21:05:28:222,0,-5.72777,-8.09347,88.3916
2023-03-11 21:05:28:232,0,-5.76198,-8.07906,88.3853
2023-03-11 21:05:28:242,0,-5.80069,-8.07176,88.3819
2023-03-11 21:05:28:252,0,-5.83888,-8.06893,88.3826
2023-03-11 21:05:28:261,0,-5.87749,-8.07454,88.381
2023-03-11 21:05:28:272,0,-5.9095,-8.08297,88.3839
2023-03-11 21:05:28:282,0,-5.93963,-8.10032,88.3854
2023-03-11 21:05:28:292,0,-5.96581,-8.11605,88.39
2023-03-11 21:05:28:302,0,-5.98042,-8.12925,88.389
2023-03-11 21:05:28:312,0,-5.98536,-8.13942,88.3858
2023-03-11 21:05:28:322,0,-5.97784,-8.14593,88.3746
2023-03-11 21:05:28:332,0,-5.95794,-8.149,88.3595
2023-03-11 21:05:28:342,0,-5.93848,-8.15045,88.3439
2023-03-11 21:05:28:352,0,-5.92025,-8.15705,88.3354
2023-03-11 21:05:28:362,0,-5.9089,-8.16266,88.3351
2023-03-11 21:05:28:372,0,-5.90603,-8.16695,88.3387
2023-03-11 21:05:28:382,0,-5.90339,-8.16644,88.3488
2023-03-11 21:05:28:392,0,-5.89909,-8.16112,88.3627
2023-03-11 21:05:28:402,0,-5.88504,-8.14938,88.3767
2023-03-11 21:05:28:412,0,-5.86363,-8.14121,88.3964
2023-03-11 21:05:28:422,0,-5.83937,-8.13112,88.4141
2023-03-11 21:05:28:432,0,-5.81423,-8.12157,88.428
2023-03-11 21:05:28:442,0,-5.78565,-8.1121,88.4354
2023-03-11 21:05:28:452,0,-5.76018,-8.11065,88.4377
2023-03-11 21:05:28:462,0,-5.7356,-8.11291,88.4337
2023-03-11 21:05:28:472,0,-5.71379,-8.12111,88.4281
2023-03-11 21:05:28:482,0,-5.69557,-8.13285,88.4201
2023-03-11 21:05:28:492,0,-5.67845,-8.14331,88.411
2023-03-11 21:05:28:502,0,-5.66665,-8.16017,88.4078
2023-03-11 21:05:28:512,0,-5.65434,-8.17544,88.4055
2023-03-11 21:05:28:522,0,-5.64035,-8.18812,88.4063
2023-03-11 21:05:28:532,0,-5.62864,-8.19548,88.4097
2023-03-11 21:05:28:542,0,-5.61422,-8.19927,88.4154
2023-03-11 21:05:28:552,0,-5.59717,-8.20239,88.423
2023-03-11 21:05:28:562,0,-5.57644,-8.20322,88.431
2023-03-11 21:05:28:572,0,-5.55955,-8.20355,88.4468
2023-03-11 21:05:28:582,0,-5.54858,-8.20344,88.4636
2023-03-11 21:05:28:592,0,-5.54345,-8.2023,88.4869
2023-03-11 21:05:28:602,0,-5.5422,-8.20285,88.5176
2023-03-11 21:05:28:612,0,-5.5409,-8.20806,88.554
2023-03-11 21:05:28:622,0,-5.53619,-8.21247,88.5892
2023-03-11 21:05:28:632,0,-5.5303,-8.21663,88.623
2023-03-11 21:05:28:642,0,-5.5162,-8.22,88.6541
2023-03-11 21:05:28:652,0,-5.49628,-8.22377,88.685
2023-03-11 21:05:28:662,0,-5.47322,-8.23106,88.71
2023-03-11 21:05:28:672,0,-5.44949,-8.23793,88.7321
2023-03-11 21:05:28:682,0,-5.42911,-8.25061,88.7524
2023-03-11 21:05:28:692,0,-5.41614,-8.27389,88.7713
2023-03-11 21:05:28:702,0,-5.40882,-8.29682,88.7878
2023-03-11 21:05:28:712,0,-5.39976,-8.32141,88.8042
2023-03-11 21:05:28:722,0,-5.38813,-8.34169,88.8159
2023-03-11 21:05:28:732,0,-5.37144,-8.36357,88.8236
2023-03-11 21:05:28:742,0,-5.34648,-8.38219,88.8315
2023-03-11 21:05:28:752,0,-5.31503,-8.39739,88.8395
2023-03-11 21:05:28:762,0,-5.2789,-8.41237,88.854
2023-03-11 21:05:28:772,0,-5.24692,-8.43192,88.8749
2023-03-11 21:05:28:782,0,-5.21645,-8.44948,88.9005
2023-03-11 21:05:28:792,0,-5.19239,-8.46641,88.9244
2023-03-11 21:05:28:802,0,-5.16483,-8.47786,88.9485
2023-03-11 21:05:28:812,0,-5.14,-8.48882,88.9738
2023-03-11 21:05:28:822,0,-5.10884,-8.49508,88.9928
2023-03-11 21:05:28:832,0,-5.07675,-8.50662,89.0082
2023-03-11 21:05:28:842,0,-5.04272,-8.51833,89.0246
2023-03-11 21:05:28:852,0,-5.01023,-8.53136,89.0355
2023-03-11 21:05:28:862,0,-4.97758,-8.54861,89.0428
2023-03-11 21:05:28:872,0,-4.94963,-8.57095,89.048
2023-03-11 21:05:28:882,0,-4.92706,-8.59245,89.0546
2023-03-11 21:05:28:892,0,-4.90997,-8.61455,89.0596
2023-03-11 21:05:28:902,0,-4.89454,-8.63345,89.0547
2023-03-11 21:05:28:912,0,-4.88252,-8.64622,89.0436
2023-03-11 21:05:28:922,0,-4.86933,-8.65116,89.0157
2023-03-11 21:05:28:932,0,-4.85834,-8.64986,88.979
2023-03-11 21:05:28:942,0,-4.84966,-8.64229,88.932
2023-03-11 21:05:28:952,0,-4.84256,-8.63345,88.8759
2023-03-11 21:05:28:962,0,-4.83523,-8.62071,88.8159
2023-03-11 21:05:28:972,0,-4.82605,-8.61003,88.7537
2023-03-11 21:05:28:982,0,-4.82105,-8.59734,88.698
2023-03-11 21:05:28:992,0,-4.81567,-8.58577,88.6501
2023-03-11 21:05:29:2,0,-4.80518,-8.58521,88.6117
2023-03-11 21:05:29:12,0,-4.79149,-8.58906,88.586
2023-03-11 21:05:29:22,0,-4.77492,-8.59216,88.5695
2023-03-11 21:05:29:32,0,-4.75681,-8.59536,88.5582
2023-03-11 21:05:29:42,0,-4.74681,-8.59349,88.5513
2023-03-11 21:05:29:52,0,-4.7369,-8.58241,88.5459
2023-03-11 21:05:29:62,0,-4.73204,-8.5669,88.5437
2023-03-11 21:05:29:72,0,-4.73306,-8.54791,88.5478
2023-03-11 21:05:29:82,0,-4.74051,-8.52593,88.5479
2023-03-11 21:05:29:92,0,-4.75204,-8.50224,88.5543
2023-03-11 21:05:29:102,0,-4.76778,-8.48051,88.5685
2023-03-11 21:05:29:112,0,-4.78907,-8.46379,88.5841
2023-03-11 21:05:29:122,0,-4.81219,-8.44527,88.5985
2023-03-11 21:05:29:132,0,-4.8353,-8.43047,88.6134
2023-03-11 21:05:29:142,0,-4.85703,-8.41853,88.6263
2023-03-11 21:05:29:152,0,-4.87629,-8.41251,88.6374
2023-03-11 21:05:29:162,0,-4.88997,-8.40741,88.6413
2023-03-11 21:05:29:172,0,-4.9033,-8.40649,88.6412
2023-03-11 21:05:29:182,0,-4.92245,-8.4041,88.6421
2023-03-11 21:05:29:192,0,-4.94616,-8.39479,88.6436
2023-03-11 21:05:29:202,0,-4.97205,-8.3817,88.646
2023-03-11 21:05:29:212,0,-5.00194,-8.36966,88.6567
2023-03-11 21:05:29:222,0,-5.03082,-8.36337,88.6766
2023-03-11 21:05:29:232,0,-5.0617,-8.35407,88.7003
2023-03-11 21:05:29:242,0,-5.08901,-8.34652,88.7315
2023-03-11 21:05:29:252,0,-5.1125,-8.33877,88.7656
2023-03-11 21:05:29:262,0,-5.12667,-8.32638,88.8046
2023-03-11 21:05:29:272,0,-5.13251,-8.31353,88.842
2023-03-11 21:05:29:282,0,-5.13337,-8.29919,88.8739
2023-03-11 21:05:29:292,0,-5.13255,-8.28589,88.9014
2023-03-11 21:05:29:302,0,-5.12888,-8.26972,88.9142
2023-03-11 21:05:29:312,0,-5.12676,-8.25541,88.9201
2023-03-11 21:05:29:322,0,-5.12077,-8.23776,88.9196
2023-03-11 21:05:29:332,0,-5.11426,-8.22032,88.9173
2023-03-11 21:05:29:342,0,-5.10922,-8.20063,88.917
2023-03-11 21:05:29:352,0,-5.10477,-8.17948,88.9157
2023-03-11 21:05:29:362,0,-5.10172,-8.16138,88.9178
2023-03-11 21:05:29:372,0,-5.10792,-8.14207,88.9224
2023-03-11 21:05:29:382,0,-5.11187,-8.12563,88.9306
2023-03-11 21:05:29:392,0,-5.11682,-8.11654,88.9439
2023-03-11 21:05:29:402,0,-5.11853,-8.11094,88.9515
2023-03-11 21:05:29:412,0,-5.11943,-8.10622,88.9581
2023-03-11 21:05:29:422,0,-5.11504,-8.10665,88.9645
2023-03-11 21:05:29:432,0,-5.10628,-8.11212,88.9629
2023-03-11 21:05:29:442,0,-5.10017,-8.11504,88.955
2023-03-11 21:05:29:452,0,-5.08997,-8.11907,88.9385
2023-03-11 21:05:29:462,0,-5.08297,-8.12743,88.915
2023-03-11 21:05:29:472,0,-5.07145,-8.13807,88.8828
2023-03-11 21:05:29:482,0,-5.06276,-8.14703,88.8554
2023-03-11 21:05:29:492,0,-5.05627,-8.15583,88.8239
2023-03-11 21:05:29:502,0,-5.05495,-8.16401,88.7959
2023-03-11 21:05:29:512,0,-5.05499,-8.1711,88.772
2023-03-11 21:05:29:522,0,-5.0599,-8.17527,88.7543
2023-03-11 21:05:29:532,0,-5.07087,-8.17633,88.741
2023-03-11 21:05:29:542,0,-5.08787,-8.17462,88.7385
2023-03-11 21:05:29:552,0,-5.10678,-8.17737,88.7406
2023-03-11 21:05:29:562,0,-5.12753,-8.17494,88.747
2023-03-11 21:05:29:572,0,-5.14779,-8.17499,88.7536
2023-03-11 21:05:29:582,0,-5.16299,-8.17418,88.7573
2023-03-11 21:05:29:592,0,-5.17877,-8.17236,88.7617
2023-03-11 21:05:29:602,0,-5.1932,-8.16943,88.7633
2023-03-11 21:05:29:612,0,-5.21171,-8.16549,88.7579
2023-03-11 21:05:29:622,0,-5.23264,-8.16456,88.7527
2023-03-11 21:05:29:632,0,-5.26152,-8.16285,88.7476
2023-03-11 21:05:29:642,0,-5.28607,-8.16527,88.7414
2023-03-11 21:05:29:652,0,-5.30827,-8.17109,88.7389
2023-03-11 21:05:29:662,0,-5.33033,-8.18415,88.7391
2023-03-11 21:05:29:672,0,-5.35321,-8.19067,88.7361
2023-03-11 21:05:29:682,0,-5.38277,-8.19255,88.7394
2023-03-11 21:05:29:692,0,-5.41345,-8.18775,88.7441
2023-03-11 21:05:29:702,0,-5.4471,-8.17646,88.7525
2023-03-11 21:05:29:712,0,-5.48263,-8.16874,88.764
2023-03-11 21:05:29:722,0,-5.51736,-8.15402,88.7762
2023-03-11 21:05:29:732,0,-5.54785,-8.13907,88.7884
2023-03-11 21:05:29:742,0,-5.57952,-8.12304,88.798
2023-03-11 21:05:29:752,0,-5.6066,-8.10609,88.8008
2023-03-11 21:05:29:762,0,-5.63153,-8.08957,88.801
2023-03-11 21:05:29:772,0,-5.65028,-8.06877,88.7951
2023-03-11 21:05:29:782,0,-5.673,-8.05082,88.79
2023-03-11 21:05:29:792,0,-5.69603,-8.03476,88.7783
2023-03-11 21:05:29:802,0,-5.7136,-8.02247,88.7662
2023-03-11 21:05:29:812,0,-5.73048,-8.01046,88.7488
2023-03-11 21:05:29:822,0,-5.74764,-8.00029,88.7338
2023-03-11 21:05:29:832,0,-5.76033,-7.99206,88.7193
2023-03-11 21:05:29:842,0,-5.77185,-7.98294,88.7079
2023-03-11 21:05:29:852,0,-5.77708,-7.97124,88.6947
2023-03-11 21:05:29:862,0,-5.77468,-7.96507,88.6792
2023-03-11 21:05:29:872,0,-5.77462,-7.96252,88.668
2023-03-11 21:05:29:882,0,-5.77104,-7.96144,88.6647
2023-03-11 21:05:29:892,0,-5.76724,-7.95896,88.6613
2023-03-11 21:05:29:902,0,-5.76409,-7.95727,88.662
2023-03-11 21:05:29:912,0,-5.76363,-7.95722,88.6643
2023-03-11 21:05:29:922,0,-5.76439,-7.95729,88.6687
2023-03-11 21:05:29:932,0,-5.76219,-7.95543,88.674
2023-03-11 21:05:29:942,0,-5.75637,-7.9548,88.6795
2023-03-11 21:05:29:952,0,-5.75066,-7.95435,88.6852
2023-03-11 21:05:29:962,0,-5.75021,-7.95207,88.6885
2023-03-11 21:05:29:972,0,-5.74852,-7.94985,88.6872
2023-03-11 21:05:29:982,0,-5.74959,-7.95224,88.6882
2023-03-11 21:05:29:992,0,-5.751,-7.95248,88.6881
2023-03-11 21:05:30:2,0,-5.75062,-7.95501,88.6913
2023-03-11 21:05:30:12,0,-5.75136,-7.95516,88.6991
2023-03-11 21:05:30:22,0,-5.75506,-7.95401,88.7121
2023-03-11 21:05:30:32,0,-5.76206,-7.95421,88.726
2023-03-11 21:05:30:42,0,-5.7685,-7.95228,88.7371
2023-03-11 21:05:30:52,0,-5.77838,-7.94975,88.7519
2023-03-11 21:05:30:62,0,-5.78222,-7.94916,88.765
2023-03-11 21:05:30:72,0,-5.7809,-7.95123,88.7813
2023-03-11 21:05:30:82,0,-5.77685,-7.95431,88.7988
2023-03-11 21:05:30:92,0,-5.7731,-7.958,88.8194
2023-03-11 21:05:30:102,0,-5.76922,-7.96309,88.8453
2023-03-11 21:05:30:112,0,-5.76753,-7.96813,88.8766
2023-03-11 21:05:30:122,0,-5.77299,-7.97507,88.912
2023-03-11 21:05:30:132,0,-5.78182,-7.98089,88.9465
2023-03-11 21:05:30:142,0,-5.78426,-7.98601,88.9825
2023-03-11 21:05:30:152,0,-5.79526,-7.99316,89.0246
2023-03-11 21:05:30:162,0,-5.80658,-8.00204,89.0685
2023-03-11 21:05:30:172,0,-5.81888,-8.01641,89.106
2023-03-11 21:05:30:182,0,-5.82944,-8.03398,89.139
2023-03-11 21:05:30:192,0,-5.83785,-8.04492,89.1643
2023-03-11 21:05:30:202,0,-5.84344,-8.06064,89.1876
2023-03-11 21:05:30:212,0,-5.85028,-8.0659,89.2041
2023-03-11 21:05:30:222,0,-5.85923,-8.06879,89.2125
2023-03-11 21:05:30:232,0,-5.86966,-8.07495,89.2195
2023-03-11 21:05:30:242,0,-5.88329,-8.08331,89.2264
2023-03-11 21:05:30:252,0,-5.89958,-8.0903,89.2313
2023-03-11 21:05:30:262,0,-5.91178,-8.09831,89.2293
2023-03-11 21:05:30:272,0,-5.92334,-8.10255,89.2214
2023-03-11 21:05:30:282,0,-5.9228,-8.10383,89.2106
2023-03-11 21:05:30:292,0,-5.90754,-8.10376,89.1969
2023-03-11 21:05:30:302,0,-5.87455,-8.09996,89.1846
2023-03-11 21:05:30:312,0,-5.82824,-8.09356,89.1768
2023-03-11 21:05:30:322,0,-5.78674,-8.09653,89.177
2023-03-11 21:05:30:332,0,-5.7601,-8.10009,89.1828
2023-03-11 21:05:30:342,0,-5.75074,-8.10482,89.195
2023-03-11 21:05:30:352,0,-5.75504,-8.1107,89.2166
2023-03-11 21:05:30:362,0,-5.7615,-8.11683,89.2454
2023-03-11 21:05:30:372,0,-5.76471,-8.1197,89.2789
2023-03-11 21:05:30:382,0,-5.75781,-8.11422,89.307
2023-03-11 21:05:30:392,0,-5.74132,-8.10093,89.3351
2023-03-11 21:05:30:402,0,-5.72158,-8.09386,89.3586
2023-03-11 21:05:30:412,0,-5.70541,-8.0909,89.3742
2023-03-11 21:05:30:422,0,-5.69527,-8.10293,89.3882
2023-03-11 21:05:30:432,0,-5.69133,-8.11641,89.399
2023-03-11 21:05:30:442,0,-5.69257,-8.12776,89.4029
2023-03-11 21:05:30:452,0,-5.69751,-8.13939,89.402
2023-03-11 21:05:30:462,0,-5.70821,-8.1516,89.3948
2023-03-11 21:05:30:472,0,-5.7218,-8.16366,89.3854
2023-03-11 21:05:30:482,0,-5.73694,-8.17494,89.3705
2023-03-11 21:05:30:492,0,-5.75535,-8.18561,89.3561
2023-03-11 21:05:30:502,0,-5.77252,-8.19419,89.3397
2023-03-11 21:05:30:512,0,-5.78384,-8.19933,89.3279
2023-03-11 21:05:30:522,0,-5.79346,-8.2015,89.3186
2023-03-11 21:05:30:532,0,-5.80158,-8.2046,89.3186
2023-03-11 21:05:30:542,0,-5.81264,-8.20387,89.321
2023-03-11 21:05:30:552,0,-5.82475,-8.20477,89.3264
2023-03-11 21:05:30:562,0,-5.83809,-8.20375,89.3348
2023-03-11 21:05:30:572,0,-5.8486,-8.20102,89.3437
2023-03-11 21:05:30:582,0,-5.85486,-8.19961,89.351
2023-03-11 21:05:30:592,0,-5.86278,-8.195,89.3565
2023-03-11 21:05:30:602,0,-5.87281,-8.19095,89.3586
2023-03-11 21:05:30:612,0,-5.88171,-8.18765,89.3528
2023-03-11 21:05:30:622,0,-5.88849,-8.18717,89.3498
2023-03-11 21:05:30:632,0,-5.8957,-8.18178,89.3452
2023-03-11 21:05:30:642,0,-5.90263,-8.17909,89.3428
2023-03-11 21:05:30:652,0,-5.91095,-8.17912,89.345
2023-03-11 21:05:30:662,0,-5.92958,-8.18034,89.3562
2023-03-11 21:05:30:672,0,-5.95242,-8.17876,89.3822
2023-03-11 21:05:30:682,0,-5.97832,-8.17547,89.4219
2023-03-11 21:05:30:692,0,-5.99888,-8.17228,89.47
2023-03-11 21:05:30:702,0,-6.01128,-8.16948,89.5245
2023-03-11 21:05:30:712,0,-6.02124,-8.16908,89.5758
2023-03-11 21:05:30:722,0,-6.03039,-8.17178,89.6285
2023-03-11 21:05:30:732,0,-6.04503,-8.18007,89.6724
2023-03-11 21:05:30:742,0,-6.06737,-8.18785,89.709
2023-03-11 21:05:30:752,0,-6.08923,-8.19185,89.7392
2023-03-11 21:05:30:762,0,-6.10453,-8.19257,89.7571
2023-03-11 21:05:30:772,0,-6.11186,-8.18717,89.7589
2023-03-11 21:05:30:782,0,-6.11426,-8.17698,89.7518
2023-03-11 21:05:30:792,0,-6.10995,-8.15939,89.7377
2023-03-11 21:05:30:802,0,-6.10494,-8.14099,89.7204
2023-03-11 21:05:30:812,0,-6.10072,-8.11996,89.6978
2023-03-11 21:05:30:822,0,-6.08943,-8.08719,89.6736
2023-03-11 21:05:30:832,0,-6.07295,-8.05201,89.6524
2023-03-11 21:05:30:842,0,-6.05898,-8.00756,89.6376
2023-03-11 21:05:30:852,0,-6.04277,-7.96744,89.629
2023-03-11 21:05:30:862,0,-6.02955,-7.9296,89.632
2023-03-11 21:05:30:872,0,-6.01171,-7.88491,89.6447
2023-03-11 21:05:30:882,0,-5.99349,-7.83845,89.669
2023-03-11 21:05:30:892,0,-5.97652,-7.79394,89.7022
2023-03-11 21:05:30:902,0,-5.95464,-7.74353,89.7427
2023-03-11 21:05:30:912,0,-5.93114,-7.69627,89.7853
2023-03-11 21:05:30:922,0,-5.90471,-7.65508,89.8349
2023-03-11 21:05:30:932,0,-5.88477,-7.62089,89.8843
2023-03-11 21:05:30:942,0,-5.86602,-7.59803,89.9344
2023-03-11 21:05:30:952,0,-5.84102,-7.58617,89.9742
2023-03-11 21:05:30:962,0,-5.80494,-7.58291,90.0007
2023-03-11 21:05:30:972,0,-5.76958,-7.59153,90.015
2023-03-11 21:05:30:982,0,-5.75269,-7.60974,90.0194
2023-03-11 21:05:30:992,0,-5.75812,-7.636,90.0154
2023-03-11 21:05:31:2,0,-5.78168,-7.66779,90.0055
2023-03-11 21:05:31:12,0,-5.8151,-7.69076,89.991
2023-03-11 21:05:31:22,0,-5.84245,-7.71178,89.9739
2023-03-11 21:05:31:32,0,-5.8583,-7.72992,89.9585
2023-03-11 21:05:31:42,0,-5.85573,-7.74168,89.9403
2023-03-11 21:05:31:52,0,-5.84938,-7.74868,89.9226
2023-03-11 21:05:31:62,0,-5.84524,-7.75663,89.9057
2023-03-11 21:05:31:72,0,-5.8488,-7.76958,89.8898
2023-03-11 21:05:31:82,0,-5.86752,-7.78169,89.8718
2023-03-11 21:05:31:92,0,-5.90146,-7.77998,89.8573
2023-03-11 21:05:31:102,0,-5.94619,-7.76979,89.84
2023-03-11 21:05:31:112,0,-6.00151,-7.74082,89.8285
2023-03-11 21:05:31:122,0,-6.05623,-7.6924,89.8241
2023-03-11 21:05:31:132,0,-6.10037,-7.63837,89.8255
2023-03-11 21:05:31:142,0,-6.13918,-7.58095,89.8345
2023-03-11 21:05:31:152,0,-6.16512,-7.52868,89.8595
2023-03-11 21:05:31:162,0,-6.17749,-7.4908,89.8932
2023-03-11 21:05:31:172,0,-6.175,-7.47035,89.9344
2023-03-11 21:05:31:182,0,-6.16132,-7.46586,89.9737
2023-03-11 21:05:31:192,0,-6.1404,-7.472,90.0109
2023-03-11 21:05:31:202,0,-6.11602,-7.48576,90.0334
2023-03-11 21:05:31:212,0,-6.10339,-7.50964,90.0424
2023-03-11 21:05:31:222,0,-6.09686,-7.53859,90.0397
2023-03-11 21:05:31:232,0,-6.09942,-7.58141,90.0233
2023-03-11 21:05:31:242,0,-6.11416,-7.63284,90.0018
2023-03-11 21:05:31:252,0,-6.1233,-7.68439,89.9747
2023-03-11 21:05:31:262,0,-6.12867,-7.74278,89.9413
2023-03-11 21:05:31:272,0,-6.13453,-7.79813,89.9099
2023-03-11 21:05:31:282,0,-6.14108,-7.84912,89.8858
2023-03-11 21:05:31:292,0,-6.14252,-7.89281,89.8637
2023-03-11 21:05:31:302,0,-6.13431,-7.92903,89.8498
2023-03-11 21:05:31:312,0,-6.11799,-7.95625,89.8429
2023-03-11 21:05:31:322,0,-6.09811,-7.9801,89.8405
2023-03-11 21:05:31:332,0,-6.07901,-7.99426,89.8351
2023-03-11 21:05:31:342,0,-6.0582,-8.0018,89.8278
2023-03-11 21:05:31:352,0,-6.03703,-8.00472,89.8205
2023-03-11 21:05:31:362,0,-6.01579,-8.00669,89.8197
2023-03-11 21:05:31:372,0,-5.99129,-8.00122,89.8193
2023-03-11 21:05:31:382,0,-5.96777,-7.99792,89.8212
2023-03-11 21:05:31:392,0,-5.9399,-7.99167,89.8237
2023-03-11 21:05:31:402,0,-5.91262,-7.98498,89.8328
2023-03-11 21:05:31:412,0,-5.88592,-7.97696,89.8427
2023-03-11 21:05:31:422,0,-5.85908,-7.97204,89.8503
2023-03-11 21:05:31:432,0,-5.84055,-7.96448,89.8565
2023-03-11 21:05:31:442,0,-5.82732,-7.96238,89.8619
2023-03-11 21:05:31:452,0,-5.81809,-7.96493,89.8629
2023-03-11 21:05:31:462,0,-5.82081,-7.97378,89.8631
2023-03-11 21:05:31:472,0,-5.82743,-7.98661,89.8617
2023-03-11 21:05:31:482,0,-5.83519,-8.00879,89.8582
2023-03-11 21:05:31:492,0,-5.84563,-8.0349,89.851
2023-03-11 21:05:31:502,0,-5.85815,-8.06271,89.8405
2023-03-11 21:05:31:512,0,-5.86843,-8.0904,89.8311
2023-03-11 21:05:31:522,0,-5.87412,-8.11478,89.8204
2023-03-11 21:05:31:532,0,-5.87633,-8.14172,89.808
2023-03-11 21:05:31:542,0,-5.87301,-8.16354,89.7945
2023-03-11 21:05:31:552,0,-5.85505,-8.18915,89.7827
2023-03-11 21:05:31:562,0,-5.83797,-8.21076,89.7723
2023-03-11 21:05:31:572,0,-5.81743,-8.22887,89.7659
2023-03-11 21:05:31:582,0,-5.7963,-8.24415,89.7605
2023-03-11 21:05:31:592,0,-5.77404,-8.26024,89.7561
2023-03-11 21:05:31:602,0,-5.75264,-8.27049,89.7557
2023-03-11 21:05:31:612,0,-5.72909,-8.28513,89.7601
2023-03-11 21:05:31:622,0,-5.7055,-8.30331,89.7677
2023-03-11 21:05:31:632,0,-5.68433,-8.32843,89.7805
2023-03-11 21:05:31:642,0,-5.67668,-8.35937,89.7944
2023-03-11 21:05:31:652,0,-5.67925,-8.38867,89.8127
2023-03-11 21:05:31:662,0,-5.68951,-8.41288,89.8315
2023-03-11 21:05:31:672,0,-5.70145,-8.43515,89.8437
2023-03-11 21:05:31:682,0,-5.71381,-8.45701,89.8529
2023-03-11 21:05:31:692,0,-5.7315,-8.47857,89.8624
2023-03-11 21:05:31:702,0,-5.74137,-8.50363,89.8681
2023-03-11 21:05:31:712,0,-5.75287,-8.52455,89.8741
2023-03-11 21:05:31:722,0,-5.76346,-8.55135,89.875
2023-03-11 21:05:31:732,0,-5.78018,-8.57743,89.8824
2023-03-11 21:05:31:742,0,-5.80193,-8.6022,89.8865
2023-03-11 21:05:31:752,0,-5.82948,-8.62399,89.8907
2023-03-11 21:05:31:762,0,-5.8614,-8.64813,89.8981
2023-03-11 21:05:31:772,0,-5.89988,-8.66976,89.9012
2023-03-11 21:05:31:782,0,-5.93841,-8.69119,89.9044
2023-03-11 21:05:31:792,0,-5.97708,-8.7131,89.9068
2023-03-11 21:05:31:802,0,-6.01364,-8.73567,89.9098
2023-03-11 21:05:31:812,0,-6.05173,-8.75522,89.9114
2023-03-11 21:05:31:822,0,-6.08889,-8.77391,89.9138
2023-03-11 21:05:31:832,0,-6.11999,-8.78894,89.917
2023-03-11 21:05:31:842,0,-6.14944,-8.80813,89.9247
2023-03-11 21:05:31:852,0,-6.17908,-8.82589,89.9333
2023-03-11 21:05:31:862,0,-6.2175,-8.8439,89.9497
2023-03-11 21:05:31:872,0,-6.26235,-8.85661,89.9695
2023-03-11 21:05:31:882,0,-6.31688,-8.86643,89.9876
2023-03-11 21:05:31:892,0,-6.38026,-8.86932,90.0102
2023-03-11 21:05:31:902,0,-6.44528,-8.87167,90.0283
2023-03-11 21:05:31:912,0,-6.50622,-8.87174,90.0406
2023-03-11 21:05:31:922,0,-6.5608,-8.86978,90.0452
2023-03-11 21:05:31:932,0,-6.60325,-8.87159,90.0334
2023-03-11 21:05:31:942,0,-6.63526,-8.87984,90.0096
2023-03-11 21:05:31:952,0,-6.659,-8.89168,89.9768
2023-03-11 21:05:31:962,0,-6.67914,-8.91433,89.9373
2023-03-11 21:05:31:972,0,-6.69367,-8.93915,89.8876
2023-03-11 21:05:31:982,0,-6.70834,-8.9698,89.8432
2023-03-11 21:05:31:992,0,-6.72324,-8.9976,89.8014
2023-03-11 21:05:32:2,0,-6.73914,-9.02604,89.7678
2023-03-11 21:05:32:12,0,-6.75452,-9.06002,89.7404
2023-03-11 21:05:32:22,0,-6.76503,-9.08699,89.7232
2023-03-11 21:05:32:32,0,-6.7754,-9.1147,89.7124
2023-03-11 21:05:32:42,0,-6.78132,-9.14208,89.705
2023-03-11 21:05:32:52,0,-6.78193,-9.167,89.7051
2023-03-11 21:05:32:62,0,-6.77883,-9.1841,89.707
2023-03-11 21:05:32:72,0,-6.77384,-9.19763,89.7108
2023-03-11 21:05:32:82,0,-6.76484,-9.21378,89.7156
2023-03-11 21:05:32:92,0,-6.76406,-9.22097,89.7208
2023-03-11 21:05:32:102,0,-6.7604,-9.22971,89.7257
2023-03-11 21:05:32:112,0,-6.76195,-9.23173,89.7323
2023-03-11 21:05:32:122,0,-6.76987,-9.23404,89.7457
2023-03-11 21:05:32:132,0,-6.77742,-9.23564,89.7591
2023-03-11 21:05:32:142,0,-6.78295,-9.23746,89.7715
2023-03-11 21:05:32:152,0,-6.78803,-9.23552,89.7897
2023-03-11 21:05:32:162,0,-6.78484,-9.22746,89.8068
2023-03-11 21:05:32:172,0,-6.78642,-9.21594,89.8266
2023-03-11 21:05:32:182,0,-6.79117,-9.20411,89.8448
2023-03-11 21:05:32:192,0,-6.7967,-9.19427,89.8701
2023-03-11 21:05:32:202,0,-6.80593,-9.18533,89.8974
2023-03-11 21:05:32:212,0,-6.81217,-9.17321,89.9248
2023-03-11 21:05:32:222,0,-6.81727,-9.15741,89.9547
2023-03-11 21:05:32:232,0,-6.8169,-9.1446,89.9839
2023-03-11 21:05:32:242,0,-6.81687,-9.13159,90.0183
2023-03-11 21:05:32:252,0,-6.82024,-9.11822,90.0497
2023-03-11 21:05:32:262,0,-6.82076,-9.10581,90.0834
2023-03-11 21:05:32:272,0,-6.81767,-9.09669,90.1143
2023-03-11 21:05:32:282,0,-6.80868,-9.09235,90.1432
2023-03-11 21:05:32:292,0,-6.79592,-9.09339,90.1722
2023-03-11 21:05:32:302,0,-6.78533,-9.09972,90.2038
2023-03-11 21:05:32:312,0,-6.77755,-9.10462,90.2292
2023-03-11 21:05:32:322,0,-6.7778,-9.11221,90.2567
2023-03-11 21:05:32:332,0,-6.78237,-9.11971,90.283
2023-03-11 21:05:32:342,0,-6.78769,-9.12103,90.3068
2023-03-11 21:05:32:352,0,-6.79751,-9.11961,90.3321
2023-03-11 21:05:32:362,0,-6.80701,-9.11535,90.3499
2023-03-11 21:05:32:372,0,-6.81178,-9.1132,90.3648
2023-03-11 21:05:32:382,0,-6.8136,-9.11204,90.3762
2023-03-11 21:05:32:392,0,-6.81488,-9.10602,90.3833
2023-03-11 21:05:32:402,0,-6.81923,-9.10117,90.3815
2023-03-11 21:05:32:412,0,-6.82792,-9.09311,90.3764
2023-03-11 21:05:32:422,0,-6.83859,-9.08241,90.3612
2023-03-11 21:05:32:432,0,-6.84957,-9.06131,90.3367
2023-03-11 21:05:32:442,0,-6.8641,-9.03128,90.2965
2023-03-11 21:05:32:452,0,-6.87704,-8.99325,90.2469
2023-03-11 21:05:32:462,0,-6.89625,-8.95423,90.1893
2023-03-11 21:05:32:472,0,-6.91566,-8.91428,90.127
2023-03-11 21:05:32:482,0,-6.93124,-8.87001,90.0592
2023-03-11 21:05:32:492,0,-6.94255,-8.82342,89.9854
2023-03-11 21:05:32:502,0,-6.94529,-8.78155,89.9087
2023-03-11 21:05:32:512,0,-6.94462,-8.74042,89.8375
2023-03-11 21:05:32:522,0,-6.93955,-8.70189,89.7678
2023-03-11 21:05:32:532,0,-6.93444,-8.66845,89.705
2023-03-11 21:05:32:542,0,-6.93034,-8.63693,89.6479
2023-03-11 21:05:32:552,0,-6.92894,-8.61072,89.597
2023-03-11 21:05:32:562,0,-6.93137,-8.58877,89.5517
2023-03-11 21:05:32:572,0,-6.93821,-8.56315,89.5127
2023-03-11 21:05:32:582,0,-6.94868,-8.54332,89.4822
2023-03-11 21:05:32:592,0,-6.95623,-8.52256,89.4559
2023-03-11 21:05:32:602,0,-6.96581,-8.50509,89.4327
2023-03-11 21:05:32:612,0,-6.97134,-8.49125,89.4098
2023-03-11 21:05:32:622,0,-6.97124,-8.47927,89.3894
2023-03-11 21:05:32:632,0,-6.96871,-8.4767,89.3703
2023-03-11 21:05:32:642,0,-6.96661,-8.46956,89.3503
2023-03-11 21:05:32:652,0,-6.96168,-8.4665,89.3329
2023-03-11 21:05:32:662,0,-6.96181,-8.46675,89.3187
2023-03-11 21:05:32:672,0,-6.96668,-8.46272,89.3052
2023-03-11 21:05:32:682,0,-6.97561,-8.45847,89.2941
2023-03-11 21:05:32:692,0,-6.98928,-8.45477,89.2846
2023-03-11 21:05:32:702,0,-7.00031,-8.44459,89.2779
2023-03-11 21:05:32:712,0,-7.01487,-8.43725,89.2703
2023-03-11 21:05:32:722,0,-7.02714,-8.42648,89.2609
2023-03-11 21:05:32:732,0,-7.03536,-8.40961,89.2473
2023-03-11 21:05:32:742,0,-7.04446,-8.39363,89.2367
2023-03-11 21:05:32:752,0,-7.0504,-8.37599,89.2311
2023-03-11 21:05:32:762,0,-7.05576,-8.35355,89.2254
2023-03-11 21:05:32:772,0,-7.06597,-8.33602,89.2177
2023-03-11 21:05:32:782,0,-7.07447,-8.31292,89.2139
2023-03-11 21:05:32:792,0,-7.07997,-8.29251,89.2103
2023-03-11 21:05:32:802,0,-7.08112,-8.26854,89.2089
2023-03-11 21:05:32:812,0,-7.08052,-8.248,89.2103
2023-03-11 21:05:32:822,0,-7.07171,-8.23087,89.2155
2023-03-11 21:05:32:832,0,-7.06815,-8.21615,89.2181
2023-03-11 21:05:32:842,0,-7.06129,-8.20466,89.2217
2023-03-11 21:05:32:852,0,-7.05117,-8.19488,89.2248
2023-03-11 21:05:32:862,0,-7.03784,-8.18936,89.2274
2023-03-11 21:05:32:872,0,-7.0234,-8.18197,89.232
2023-03-11 21:05:32:882,0,-7.00996,-8.17343,89.2376
2023-03-11 21:05:32:892,0,-6.99933,-8.16705,89.2425
2023-03-11 21:05:32:902,0,-6.98604,-8.16018,89.246
2023-03-11 21:05:32:912,0,-6.97227,-8.15605,89.249
2023-03-11 21:05:32:922,0,-6.95655,-8.15218,89.2517
2023-03-11 21:05:32:932,0,-6.94344,-8.14692,89.254
2023-03-11 21:05:32:942,0,-6.93118,-8.14727,89.2557
2023-03-11 21:05:32:952,0,-6.91703,-8.15146,89.2533
2023-03-11 21:05:32:962,0,-6.90199,-8.16207,89.2537
2023-03-11 21:05:32:972,0,-6.88594,-8.17762,89.2596
2023-03-11 21:05:32:982,0,-6.8719,-8.19369,89.2651
2023-03-11 21:05:32:992,0,-6.8637,-8.20937,89.2738
2023-03-11 21:05:33:2,0,-6.85729,-8.22541,89.2849
2023-03-11 21:05:33:12,0,-6.85799,-8.236,89.3005
2023-03-11 21:05:33:22,0,-6.85938,-8.25003,89.3194
2023-03-11 21:05:33:32,0,-6.86431,-8.26083,89.3416
2023-03-11 21:05:33:42,0,-6.86475,-8.26844,89.3637
2023-03-11 21:05:33:52,0,-6.86151,-8.27682,89.3838
2023-03-11 21:05:33:62,0,-6.85872,-8.28246,89.4022
2023-03-11 21:05:33:72,0,-6.85676,-8.28734,89.4174
2023-03-11 21:05:33:82,0,-6.85425,-8.29589,89.4269
2023-03-11 21:05:33:92,0,-6.8545,-8.30168,89.4338
2023-03-11 21:05:33:102,0,-6.85139,-8.30956,89.4379
2023-03-11 21:05:33:112,0,-6.85547,-8.32069,89.4391
2023-03-11 21:05:33:122,0,-6.86005,-8.32802,89.4385
2023-03-11 21:05:33:132,0,-6.86818,-8.33473,89.4374
2023-03-11 21:05:33:142,0,-6.88219,-8.34386,89.4399
2023-03-11 21:05:33:152,0,-6.89672,-8.34811,89.4415
2023-03-11 21:05:33:162,0,-6.91169,-8.34935,89.4416
2023-03-11 21:05:33:172,0,-6.92262,-8.35183,89.4464
2023-03-11 21:05:33:182,0,-6.93345,-8.3545,89.4529
2023-03-11 21:05:33:192,0,-6.94603,-8.36203,89.4668
2023-03-11 21:05:33:202,0,-6.95904,-8.37344,89.4821
2023-03-11 21:05:33:212,0,-6.97282,-8.37987,89.5029
2023-03-11 21:05:33:222,0,-6.98506,-8.38693,89.5233
2023-03-11 21:05:33:232,0,-6.99739,-8.39429,89.5498
2023-03-11 21:05:33:242,0,-7.00447,-8.40509,89.5773
2023-03-11 21:05:33:252,0,-7.01147,-8.41771,89.6047
2023-03-11 21:05:33:262,0,-7.01458,-8.42824,89.6371
2023-03-11 21:05:33:272,0,-7.01712,-8.44285,89.6609
2023-03-11 21:05:33:282,0,-7.01291,-8.45799,89.6785
2023-03-11 21:05:33:292,0,-7.00486,-8.47665,89.6955
2023-03-11 21:05:33:302,0,-7.00188,-8.49863,89.7077
2023-03-11 21:05:33:312,0,-6.99871,-8.52009,89.7161
2023-03-11 21:05:33:322,0,-6.99635,-8.54552,89.7273
2023-03-11 21:05:33:332,0,-7.00153,-8.56778,89.7389
2023-03-11 21:05:33:342,0,-7.00183,-8.58963,89.7485
2023-03-11 21:05:33:352,0,-6.99863,-8.61129,89.7545
2023-03-11 21:05:33:362,0,-6.99679,-8.62792,89.7644
2023-03-11 21:05:33:372,0,-6.98946,-8.64353,89.7696
2023-03-11 21:05:33:382,0,-6.98224,-8.65334,89.7739
2023-03-11 21:05:33:392,0,-6.97027,-8.66014,89.7762
2023-03-11 21:05:33:402,0,-6.95747,-8.66936,89.782
2023-03-11 21:05:33:412,0,-6.95126,-8.67233,89.7866
2023-03-11 21:05:33:422,0,-6.94749,-8.68106,89.7924
2023-03-11 21:05:33:432,0,-6.94874,-8.68725,89.8021
2023-03-11 21:05:33:442,0,-6.95225,-8.69146,89.8183
2023-03-11 21:05:33:452,0,-6.95607,-8.69483,89.8342
2023-03-11 21:05:33:462,0,-6.95378,-8.69758,89.8524
2023-03-11 21:05:33:472,0,-6.94584,-8.70099,89.8681
2023-03-11 21:05:33:482,0,-6.93723,-8.70763,89.8767
2023-03-11 21:05:33:492,0,-6.92626,-8.71333,89.8874
2023-03-11 21:05:33:502,0,-6.91488,-8.71654,89.8939
2023-03-11 21:05:33:512,0,-6.90292,-8.72183,89.8982
2023-03-11 21:05:33:522,0,-6.89191,-8.72583,89.8999
2023-03-11 21:05:33:532,0,-6.88266,-8.7262,89.8989
2023-03-11 21:05:33:542,0,-6.87579,-8.72247,89.8959
2023-03-11 21:05:33:552,0,-6.87387,-8.71848,89.8972
2023-03-11 21:05:33:562,0,-6.87214,-8.71785,89.8996
2023-03-11 21:05:33:572,0,-6.87093,-8.72112,89.9026
2023-03-11 21:05:33:582,0,-6.87397,-8.72127,89.9068
2023-03-11 21:05:33:592,0,-6.8759,-8.72316,89.9164
2023-03-11 21:05:33:602,0,-6.87472,-8.72259,89.9279
2023-03-11 21:05:33:612,0,-6.87462,-8.72273,89.9376
2023-03-11 21:05:33:622,0,-6.8769,-8.71927,89.949
2023-03-11 21:05:33:632,0,-6.8874,-8.71374,89.9583
2023-03-11 21:05:33:642,0,-6.89309,-8.71076,89.9636
2023-03-11 21:05:33:652,0,-6.89499,-8.71474,89.9687
2023-03-11 21:05:33:662,0,-6.89956,-8.71975,89.9714
2023-03-11 21:05:33:672,0,-6.90539,-8.7208,89.9715
2023-03-11 21:05:33:682,0,-6.90988,-8.71888,89.9658
2023-03-11 21:05:33:692,0,-6.92324,-8.71285,89.9611
2023-03-11 21:05:33:702,0,-6.9386,-8.70319,89.9564
2023-03-11 21:05:33:712,0,-6.95307,-8.68892,89.953
2023-03-11 21:05:33:722,0,-6.97363,-8.67693,89.9522
2023-03-11 21:05:33:732,0,-6.99361,-8.66605,89.9585
2023-03-11 21:05:33:742,0,-7.01335,-8.65402,89.9681
2023-03-11 21:05:33:752,0,-7.03158,-8.63793,89.9872
2023-03-11 21:05:33:762,0,-7.0433,-8.62202,90.0018
2023-03-11 21:05:33:772,0,-7.05706,-8.61141,90.018
2023-03-11 21:05:33:782,0,-7.07296,-8.60509,90.0364
2023-03-11 21:05:33:792,0,-7.09102,-8.60459,90.0598
2023-03-11 21:05:33:802,0,-7.10963,-8.60371,90.0783
2023-03-11 21:05:33:812,0,-7.13589,-8.6072,90.0993
2023-03-11 21:05:33:822,0,-7.1594,-8.62019,90.1182
2023-03-11 21:05:33:832,0,-7.18327,-8.63499,90.1395
2023-03-11 21:05:33:842,0,-7.20752,-8.64667,90.1517
2023-03-11 21:05:33:852,0,-7.22444,-8.66211,90.1635
2023-03-11 21:05:33:862,0,-7.23263,-8.67711,90.1711
2023-03-11 21:05:33:872,0,-7.23544,-8.69421,90.1778
2023-03-11 21:05:33:882,0,-7.23787,-8.71238,90.1848
2023-03-11 21:05:33:892,0,-7.23837,-8.73038,90.1929
2023-03-11 21:05:33:902,0,-7.23713,-8.7502,90.1958
2023-03-11 21:05:33:912,0,-7.23368,-8.76486,90.1964
2023-03-11 21:05:33:922,0,-7.22479,-8.77464,90.1942
2023-03-11 21:05:33:932,0,-7.21308,-8.78689,90.1831
2023-03-11 21:05:33:942,0,-7.19892,-8.79923,90.167
2023-03-11 21:05:33:952,0,-7.1847,-8.80852,90.1442
2023-03-11 21:05:33:962,0,-7.16657,-8.81692,90.121
2023-03-11 21:05:33:972,0,-7.14371,-8.8244,90.0931
2023-03-11 21:05:33:982,0,-7.12255,-8.82991,90.0597
2023-03-11 21:05:33:992,0,-7.10481,-8.83593,90.0227
2023-03-11 21:05:34:2,0,-7.08589,-8.84429,89.987
2023-03-11 21:05:34:12,0,-7.07121,-8.85416,89.9551
2023-03-11 21:05:34:22,0,-7.06588,-8.86557,89.929
2023-03-11 21:05:34:32,0,-7.07175,-8.88102,89.916
2023-03-11 21:05:34:42,0,-7.08956,-8.89531,89.9147
2023-03-11 21:05:34:52,0,-7.11045,-8.91049,89.9277
2023-03-11 21:05:34:62,0,-7.13418,-8.92047,89.9509
2023-03-11 21:05:34:72,0,-7.15485,-8.93072,89.9792
2023-03-11 21:05:34:82,0,-7.16815,-8.93477,90.0022
2023-03-11 21:05:34:92,0,-7.1722,-8.93818,90.0271
2023-03-11 21:05:34:102,0,-7.16675,-8.94002,90.0455
2023-03-11 21:05:34:112,0,-7.15962,-8.94304,90.0552
2023-03-11 21:05:34:122,0,-7.15722,-8.94494,90.0599
2023-03-11 21:05:34:132,0,-7.15629,-8.94796,90.0589
2023-03-11 21:05:34:142,0,-7.16125,-8.94963,90.0501
2023-03-11 21:05:34:152,0,-7.17282,-8.94674,90.0423
2023-03-11 21:05:34:162,0,-7.18855,-8.94586,90.0352
2023-03-11 21:05:34:172,0,-7.20617,-8.94062,90.0282
2023-03-11 21:05:34:182,0,-7.22541,-8.93568,90.0277
2023-03-11 21:05:34:192,0,-7.23795,-8.93273,90.0315
2023-03-11 21:05:34:202,0,-7.25115,-8.93226,90.0388
2023-03-11 21:05:34:212,0,-7.26142,-8.93349,90.056
2023-03-11 21:05:34:222,0,-7.2689,-8.93579,90.08
2023-03-11 21:05:34:232,0,-7.28368,-8.94122,90.1137
2023-03-11 21:05:34:242,0,-7.29755,-8.94688,90.1537
2023-03-11 21:05:34:252,0,-7.3168,-8.9569,90.1939
2023-03-11 21:05:34:262,0,-7.34115,-8.96554,90.2335
2023-03-11 21:05:34:272,0,-7.36307,-8.97857,90.275
2023-03-11 21:05:34:282,0,-7.39216,-8.99546,90.3121
2023-03-11 21:05:34:292,0,-7.42273,-9.0112,90.3456
2023-03-11 21:05:34:302,0,-7.45803,-9.02844,90.3729
2023-03-11 21:05:34:312,0,-7.49069,-9.04625,90.3939
2023-03-11 21:05:34:322,0,-7.51911,-9.06095,90.4101
2023-03-11 21:05:34:332,0,-7.54628,-9.07434,90.4188
2023-03-11 21:05:34:342,0,-7.56701,-9.08643,90.4189
2023-03-11 21:05:34:352,0,-7.5799,-9.10807,90.4155
2023-03-11 21:05:34:362,0,-7.5883,-9.13451,90.4163
2023-03-11 21:05:34:372,0,-7.60128,-9.15512,90.4172
2023-03-11 21:05:34:382,0,-7.61207,-9.17184,90.4206
2023-03-11 21:05:34:392,0,-7.62524,-9.18211,90.4237
2023-03-11 21:05:34:402,0,-7.63694,-9.18883,90.429
2023-03-11 21:05:34:411,0,-7.64439,-9.19371,90.435
2023-03-11 21:05:34:422,0,-7.64613,-9.19145,90.4412
2023-03-11 21:05:34:432,0,-7.63882,-9.18849,90.4421
2023-03-11 21:05:34:442,0,-7.62239,-9.18619,90.4352
2023-03-11 21:05:34:452,0,-7.6042,-9.18,90.4244
2023-03-11 21:05:34:462,0,-7.58319,-9.17395,90.407
2023-03-11 21:05:34:472,0,-7.56393,-9.16544,90.3827
2023-03-11 21:05:34:482,0,-7.54807,-9.1542,90.3501
2023-03-11 21:05:34:492,0,-7.53102,-9.13893,90.3114
2023-03-11 21:05:34:502,0,-7.5198,-9.12795,90.2648
2023-03-11 21:05:34:512,0,-7.50973,-9.11813,90.2194
2023-03-11 21:05:34:522,0,-7.49885,-9.10761,90.1756
2023-03-11 21:05:34:532,0,-7.49652,-9.09677,90.1349
2023-03-11 21:05:34:542,0,-7.49268,-9.08577,90.0931
2023-03-11 21:05:34:552,0,-7.48752,-9.07062,90.0541
2023-03-11 21:05:34:562,0,-7.48285,-9.05292,90.0149
2023-03-11 21:05:34:572,0,-7.47988,-9.03242,89.978
2023-03-11 21:05:34:582,0,-7.47489,-9.0191,89.9492
2023-03-11 21:05:34:592,0,-7.47706,-9.00528,89.9244
2023-03-11 21:05:34:602,0,-7.48337,-8.98924,89.906
2023-03-11 21:05:34:612,0,-7.49431,-8.97004,89.8954
2023-03-11 21:05:34:622,0,-7.50784,-8.95367,89.8902
2023-03-11 21:05:34:632,0,-7.52381,-8.93917,89.8901
2023-03-11 21:05:34:642,0,-7.54423,-8.92284,89.8938
2023-03-11 21:05:34:652,0,-7.56381,-8.91053,89.9019
2023-03-11 21:05:34:662,0,-7.5808,-8.90051,89.9101
2023-03-11 21:05:34:672,0,-7.59991,-8.88868,89.9201
2023-03-11 21:05:34:682,0,-7.6184,-8.87803,89.9315
2023-03-11 21:05:34:692,0,-7.62984,-8.86931,89.9409
2023-03-11 21:05:34:702,0,-7.64808,-8.86623,89.9534
2023-03-11 21:05:34:712,0,-7.66833,-8.86394,89.9645
2023-03-11 21:05:34:722,0,-7.68418,-8.8654,89.9731
2023-03-11 21:05:34:732,0,-7.70192,-8.87036,89.9808
2023-03-11 21:05:34:742,0,-7.71682,-8.87456,89.9851
2023-03-11 21:05:34:752,0,-7.72769,-8.87791,89.9898
2023-03-11 21:05:34:762,0,-7.74051,-8.88106,89.9892
2023-03-11 21:05:34:772,0,-7.74936,-8.88614,89.9859
2023-03-11 21:05:34:782,0,-7.75804,-8.88649,89.9801
2023-03-11 21:05:34:792,0,-7.76547,-8.88951,89.979
2023-03-11 21:05:34:802,0,-7.76949,-8.89061,89.9742
2023-03-11 21:05:34:812,0,-7.77423,-8.89063,89.9732
2023-03-11 21:05:34:822,0,-7.77466,-8.89539,89.9739
2023-03-11 21:05:34:832,0,-7.77532,-8.8961,89.975
2023-03-11 21:05:34:842,0,-7.77733,-8.89608,89.9807
2023-03-11 21:05:34:852,0,-7.77329,-8.89416,89.9777
2023-03-11 21:05:34:862,0,-7.7698,-8.89447,89.9775
2023-03-11 21:05:34:872,0,-7.76833,-8.88938,89.9782
2023-03-11 21:05:34:882,0,-7.76316,-8.88701,89.9754
2023-03-11 21:05:34:892,0,-7.76057,-8.88322,89.9728
2023-03-11 21:05:34:902,0,-7.75969,-8.87965,89.9664
2023-03-11 21:05:34:912,0,-7.75912,-8.87567,89.961
2023-03-11 21:05:34:922,0,-7.76308,-8.86869,89.9538
2023-03-11 21:05:34:932,0,-7.76647,-8.8672,89.9501
2023-03-11 21:05:34:942,0,-7.76607,-8.86472,89.942
2023-03-11 21:05:34:952,0,-7.76851,-8.8614,89.9329
2023-03-11 21:05:34:962,0,-7.76798,-8.85534,89.9251
2023-03-11 21:05:34:972,0,-7.76289,-8.84982,89.9156
2023-03-11 21:05:34:982,0,-7.75626,-8.83803,89.9068
2023-03-11 21:05:34:992,0,-7.75108,-8.82668,89.8965
2023-03-11 21:05:35:2,0,-7.74309,-8.8137,89.8815
2023-03-11 21:05:35:12,0,-7.73821,-8.79746,89.8661
2023-03-11 21:05:35:22,0,-7.732,-8.7908,89.8505
2023-03-11 21:05:35:32,0,-7.72637,-8.78474,89.8362
2023-03-11 21:05:35:42,0,-7.72217,-8.78603,89.8229
2023-03-11 21:05:35:52,0,-7.72424,-8.78893,89.8159
2023-03-11 21:05:35:62,0,-7.73213,-8.79434,89.808
2023-03-11 21:05:35:72,0,-7.745,-8.79857,89.8031
2023-03-11 21:05:35:82,0,-7.76107,-8.79841,89.7994
2023-03-11 21:05:35:92,0,-7.77671,-8.79403,89.7993
2023-03-11 21:05:35:102,0,-7.7899,-8.79088,89.7961
2023-03-11 21:05:35:112,0,-7.80082,-8.78261,89.7895
2023-03-11 21:05:35:122,0,-7.80851,-8.77147,89.785
2023-03-11 21:05:35:132,0,-7.81402,-8.7565,89.7822
2023-03-11 21:05:35:142,0,-7.81998,-8.74106,89.7786
2023-03-11 21:05:35:152,0,-7.82161,-8.72694,89.7708
2023-03-11 21:05:35:162,0,-7.82581,-8.71224,89.7652
2023-03-11 21:05:35:172,0,-7.83091,-8.69727,89.7554
2023-03-11 21:05:35:182,0,-7.83798,-8.68182,89.7458
2023-03-11 21:05:35:192,0,-7.84039,-8.67016,89.7328
2023-03-11 21:05:35:202,0,-7.84967,-8.66116,89.7207
2023-03-11 21:05:35:212,0,-7.85546,-8.65335,89.7077
2023-03-11 21:05:35:222,0,-7.85847,-8.6498,89.6948
2023-03-11 21:05:35:232,0,-7.86204,-8.64403,89.6771
2023-03-11 21:05:35:242,0,-7.85846,-8.64067,89.6547
2023-03-11 21:05:35:252,0,-7.84585,-8.63778,89.6267
2023-03-11 21:05:35:262,0,-7.82753,-8.63719,89.5977
2023-03-11 21:05:35:272,0,-7.81079,-8.63651,89.5689
2023-03-11 21:05:35:282,0,-7.7922,-8.63319,89.5416
2023-03-11 21:05:35:292,0,-7.76816,-8.62861,89.5124
2023-03-11 21:05:35:302,0,-7.74545,-8.62129,89.4838
2023-03-11 21:05:35:312,0,-7.71906,-8.61257,89.456
2023-03-11 21:05:35:322,0,-7.69624,-8.60298,89.4347
2023-03-11 21:05:35:332,0,-7.67326,-8.59212,89.415
2023-03-11 21:05:35:342,0,-7.64879,-8.58579,89.3966
2023-03-11 21:05:35:352,0,-7.62574,-8.58186,89.379
2023-03-11 21:05:35:362,0,-7.60383,-8.57337,89.364
2023-03-11 21:05:35:372,0,-7.58396,-8.56352,89.3526
2023-03-11 21:05:35:382,0,-7.55779,-8.55149,89.3394
2023-03-11 21:05:35:392,0,-7.53567,-8.54259,89.3334
2023-03-11 21:05:35:402,0,-7.51588,-8.53931,89.3289
2023-03-11 21:05:35:412,0,-7.49666,-8.53608,89.3297
2023-03-11 21:05:35:422,0,-7.47338,-8.53671,89.3358
2023-03-11 21:05:35:432,0,-7.45176,-8.53769,89.3392
2023-03-11 21:05:35:442,0,-7.4284,-8.54049,89.3449
2023-03-11 21:05:35:452,0,-7.40699,-8.54229,89.3489
2023-03-11 21:05:35:462,0,-7.38129,-8.54388,89.3518
2023-03-11 21:05:35:472,0,-7.35545,-8.54929,89.3526
2023-03-11 21:05:35:482,0,-7.3369,-8.55127,89.3487
2023-03-11 21:05:35:492,0,-7.3257,-8.54751,89.343
2023-03-11 21:05:35:502,0,-7.31168,-8.54739,89.3367
2023-03-11 21:05:35:512,0,-7.29738,-8.54702,89.3304
2023-03-11 21:05:35:522,0,-7.28392,-8.54392,89.3237
2023-03-11 21:05:35:532,0,-7.27492,-8.5371,89.3257
2023-03-11 21:05:35:542,0,-7.27053,-8.53285,89.3258
2023-03-11 21:05:35:552,0,-7.26807,-8.53159,89.3317
2023-03-11 21:05:35:562,0,-7.26756,-8.52548,89.3381
2023-03-11 21:05:35:572,0,-7.26624,-8.52364,89.3436
2023-03-11 21:05:35:582,0,-7.26105,-8.52164,89.3483
2023-03-11 21:05:35:592,0,-7.25676,-8.51962,89.3549
2023-03-11 21:05:35:602,0,-7.2534,-8.51827,89.3632
2023-03-11 21:05:35:612,0,-7.25259,-8.5208,89.3695
2023-03-11 21:05:35:622,0,-7.25373,-8.52604,89.3758
2023-03-11 21:05:35:632,0,-7.25304,-8.52727,89.3835
2023-03-11 21:05:35:642,0,-7.2588,-8.52543,89.3936
2023-03-11 21:05:35:652,0,-7.26132,-8.52609,89.3984
2023-03-11 21:05:35:662,0,-7.26265,-8.52461,89.4049
2023-03-11 21:05:35:672,0,-7.26405,-8.51986,89.4138
2023-03-11 21:05:35:682,0,-7.2627,-8.52104,89.4177
2023-03-11 21:05:35:692,0,-7.26132,-8.51735,89.4248
2023-03-11 21:05:35:702,0,-7.25642,-8.51225,89.429
2023-03-11 21:05:35:712,0,-7.24833,-8.50807,89.4308
2023-03-11 21:05:35:722,0,-7.23634,-8.51352,89.4326
2023-03-11 21:05:35:732,0,-7.2256,-8.52779,89.4304
2023-03-11 21:05:35:742,0,-7.22176,-8.54472,89.4314
2023-03-11 21:05:35:752,0,-7.22045,-8.56482,89.4295
2023-03-11 21:05:35:762,0,-7.21825,-8.57794,89.4279
2023-03-11 21:05:35:772,0,-7.21458,-8.58935,89.4265
2023-03-11 21:05:35:782,0,-7.20889,-8.59745,89.4253
2023-03-11 21:05:35:792,0,-7.20739,-8.60357,89.4281
2023-03-11 21:05:35:802,0,-7.21622,-8.60543,89.436
2023-03-11 21:05:35:812,0,-7.22715,-8.60373,89.4441
2023-03-11 21:05:35:822,0,-7.2346,-8.59715,89.4556
2023-03-11 21:05:35:832,0,-7.23793,-8.58694,89.4669
2023-03-11 21:05:35:842,0,-7.24059,-8.57419,89.4795
2023-03-11 21:05:35:852,0,-7.24347,-8.56205,89.4912
2023-03-11 21:05:35:862,0,-7.24367,-8.55437,89.4998
2023-03-11 21:05:35:872,0,-7.24449,-8.54375,89.5074
2023-03-11 21:05:35:882,0,-7.24999,-8.5391,89.5132
2023-03-11 21:05:35:892,0,-7.25708,-8.53329,89.5217
2023-03-11 21:05:35:902,0,-7.26187,-8.53355,89.5251
2023-03-11 21:05:35:912,0,-7.26698,-8.53345,89.5299
2023-03-11 21:05:35:922,0,-7.27376,-8.53303,89.5361
2023-03-11 21:05:35:932,0,-7.28023,-8.52977,89.5361
2023-03-11 21:05:35:942,0,-7.28531,-8.52836,89.5367
2023-03-11 21:05:35:952,0,-7.29148,-8.53128,89.5391
2023-03-11 21:05:35:962,0,-7.29448,-8.53276,89.5433
2023-03-11 21:05:35:972,0,-7.29852,-8.529,89.5492
2023-03-11 21:05:35:982,0,-7.29996,-8.52549,89.5562
2023-03-11 21:05:35:992,0,-7.301,-8.52115,89.5622
2023-03-11 21:05:36:2,0,-7.30305,-8.5133,89.5692
2023-03-11 21:05:36:12,0,-7.30147,-8.50777,89.5794
2023-03-11 21:05:36:22,0,-7.30471,-8.50186,89.5938
2023-03-11 21:05:36:32,0,-7.31294,-8.49738,89.6038
2023-03-11 21:05:36:42,0,-7.32333,-8.49449,89.6088
2023-03-11 21:05:36:52,0,-7.33457,-8.49701,89.6127
2023-03-11 21:05:36:62,0,-7.33615,-8.50011,89.6145
2023-03-11 21:05:36:72,0,-7.3351,-8.50384,89.6142
2023-03-11 21:05:36:82,0,-7.33736,-8.50518,89.6175
2023-03-11 21:05:36:92,0,-7.34544,-8.51028,89.622
2023-03-11 21:05:36:102,0,-7.35368,-8.51885,89.6314
2023-03-11 21:05:36:112,0,-7.36267,-8.53034,89.6404
2023-03-11 21:05:36:122,0,-7.37143,-8.54238,89.6547
2023-03-11 21:05:36:132,0,-7.38037,-8.55073,89.6694
2023-03-11 21:05:36:142,0,-7.39122,-8.55954,89.6859
2023-03-11 21:05:36:152,0,-7.40007,-8.56958,89.7049
2023-03-11 21:05:36:162,0,-7.40803,-8.57658,89.7202
2023-03-11 21:05:36:172,0,-7.41697,-8.58356,89.7418
2023-03-11 21:05:36:182,0,-7.42651,-8.58999,89.7607
2023-03-11 21:05:36:192,0,-7.4341,-8.59877,89.7776
2023-03-11 21:05:36:202,0,-7.43871,-8.60708,89.7955
2023-03-11 21:05:36:212,0,-7.4417,-8.61404,89.8106
2023-03-11 21:05:36:222,0,-7.44991,-8.62238,89.8254
2023-03-11 21:05:36:232,0,-7.45762,-8.62944,89.8416
2023-03-11 21:05:36:242,0,-7.46916,-8.63631,89.8609
2023-03-11 21:05:36:252,0,-7.47718,-8.64349,89.8767
2023-03-11 21:05:36:262,0,-7.48415,-8.65351,89.8943
2023-03-11 21:05:36:272,0,-7.48504,-8.6632,89.9116
2023-03-11 21:05:36:282,0,-7.48258,-8.66974,89.9263
2023-03-11 21:05:36:292,0,-7.48016,-8.68244,89.9429
2023-03-11 21:05:36:302,0,-7.47682,-8.69744,89.9604
2023-03-11 21:05:36:312,0,-7.47097,-8.70877,89.9758
2023-03-11 21:05:36:322,0,-7.46864,-8.71962,89.9927
2023-03-11 21:05:36:332,0,-7.46518,-8.72604,90.0123
2023-03-11 21:05:36:342,0,-7.45685,-8.7341,90.029
2023-03-11 21:05:36:352,0,-7.44934,-8.73613,90.0396
2023-03-11 21:05:36:362,0,-7.4415,-8.73607,90.0541
2023-03-11 21:05:36:372,0,-7.44021,-8.73482,90.0708
2023-03-11 21:05:36:382,0,-7.43937,-8.7305,90.0833
2023-03-11 21:05:36:392,0,-7.43274,-8.72481,90.0878
2023-03-11 21:05:36:402,0,-7.42797,-8.72192,90.0936
2023-03-11 21:05:36:412,0,-7.42778,-8.71584,90.0945
2023-03-11 21:05:36:422,0,-7.42062,-8.71456,90.0951
2023-03-11 21:05:36:432,0,-7.41017,-8.7223,90.0967
2023-03-11 21:05:36:442,0,-7.4004,-8.73792,90.0999
2023-03-11 21:05:36:452,0,-7.39773,-8.74981,90.105
2023-03-11 21:05:36:461,0,-7.4004,-8.76269,90.1137
2023-03-11 21:05:36:472,0,-7.40673,-8.77266,90.1241
2023-03-11 21:05:36:482,0,-7.41258,-8.778,90.1347
2023-03-11 21:05:36:492,0,-7.4267,-8.7808,90.1471
2023-03-11 21:05:36:502,0,-7.43681,-8.78248,90.1635
2023-03-11 21:05:36:512,0,-7.44848,-8.78043,90.1786
2023-03-11 21:05:36:522,0,-7.45574,-8.78282,90.1953
2023-03-11 21:05:36:532,0,-7.46871,-8.78592,90.2077
2023-03-11 21:05:36:542,0,-7.47671,-8.78445,90.2127
2023-03-11 21:05:36:552,0,-7.48314,-8.78325,90.2155
2023-03-11 21:05:36:562,0,-7.49283,-8.78402,90.213
2023-03-11 21:05:36:572,0,-7.50226,-8.78075,90.2012
2023-03-11 21:05:36:582,0,-7.51804,-8.77611,90.1902
2023-03-11 21:05:36:592,0,-7.53617,-8.77613,90.1774
2023-03-11 21:05:36:602,0,-7.55978,-8.77756,90.1645
2023-03-11 21:05:36:612,0,-7.58863,-8.78186,90.149
2023-03-11 21:05:36:622,0,-7.61409,-8.77825,90.1381
2023-03-11 21:05:36:632,0,-7.63728,-8.77216,90.1281
2023-03-11 21:05:36:642,0,-7.6556,-8.76297,90.1132
2023-03-11 21:05:36:652,0,-7.67306,-8.75286,90.106
2023-03-11 21:05:36:662,0,-7.69232,-8.74736,90.0972
2023-03-11 21:05:36:672,0,-7.71169,-8.73765,90.0935
2023-03-11 21:05:36:682,0,-7.72465,-8.72166,90.0843
2023-03-11 21:05:36:692,0,-7.74299,-8.705,90.072
2023-03-11 21:05:36:702,0,-7.75787,-8.68842,90.0628
2023-03-11 21:05:36:712,0,-7.76946,-8.67124,90.0493
2023-03-11 21:05:36:722,0,-7.77933,-8.65309,90.0371
2023-03-11 21:05:36:732,0,-7.78651,-8.63439,90.0221
2023-03-11 21:05:36:742,0,-7.79248,-8.6186,90.0027
2023-03-11 21:05:36:752,0,-7.79772,-8.60312,89.9873
2023-03-11 21:05:36:762,0,-7.79454,-8.58801,89.9692
2023-03-11 21:05:36:772,0,-7.79266,-8.57544,89.9493
2023-03-11 21:05:36:782,0,-7.79034,-8.5615,89.9314
2023-03-11 21:05:36:792,0,-7.78917,-8.55188,89.9157
2023-03-11 21:05:36:802,0,-7.78932,-8.54254,89.9035
2023-03-11 21:05:36:812,0,-7.7887,-8.53426,89.8935
2023-03-11 21:05:36:822,0,-7.79138,-8.52718,89.8854
2023-03-11 21:05:36:832,0,-7.79475,-8.52361,89.8828
2023-03-11 21:05:36:842,0,-7.79594,-8.52365,89.8836
2023-03-11 21:05:36:852,0,-7.79205,-8.52188,89.8867
2023-03-11 21:05:36:862,0,-7.78626,-8.51939,89.8937
2023-03-11 21:05:36:872,0,-7.77593,-8.51896,89.9063
2023-03-11 21:05:36:882,0,-7.76579,-8.51936,89.9205
2023-03-11 21:05:36:892,0,-7.75166,-8.52119,89.938
2023-03-11 21:05:36:902,0,-7.73986,-8.5223,89.9539
2023-03-11 21:05:36:912,0,-7.73184,-8.51906,89.9673
2023-03-11 21:05:36:922,0,-7.73377,-8.52194,89.9851
2023-03-11 21:05:36:932,0,-7.73281,-8.52457,90.0026
2023-03-11 21:05:36:942,0,-7.73206,-8.52841,90.0123
2023-03-11 21:05:36:952,0,-7.72957,-8.53429,90.0174
2023-03-11 21:05:36:962,0,-7.72718,-8.54351,90.0177
2023-03-11 21:05:36:971,0,-7.72693,-8.55383,90.0162
2023-03-11 21:05:36:982,0,-7.71909,-8.56508,90.008
2023-03-11 21:05:36:992,0,-7.71709,-8.57582,90.0015
2023-03-11 21:05:37:2,0,-7.71312,-8.58421,89.9967
2023-03-11 21:05:37:12,0,-7.71639,-8.5896,89.9949
2023-03-11 21:05:37:22,0,-7.72256,-8.5935,89.9971
2023-03-11 21:05:37:32,0,-7.73017,-8.60821,89.9975
2023-03-11 21:05:37:42,0,-7.72653,-8.6174,89.9955
2023-03-11 21:05:37:52,0,-7.72581,-8.61309,89.9964
2023-03-11 21:05:37:62,0,-7.72839,-8.61101,89.9967
2023-03-11 21:05:37:72,0,-7.73694,-8.61326,89.9929
2023-03-11 21:05:37:82,0,-7.74551,-8.61037,89.992
2023-03-11 21:05:37:92,0,-7.75112,-8.6069,89.9935
2023-03-11 21:05:37:102,0,-7.75254,-8.60177,89.9863
2023-03-11 21:05:37:112,0,-7.75162,-8.59146,89.9779
2023-03-11 21:05:37:122,0,-7.7511,-8.58368,89.9673
2023-03-11 21:05:37:132,0,-7.75288,-8.57833,89.9538
2023-03-11 21:05:37:142,0,-7.75385,-8.58088,89.9474
2023-03-11 21:05:37:152,0,-7.76404,-8.589,89.9454
2023-03-11 21:05:37:162,0,-7.78286,-8.59555,89.9449
2023-03-11 21:05:37:172,0,-7.80155,-8.60035,89.9454
2023-03-11 21:05:37:182,0,-7.82553,-8.60407,89.9453
2023-03-11 21:05:37:192,0,-7.8454,-8.60717,89.9513
2023-03-11 21:05:37:202,0,-7.86108,-8.60713,89.9572
2023-03-11 21:05:37:212,0,-7.87507,-8.60348,89.9625
2023-03-11 21:05:37:222,0,-7.88405,-8.597,89.966
2023-03-11 21:05:37:232,0,-7.89209,-8.59136,89.9704
2023-03-11 21:05:37:242,0,-7.89784,-8.57779,89.9743
2023-03-11 21:05:37:252,0,-7.90452,-8.56723,89.9774
2023-03-11 21:05:37:262,0,-7.91151,-8.55662,89.9807
2023-03-11 21:05:37:272,0,-7.91929,-8.54524,89.9819
2023-03-11 21:05:37:282,0,-7.93115,-8.53342,89.9819
2023-03-11 21:05:37:292,0,-7.94456,-8.52592,89.9802
2023-03-11 21:05:37:302,0,-7.95919,-8.52267,89.974
2023-03-11 21:05:37:312,0,-7.97424,-8.51916,89.9668
2023-03-11 21:05:37:322,0,-7.98745,-8.51279,89.9563
2023-03-11 21:05:37:332,0,-8.00338,-8.50434,89.9451
2023-03-11 21:05:37:342,0,-8.01398,-8.49833,89.9307
2023-03-11 21:05:37:352,0,-8.01966,-8.4905,89.9175
2023-03-11 21:05:37:362,0,-8.02213,-8.48514,89.9063
2023-03-11 21:05:37:372,0,-8.02683,-8.4781,89.9007
2023-03-11 21:05:37:382,0,-8.02985,-8.47225,89.8968
2023-03-11 21:05:37:392,0,-8.03568,-8.46083,89.8891
2023-03-11 21:05:37:402,0,-8.04186,-8.4492,89.8854
2023-03-11 21:05:37:412,0,-8.05211,-8.43601,89.8768
2023-03-11 21:05:37:422,0,-8.06366,-8.42313,89.8667
2023-03-11 21:05:37:432,0,-8.07316,-8.41102,89.8616
2023-03-11 21:05:37:442,0,-8.08434,-8.40183,89.8548
2023-03-11 21:05:37:452,0,-8.09637,-8.39401,89.8497
2023-03-11 21:05:37:462,0,-8.10963,-8.38912,89.8407
2023-03-11 21:05:37:472,0,-8.12068,-8.38487,89.8303
2023-03-11 21:05:37:482,0,-8.13147,-8.38039,89.8183
