Timestamp_cmd,imu_cmd,roll_delta,pitch_delta,yaw_delta,voice_type,voice_length
2023-03-14 21:29:24:630,0,-11.5228,7.77459,17.4159,Q,Q
2023-03-14 21:29:24:638,0,-11.512,7.78275,17.3766,Q,Q
2023-03-14 21:29:24:648,0,-11.4958,7.78898,17.3408,Q,Q
2023-03-14 21:29:24:658,0,-11.4808,7.79445,17.3083,Q,Q
2023-03-14 21:29:24:668,0,-11.4638,7.80168,17.2806,Q,Q
2023-03-14 21:29:24:679,0,-11.4546,7.80899,17.2589,Q,Q
2023-03-14 21:29:24:689,0,-11.4426,7.81378,17.2406,Q,Q
2023-03-14 21:29:24:699,0,-11.4335,7.82328,17.2227,Q,Q
2023-03-14 21:29:24:708,0,-11.4263,7.83311,17.2033,Q,Q
2023-03-14 21:29:24:718,0,-11.417,7.83895,17.1897,Q,Q
2023-03-14 21:29:24:728,0,-11.405,7.84464,17.1781,Q,Q
2023-03-14 21:29:24:739,0,-11.3964,7.84951,17.1687,Q,Q
2023-03-14 21:29:24:749,0,-11.3891,7.85087,17.161,Q,Q
2023-03-14 21:29:24:759,0,-11.3788,7.84799,17.1578,Q,Q
2023-03-14 21:29:24:769,0,-11.3749,7.84865,17.1559,Q,Q
2023-03-14 21:29:24:779,0,-11.3699,7.84888,17.1519,Q,Q
2023-03-14 21:29:24:788,0,-11.3643,7.84809,17.1441,Q,Q
2023-03-14 21:29:24:798,0,-11.3607,7.84803,17.1338,Q,Q
2023-03-14 21:29:24:808,0,-11.3558,7.84386,17.126,Q,Q
2023-03-14 21:29:24:819,0,-11.3515,7.8425,17.1164,Q,Q
2023-03-14 21:29:24:828,0,-11.3448,7.83755,17.1086,Q,Q
2023-03-14 21:29:24:839,0,-11.3389,7.83038,17.0995,Q,Q
2023-03-14 21:29:24:849,0,-11.3334,7.82065,17.0924,Q,Q
2023-03-14 21:29:24:858,0,-11.3232,7.81064,17.0901,Q,Q
2023-03-14 21:29:24:869,0,-11.3137,7.80123,17.0881,Q,Q
2023-03-14 21:29:24:879,0,-11.3033,7.79516,17.0854,Q,Q
2023-03-14 21:29:24:889,0,-11.2864,7.79104,17.0834,Q,Q
2023-03-14 21:29:24:899,0,-11.2709,7.78297,17.0848,Q,Q
2023-03-14 21:29:24:909,0,-11.2576,7.77375,17.0846,Q,Q
2023-03-14 21:29:24:919,0,-11.2468,7.76618,17.0892,Q,Q
2023-03-14 21:29:24:929,0,-11.2348,7.75741,17.0979,Q,Q
2023-03-14 21:29:24:939,0,-11.2202,7.74492,17.1067,Q,Q
2023-03-14 21:29:24:948,0,-11.2092,7.73197,17.1143,Q,Q
2023-03-14 21:29:24:958,0,-11.1995,7.72342,17.1233,Q,Q
2023-03-14 21:29:24:968,0,-11.1893,7.7189,17.1306,Q,Q
2023-03-14 21:29:24:978,0,-11.1767,7.71742,17.1363,Q,Q
2023-03-14 21:29:24:988,0,-11.1622,7.72366,17.1374,Q,Q
2023-03-14 21:29:24:998,0,-11.146,7.72614,17.1381,Q,Q
2023-03-14 21:29:25:8,0,-11.1342,7.73179,17.138,Q,Q
2023-03-14 21:29:25:18,0,-11.1227,7.73494,17.1356,Q,Q
2023-03-14 21:29:25:28,0,-11.118,7.73429,17.1342,Q,Q
2023-03-14 21:29:25:38,0,-11.1199,7.73175,17.1296,Q,Q
2023-03-14 21:29:25:48,0,-11.1201,7.7333,17.1275,Q,Q
2023-03-14 21:29:25:58,0,-11.1205,7.73149,17.1252,Q,Q
2023-03-14 21:29:25:68,0,-11.1216,7.73006,17.1243,Q,Q
2023-03-14 21:29:25:78,0,-11.1201,7.72708,17.1297,Q,Q
2023-03-14 21:29:25:88,0,-11.1157,7.72395,17.1439,Q,Q
2023-03-14 21:29:25:98,0,-11.1147,7.71753,17.1574,Q,Q
2023-03-14 21:29:25:108,0,-11.1111,7.70879,17.1752,Q,Q
2023-03-14 21:29:25:118,0,-11.1074,7.69844,17.1992,Q,Q
2023-03-14 21:29:25:128,0,-11.1054,7.68359,17.2255,Q,Q
2023-03-14 21:29:25:138,0,-11.1049,7.66503,17.2637,Q,Q
2023-03-14 21:29:25:148,0,-11.1052,7.64737,17.3013,Q,Q
2023-03-14 21:29:25:158,0,-11.1015,7.62508,17.3517,Q,Q
2023-03-14 21:29:25:168,0,-11.0964,7.59488,17.4069,Q,Q
2023-03-14 21:29:25:178,0,-11.0929,7.56638,17.4684,Q,Q
2023-03-14 21:29:25:188,0,-11.0864,7.53904,17.5337,Q,Q
2023-03-14 21:29:25:198,0,-11.0758,7.5151,17.6023,Q,Q
2023-03-14 21:29:25:208,0,-11.0623,7.49289,17.6741,Q,Q
2023-03-14 21:29:25:218,0,-11.0484,7.47572,17.7395,Q,Q
2023-03-14 21:29:25:228,0,-11.0319,7.46599,17.8099,Q,Q
2023-03-14 21:29:25:239,0,-11.0111,7.46045,17.8751,Q,Q
2023-03-14 21:29:25:248,0,-10.9868,7.45954,17.9439,Q,Q
2023-03-14 21:29:25:258,0,-10.964,7.45987,18.0105,Q,Q
2023-03-14 21:29:25:268,0,-10.9419,7.46155,18.0747,Q,Q
2023-03-14 21:29:25:278,0,-10.9162,7.46406,18.1315,Q,Q
2023-03-14 21:29:25:288,0,-10.8868,7.46659,18.1869,Q,Q
2023-03-14 21:29:25:298,0,-10.8583,7.46888,18.243,Q,Q
2023-03-14 21:29:25:308,0,-10.821,7.4674,18.2976,Q,Q
2023-03-14 21:29:25:318,0,-10.7856,7.46678,18.3499,Q,Q
2023-03-14 21:29:25:328,0,-10.7546,7.46027,18.4017,Q,Q
2023-03-14 21:29:25:338,0,-10.7277,7.45264,18.451,Q,Q
2023-03-14 21:29:25:348,0,-10.7029,7.44235,18.4905,Q,Q
2023-03-14 21:29:25:358,0,-10.6824,7.43212,18.5254,Q,Q
2023-03-14 21:29:25:368,0,-10.6632,7.42162,18.5559,Q,Q
2023-03-14 21:29:25:378,0,-10.6478,7.41272,18.5785,Q,Q
2023-03-14 21:29:25:388,0,-10.635,7.40541,18.5953,Q,Q
2023-03-14 21:29:25:399,0,-10.6256,7.3935,18.6087,Q,Q
2023-03-14 21:29:25:408,0,-10.6157,7.38902,18.6155,Q,Q
2023-03-14 21:29:25:419,0,-10.6009,7.3938,18.6158,Q,Q
2023-03-14 21:29:25:429,0,-10.5833,7.39206,18.6153,Q,Q
2023-03-14 21:29:25:439,0,-10.5699,7.38724,18.6079,Q,Q
2023-03-14 21:29:25:449,0,-10.5519,7.39073,18.5989,Q,Q
2023-03-14 21:29:25:459,0,-10.5345,7.39145,18.5846,Q,Q
2023-03-14 21:29:25:469,0,-10.5178,7.39531,18.566,Q,Q
2023-03-14 21:29:25:479,0,-10.5058,7.39959,18.5456,Q,Q
2023-03-14 21:29:25:488,0,-10.4915,7.40392,18.5182,Q,Q
2023-03-14 21:29:25:499,0,-10.4754,7.41042,18.4921,Q,Q
2023-03-14 21:29:25:509,0,-10.4613,7.41557,18.4606,Q,Q
2023-03-14 21:29:25:519,0,-10.4472,7.42427,18.4301,Q,Q
2023-03-14 21:29:25:529,0,-10.4305,7.42836,18.4041,Q,Q
2023-03-14 21:29:25:539,0,-10.4153,7.43003,18.3854,Q,Q
2023-03-14 21:29:25:549,0,-10.4055,7.43123,18.3684,Q,Q
2023-03-14 21:29:25:559,0,-10.3915,7.43869,18.3504,Q,Q
2023-03-14 21:29:25:569,0,-10.3746,7.44566,18.3372,Q,Q
2023-03-14 21:29:25:579,0,-10.3564,7.4501,18.3327,Q,Q
2023-03-14 21:29:25:589,0,-10.3355,7.46033,18.332,Q,Q
2023-03-14 21:29:25:599,0,-10.32,7.47381,18.3295,Q,Q
2023-03-14 21:29:25:609,0,-10.2985,7.48826,18.3324,Q,Q
2023-03-14 21:29:25:619,0,-10.2864,7.49292,18.3372,Q,Q
2023-03-14 21:29:25:629,0,-10.2739,7.49408,18.3434,Q,Q
2023-03-14 21:29:25:639,0,-10.2598,7.4991,18.3512,Q,Q
2023-03-14 21:29:25:649,0,-10.2424,7.49776,18.3537,Q,Q
2023-03-14 21:29:25:659,0,-10.2276,7.49508,18.3505,Q,Q
2023-03-14 21:29:25:669,0,-10.2092,7.4926,18.3414,Q,Q
2023-03-14 21:29:25:679,0,-10.1902,7.49039,18.3282,Q,Q
2023-03-14 21:29:25:689,0,-10.1662,7.47935,18.308,Q,Q
2023-03-14 21:29:25:699,0,-10.1437,7.46476,18.2904,Q,Q
2023-03-14 21:29:25:709,0,-10.1228,7.43879,18.2618,Q,Q
2023-03-14 21:29:25:719,0,-10.1033,7.41146,18.2318,Q,Q
2023-03-14 21:29:25:729,0,-10.084,7.38141,18.1971,Q,Q
2023-03-14 21:29:25:739,0,-10.0724,7.35261,18.162,Q,Q
2023-03-14 21:29:25:749,0,-10.0622,7.32845,18.127,Q,Q
2023-03-14 21:29:25:759,0,-10.0539,7.31019,18.0882,Q,Q
2023-03-14 21:29:25:769,0,-10.0472,7.29159,18.0552,Q,Q
2023-03-14 21:29:25:779,0,-10.0466,7.27573,18.023,Q,Q
2023-03-14 21:29:25:789,0,-10.0469,7.2653,17.9947,Q,Q
2023-03-14 21:29:25:799,0,-10.0437,7.25844,17.972,Q,Q
2023-03-14 21:29:25:808,0,-10.0465,7.25121,17.9524,Q,Q
2023-03-14 21:29:25:819,0,-10.0513,7.24997,17.9365,Q,Q
2023-03-14 21:29:25:828,0,-10.0552,7.24805,17.9213,Q,Q
2023-03-14 21:29:25:839,0,-10.0579,7.24577,17.9144,Q,Q
2023-03-14 21:29:25:849,0,-10.0634,7.2426,17.9059,Q,Q
2023-03-14 21:29:25:858,0,-10.0698,7.2407,17.9028,Q,Q
2023-03-14 21:29:25:868,0,-10.0796,7.23748,17.9032,Q,Q
2023-03-14 21:29:25:879,0,-10.0908,7.23932,17.903,Q,Q
2023-03-14 21:29:25:889,0,-10.1016,7.24441,17.907,Q,Q
2023-03-14 21:29:25:899,0,-10.1097,7.25247,17.9153,Q,Q
2023-03-14 21:29:25:909,0,-10.1161,7.27032,17.9252,Q,Q
2023-03-14 21:29:25:919,0,-10.1182,7.2943,17.9368,Q,Q
2023-03-14 21:29:25:928,0,-10.1171,7.32262,17.9476,Q,Q
2023-03-14 21:29:25:939,0,-10.1161,7.3512,17.9623,Q,Q
2023-03-14 21:29:25:949,0,-10.1159,7.38329,17.9793,Q,Q
2023-03-14 21:29:25:958,0,-10.1141,7.414,17.9971,Q,Q
2023-03-14 21:29:25:969,0,-10.1154,7.44626,18.0167,Q,Q
2023-03-14 21:29:25:979,0,-10.1069,7.48586,18.0328,Q,Q
2023-03-14 21:29:25:989,0,-10.0949,7.52329,18.0475,Q,Q
2023-03-14 21:29:25:999,0,-10.0751,7.55802,18.0578,Q,Q
2023-03-14 21:29:26:9,0,-10.0591,7.5906,18.0672,Q,Q
2023-03-14 21:29:26:19,0,-10.0469,7.61777,18.0702,Q,Q
2023-03-14 21:29:26:29,0,-10.033,7.63546,18.0709,Q,Q
2023-03-14 21:29:26:39,0,-10.0176,7.64499,18.0678,Q,Q
2023-03-14 21:29:26:49,0,-10.0023,7.65695,18.06,Q,Q
2023-03-14 21:29:26:59,0,-9.98333,7.66185,18.0491,Q,Q
2023-03-14 21:29:26:69,0,-9.96365,7.66889,18.04,Q,Q
2023-03-14 21:29:26:79,0,-9.9419,7.6751,18.0318,Q,Q
2023-03-14 21:29:26:89,0,-9.91704,7.6825,18.0238,Q,Q
2023-03-14 21:29:26:99,0,-9.89283,7.68961,18.0226,Q,Q
2023-03-14 21:29:26:109,0,-9.87213,7.6899,18.0308,Q,Q
2023-03-14 21:29:26:119,0,-9.85633,7.68954,18.0353,Q,Q
2023-03-14 21:29:26:129,0,-9.83752,7.68598,18.0303,Q,Q
2023-03-14 21:29:26:139,0,-9.81418,7.6778,18.0249,Q,Q
2023-03-14 21:29:26:149,0,-9.79445,7.66737,18.0122,Q,Q
2023-03-14 21:29:26:159,0,-9.77281,7.65328,17.9984,Q,Q
2023-03-14 21:29:26:169,0,-9.75648,7.63268,17.9878,Q,Q
2023-03-14 21:29:26:179,0,-9.7346,7.60862,17.9798,Q,Q
2023-03-14 21:29:26:189,0,-9.71503,7.58187,17.9746,Q,Q
2023-03-14 21:29:26:199,0,-9.69667,7.55978,17.9731,Q,Q
2023-03-14 21:29:26:209,0,-9.67982,7.53686,17.9762,Q,Q
2023-03-14 21:29:26:219,0,-9.66392,7.51339,17.9832,Q,Q
2023-03-14 21:29:26:229,0,-9.65513,7.49099,17.9931,Q,Q
2023-03-14 21:29:26:239,0,-9.64509,7.47147,18.0102,Q,Q
2023-03-14 21:29:26:249,0,-9.63832,7.45648,18.0266,Q,Q
2023-03-14 21:29:26:259,0,-9.63545,7.45139,18.0457,Q,Q
2023-03-14 21:29:26:269,0,-9.63197,7.45077,18.0664,Q,Q
2023-03-14 21:29:26:279,0,-9.62251,7.4569,18.0892,Q,Q
2023-03-14 21:29:26:288,0,-9.61427,7.46949,18.1175,Q,Q
2023-03-14 21:29:26:298,0,-9.60495,7.489,18.1531,Q,Q
2023-03-14 21:29:26:308,0,-9.59865,7.51237,18.1856,Q,Q
2023-03-14 21:29:26:318,0,-9.59533,7.53692,18.2126,Q,Q
2023-03-14 21:29:26:328,0,-9.58928,7.56289,18.2429,Q,Q
2023-03-14 21:29:26:338,0,-9.58082,7.59343,18.2632,Q,Q
2023-03-14 21:29:26:348,0,-9.56351,7.61782,18.2773,Q,Q
2023-03-14 21:29:26:359,0,-9.54385,7.63846,18.2833,Q,Q
2023-03-14 21:29:26:368,0,-9.52224,7.65206,18.2868,Q,Q
2023-03-14 21:29:26:378,0,-9.50057,7.65632,18.2823,Q,Q
2023-03-14 21:29:26:388,0,-9.47863,7.65352,18.2706,Q,Q
2023-03-14 21:29:26:399,0,-9.46419,7.64486,18.2533,Q,Q
2023-03-14 21:29:26:409,0,-9.45091,7.6342,18.2344,Q,Q
2023-03-14 21:29:26:419,0,-9.44198,7.62898,18.2114,Q,Q
2023-03-14 21:29:26:429,0,-9.43675,7.62225,18.1877,Q,Q
2023-03-14 21:29:26:439,0,-9.44195,7.62058,18.16,Q,Q
2023-03-14 21:29:26:449,0,-9.44902,7.62059,18.1278,Q,Q
2023-03-14 21:29:26:459,0,-9.45648,7.62677,18.0967,Q,Q
2023-03-14 21:29:26:469,0,-9.46636,7.63017,18.0628,Q,Q
2023-03-14 21:29:26:479,0,-9.4751,7.63267,18.0261,Q,Q
2023-03-14 21:29:26:489,0,-9.48922,7.63224,17.9928,Q,Q
2023-03-14 21:29:26:499,0,-9.50953,7.63078,17.9549,Q,Q
2023-03-14 21:29:26:509,0,-9.53609,7.61879,17.911,Q,Q
2023-03-14 21:29:26:519,0,-9.57432,7.59628,17.8673,Q,Q
2023-03-14 21:29:26:529,0,-9.6169,7.56039,17.8225,Q,Q
2023-03-14 21:29:26:539,0,-9.66446,7.51915,17.7722,Q,Q
2023-03-14 21:29:26:549,0,-9.71069,7.47357,17.7143,Q,Q
2023-03-14 21:29:26:559,0,-9.75526,7.43418,17.6493,Q,Q
2023-03-14 21:29:26:569,0,-9.7886,7.40463,17.5719,Q,Q
2023-03-14 21:29:26:579,0,-9.81852,7.39317,17.4817,Q,Q
2023-03-14 21:29:26:589,0,-9.84322,7.4051,17.3707,Q,Q
2023-03-14 21:29:26:599,0,-9.84981,7.4472,17.2415,Q,Q
2023-03-14 21:29:26:609,0,-9.83198,7.51204,17.1,Q,Q
2023-03-14 21:29:26:619,0,-9.80102,7.59201,16.95,Q,Q
2023-03-14 21:29:26:629,0,-9.75562,7.68959,16.7963,Q,Q
2023-03-14 21:29:26:639,0,-9.70309,7.79086,16.6408,Q,Q
2023-03-14 21:29:26:649,0,-9.63773,7.88468,16.4936,Q,Q
2023-03-14 21:29:26:659,0,-9.57163,7.95675,16.3632,Q,Q
2023-03-14 21:29:26:669,0,-9.50839,8.00375,16.2493,Q,Q
2023-03-14 21:29:26:679,0,-9.44939,8.01977,16.1503,Q,Q
2023-03-14 21:29:26:689,0,-9.40393,7.99871,16.0681,Q,Q
2023-03-14 21:29:26:699,0,-9.37402,7.94689,15.9901,Q,Q
2023-03-14 21:29:26:709,0,-9.3554,7.86188,15.9199,Q,Q
2023-03-14 21:29:26:719,0,-9.35365,7.76401,15.8559,Q,Q
2023-03-14 21:29:26:729,0,-9.35703,7.65899,15.7953,Q,Q
2023-03-14 21:29:26:739,0,-9.33944,7.53013,15.7467,Q,Q
2023-03-14 21:29:26:749,0,-9.2987,7.37939,15.7138,Q,Q
2023-03-14 21:29:26:759,0,-9.25194,7.21326,15.6801,Q,Q
2023-03-14 21:29:26:769,0,-9.21228,7.03485,15.6353,Q,Q
2023-03-14 21:29:26:779,0,-9.18408,6.84225,15.5699,Q,Q
2023-03-14 21:29:26:789,0,-9.17074,6.63325,15.484,Q,Q
2023-03-14 21:29:26:799,0,-9.18373,6.42342,15.3622,Q,Q
2023-03-14 21:29:26:809,0,-9.22457,6.22815,15.1946,Q,Q
2023-03-14 21:29:26:819,0,-9.26793,6.05607,14.9819,Q,Q
2023-03-14 21:29:26:829,0,-9.28614,5.88846,14.7474,Q,Q
2023-03-14 21:29:26:839,0,-9.27889,5.70353,14.5045,Q,Q
2023-03-14 21:29:26:848,0,-9.25584,5.49991,14.2535,Q,Q
2023-03-14 21:29:26:859,0,-9.23759,5.28,13.9709,Q,Q
2023-03-14 21:29:26:869,0,-9.24351,5.05363,13.625,Q,Q
2023-03-14 21:29:26:879,0,-9.26803,4.83261,13.1713,Q,Q
2023-03-14 21:29:26:889,0,-9.31911,4.64124,12.572,Q,Q
2023-03-14 21:29:26:898,0,-9.39451,4.50084,11.8252,Q,Q
2023-03-14 21:29:26:908,0,-9.44296,4.3816,10.9508,Q,Q
2023-03-14 21:29:26:919,0,-9.43061,4.25276,10.0087,Q,Q
2023-03-14 21:29:26:929,0,-9.36642,4.10169,9.01471,Q,Q
2023-03-14 21:29:26:939,0,-9.27135,3.93215,7.95659,Q,Q
2023-03-14 21:29:26:949,0,-9.17912,3.76014,6.82357,Q,Q
2023-03-14 21:29:26:959,0,-9.09256,3.59091,5.61472,Q,Q
2023-03-14 21:29:26:969,0,-9.00733,3.43972,4.33883,Q,Q
2023-03-14 21:29:26:979,0,-8.92433,3.31404,3.00999,Q,Q
2023-03-14 21:29:26:989,0,-8.81514,3.22812,1.64921,Q,Q
2023-03-14 21:29:26:999,0,-8.66307,3.16411,0.299405,Q,Q
2023-03-14 21:29:27:9,0,-8.46742,3.1058,-1.01098,Q,Q
2023-03-14 21:29:27:19,0,-8.24064,3.04809,-2.26702,Q,Q
2023-03-14 21:29:27:29,0,-8.00978,2.9965,-3.48116,Q,Q
2023-03-14 21:29:27:39,0,-7.80043,2.95169,-4.65826,Q,Q
2023-03-14 21:29:27:48,0,-7.62617,2.91592,-5.79262,Q,Q
2023-03-14 21:29:27:59,0,-7.49822,2.88628,-6.86852,Q,Q
2023-03-14 21:29:27:68,0,-7.39761,2.86422,-7.89258,Q,Q
2023-03-14 21:29:27:79,0,-7.3046,2.84066,-8.85535,Q,Q
2023-03-14 21:29:27:89,0,-7.20587,2.80718,-9.75538,Q,Q
2023-03-14 21:29:27:99,0,-7.09929,2.7747,-10.5916,Q,Q
2023-03-14 21:29:27:109,0,-6.99341,2.73299,-11.3652,Q,Q
2023-03-14 21:29:27:119,0,-6.9039,2.68944,-12.0812,Q,Q
2023-03-14 21:29:27:129,0,-6.83998,2.63261,-12.7381,Q,Q
2023-03-14 21:29:27:139,0,-6.79852,2.56299,-13.341,Q,Q
2023-03-14 21:29:27:149,0,-6.78794,2.48457,-13.8949,Q,Q
2023-03-14 21:29:27:159,0,-6.78512,2.41249,-14.4192,Q,Q
2023-03-14 21:29:27:168,0,-6.77884,2.35368,-14.9126,Q,Q
2023-03-14 21:29:27:179,0,-6.75304,2.30963,-15.376,Q,Q
2023-03-14 21:29:27:188,0,-6.71155,2.27619,-15.8078,Q,Q
2023-03-14 21:29:27:199,0,-6.64698,2.24665,-16.2091,Q,Q
2023-03-14 21:29:27:208,0,-6.57425,2.2148,-16.585,Q,Q
2023-03-14 21:29:27:219,0,-6.50614,2.17425,-16.9399,Q,Q
2023-03-14 21:29:27:229,0,-6.45298,2.12383,-17.2872,Q,Q
2023-03-14 21:29:27:239,0,-6.4152,2.06982,-17.6309,Q,Q
2023-03-14 21:29:27:248,0,-6.38398,2.01981,-17.9739,Q,Q
2023-03-14 21:29:27:259,0,-6.35397,1.97941,-18.3171,Q,Q
2023-03-14 21:29:27:269,0,-6.31532,1.96329,-18.6554,Q,Q
2023-03-14 21:29:27:279,0,-6.26765,1.96868,-18.9852,Q,Q
2023-03-14 21:29:27:289,0,-6.21349,1.9917,-19.3034,Q,Q
2023-03-14 21:29:27:299,0,-6.14733,2.02522,-19.5996,Q,Q
2023-03-14 21:29:27:309,0,-6.07878,2.06705,-19.8696,Q,Q
2023-03-14 21:29:27:319,0,-6.01251,2.10942,-20.1108,Q,Q
2023-03-14 21:29:27:329,0,-5.95257,2.14473,-20.3198,Q,Q
2023-03-14 21:29:27:339,0,-5.90184,2.16988,-20.4997,Q,Q
2023-03-14 21:29:27:349,0,-5.86041,2.19529,-20.6666,Q,Q
2023-03-14 21:29:27:358,0,-5.83048,2.2317,-20.8316,Q,Q
2023-03-14 21:29:27:368,0,-5.80126,2.28577,-20.9885,Q,Q
2023-03-14 21:29:27:378,0,-5.76815,2.36515,-21.1378,Q,Q
2023-03-14 21:29:27:389,0,-5.728,2.46693,-21.2772,Q,Q
2023-03-14 21:29:27:399,0,-5.67421,2.58065,-21.4017,Q,Q
2023-03-14 21:29:27:409,0,-5.62281,2.69097,-21.5038,Q,Q
2023-03-14 21:29:27:419,0,-5.57693,2.79916,-21.5886,Q,Q
2023-03-14 21:29:27:429,0,-5.5306,2.90494,-21.6601,Q,Q
2023-03-14 21:29:27:439,0,-5.48218,3.011,-21.726,Q,Q
2023-03-14 21:29:27:449,0,-5.43118,3.11767,-21.7825,Q,Q
2023-03-14 21:29:27:459,0,-5.37624,3.22652,-21.84,Q,Q
2023-03-14 21:29:27:469,0,-5.3167,3.3335,-21.8938,Q,Q
2023-03-14 21:29:27:479,0,-5.25341,3.43651,-21.9324,Q,Q
2023-03-14 21:29:27:489,0,-5.18917,3.52981,-21.9675,Q,Q
2023-03-14 21:29:27:499,0,-5.12362,3.62652,-21.9958,Q,Q
2023-03-14 21:29:27:509,0,-5.06115,3.73321,-22.0238,Q,Q
2023-03-14 21:29:27:519,0,-5.00139,3.85377,-22.0554,Q,Q
2023-03-14 21:29:27:529,0,-4.94899,3.98673,-22.0777,Q,Q
2023-03-14 21:29:27:539,0,-4.90226,4.13575,-22.099,Q,Q
2023-03-14 21:29:27:549,0,-4.85845,4.30631,-22.1179,Q,Q
2023-03-14 21:29:27:559,0,-4.81694,4.49356,-22.1355,Q,Q
2023-03-14 21:29:27:569,0,-4.77246,4.69125,-22.1483,Q,Q
2023-03-14 21:29:27:579,0,-4.72442,4.88861,-22.152,Q,Q
2023-03-14 21:29:27:589,0,-4.67426,5.08249,-22.1557,Q,Q
2023-03-14 21:29:27:599,0,-4.62419,5.26634,-22.155,Q,Q
2023-03-14 21:29:27:609,0,-4.57249,5.43697,-22.1525,Q,Q
2023-03-14 21:29:27:619,0,-4.51459,5.58488,-22.146,Q,Q
2023-03-14 21:29:27:629,0,-4.45007,5.70579,-22.1272,Q,Q
2023-03-14 21:29:27:639,0,-4.37516,5.79853,-22.0978,Q,Q
2023-03-14 21:29:27:649,0,-4.29366,5.87233,-22.0597,Q,Q
2023-03-14 21:29:27:659,0,-4.20644,5.93162,-22.0167,Q,Q
2023-03-14 21:29:27:669,0,-4.11103,5.97482,-21.9645,Q,Q
2023-03-14 21:29:27:679,0,-4.00872,6.00395,-21.9047,Q,Q
2023-03-14 21:29:27:688,0,-3.90216,6.02092,-21.8386,Q,Q
2023-03-14 21:29:27:699,0,-3.78851,6.02283,-21.7607,Q,Q
2023-03-14 21:29:27:709,0,-3.66465,6.01155,-21.6721,Q,Q
2023-03-14 21:29:27:719,0,-3.5263,5.99192,-21.5742,Q,Q
2023-03-14 21:29:27:728,0,-3.37175,5.97306,-21.4671,Q,Q
2023-03-14 21:29:27:739,0,-3.20232,5.95738,-21.3548,Q,Q
2023-03-14 21:29:27:748,0,-3.02466,5.94763,-21.2393,Q,Q
2023-03-14 21:29:27:758,0,-2.84022,5.94436,-21.1184,Q,Q
2023-03-14 21:29:27:769,0,-2.65204,5.94356,-20.9965,Q,Q
2023-03-14 21:29:27:779,0,-2.466,5.94588,-20.8665,Q,Q
2023-03-14 21:29:27:789,0,-2.28074,5.95215,-20.7408,Q,Q
2023-03-14 21:29:27:799,0,-2.10403,5.96319,-20.6184,Q,Q
2023-03-14 21:29:27:809,0,-1.92827,5.98834,-20.501,Q,Q
2023-03-14 21:29:27:819,0,-1.75717,6.02326,-20.3918,Q,Q
2023-03-14 21:29:27:829,0,-1.59146,6.07253,-20.2876,Q,Q
2023-03-14 21:29:27:839,0,-1.43205,6.13609,-20.193,Q,Q
2023-03-14 21:29:27:849,0,-1.27905,6.20513,-20.1082,Q,Q
2023-03-14 21:29:27:859,0,-1.13801,6.28348,-20.0353,Q,Q
2023-03-14 21:29:27:868,0,-1.01488,6.36268,-19.9687,Q,Q
2023-03-14 21:29:27:879,0,-0.910229,6.44124,-19.9096,Q,Q
2023-03-14 21:29:27:888,0,-0.827478,6.51034,-19.8517,Q,Q
2023-03-14 21:29:27:899,0,-0.765586,6.57122,-19.7927,Q,Q
2023-03-14 21:29:27:909,0,-0.723166,6.62131,-19.7268,Q,Q
2023-03-14 21:29:27:919,0,-0.698242,6.66646,-19.6559,Q,Q
2023-03-14 21:29:27:928,0,-0.686087,6.70539,-19.5847,Q,Q
2023-03-14 21:29:27:939,0,-0.685462,6.74226,-19.5078,Q,Q
2023-03-14 21:29:27:949,0,-0.692961,6.77473,-19.4305,Q,Q
2023-03-14 21:29:27:959,0,-0.707118,6.80433,-19.352,Q,Q
2023-03-14 21:29:27:969,0,-0.73059,6.83806,-19.2778,Q,Q
2023-03-14 21:29:27:979,0,-0.759341,6.87288,-19.2101,Q,Q
2023-03-14 21:29:27:989,0,-0.79344,6.91192,-19.1456,Q,Q
2023-03-14 21:29:27:999,0,-0.83665,6.94815,-19.0917,Q,Q
2023-03-14 21:29:28:9,0,-0.881868,6.98452,-19.0415,Q,Q
2023-03-14 21:29:28:19,0,-0.933016,7.01516,-18.993,Q,Q
2023-03-14 21:29:28:29,0,-0.989198,7.03633,-18.9475,Q,Q
2023-03-14 21:29:28:39,0,-1.04122,7.05209,-18.9036,Q,Q
2023-03-14 21:29:28:49,0,-1.09379,7.05646,-18.8577,Q,Q
2023-03-14 21:29:28:59,0,-1.14877,7.05697,-18.8137,Q,Q
2023-03-14 21:29:28:69,0,-1.19969,7.05057,-18.7755,Q,Q
2023-03-14 21:29:28:79,0,-1.23927,7.04483,-18.7321,Q,Q
2023-03-14 21:29:28:89,0,-1.27493,7.03925,-18.6897,Q,Q
2023-03-14 21:29:28:99,0,-1.29968,7.03353,-18.6458,Q,Q
2023-03-14 21:29:28:109,0,-1.31638,7.02885,-18.6033,Q,Q
2023-03-14 21:29:28:119,0,-1.32648,7.0195,-18.561,Q,Q
2023-03-14 21:29:28:129,0,-1.33304,7.01922,-18.5235,Q,Q
2023-03-14 21:29:28:139,0,-1.33792,7.0151,-18.485,Q,Q
2023-03-14 21:29:28:149,0,-1.33497,7.01847,-18.4488,Q,Q
2023-03-14 21:29:28:159,0,-1.33021,7.02039,-18.4178,Q,Q
2023-03-14 21:29:28:169,0,-1.32523,7.02353,-18.3936,Q,Q
2023-03-14 21:29:28:179,0,-1.32322,7.03027,-18.3779,Q,Q
2023-03-14 21:29:28:189,0,-1.31731,7.0369,-18.3686,Q,Q
2023-03-14 21:29:28:199,0,-1.31096,7.05156,-18.3673,Q,Q
2023-03-14 21:29:28:209,0,-1.30097,7.06398,-18.3711,Q,Q
2023-03-14 21:29:28:219,0,-1.28601,7.07608,-18.3783,Q,Q
2023-03-14 21:29:28:229,0,-1.26823,7.09084,-18.3876,Q,Q
2023-03-14 21:29:28:239,0,-1.24916,7.107,-18.4113,Q,Q
2023-03-14 21:29:28:249,0,-1.22877,7.13445,-18.4492,Q,Q
2023-03-14 21:29:28:259,0,-1.207,7.16612,-18.4934,Q,Q
2023-03-14 21:29:28:269,0,-1.18407,7.20334,-18.5417,Q,Q
2023-03-14 21:29:28:279,0,-1.16274,7.23118,-18.5896,Q,Q
2023-03-14 21:29:28:289,0,-1.14991,7.25377,-18.6385,Q,Q
2023-03-14 21:29:28:299,0,-1.14083,7.26763,-18.687,Q,Q
2023-03-14 21:29:28:309,0,-1.13972,7.28274,-18.7309,Q,Q
2023-03-14 21:29:28:319,0,-1.13864,7.30115,-18.7716,Q,Q
2023-03-14 21:29:28:329,0,-1.14178,7.31737,-18.8079,Q,Q
2023-03-14 21:29:28:339,0,-1.14583,7.32138,-18.8299,Q,Q
2023-03-14 21:29:28:349,0,-1.15088,7.32585,-18.8447,Q,Q
2023-03-14 21:29:28:359,0,-1.15988,7.32067,-18.8489,Q,Q
2023-03-14 21:29:28:369,0,-1.16822,7.31088,-18.8409,Q,Q
2023-03-14 21:29:28:379,0,-1.17651,7.29809,-18.8213,Q,Q
2023-03-14 21:29:28:388,0,-1.18291,7.27842,-18.7896,Q,Q
2023-03-14 21:29:28:399,0,-1.18698,7.24962,-18.7541,Q,Q
2023-03-14 21:29:28:408,0,-1.19096,7.22796,-18.7133,Q,Q
2023-03-14 21:29:28:419,0,-1.1913,7.20064,-18.6642,Q,Q
2023-03-14 21:29:28:429,0,-1.19316,7.17472,-18.6133,Q,Q
2023-03-14 21:29:28:439,0,-1.19803,7.14728,-18.5623,Q,Q
2023-03-14 21:29:28:449,0,-1.20583,7.12351,-18.5094,Q,Q
2023-03-14 21:29:28:459,0,-1.22225,7.09131,-18.4568,Q,Q
2023-03-14 21:29:28:469,0,-1.24263,7.05141,-18.408,Q,Q
2023-03-14 21:29:28:479,0,-1.26517,7.01584,-18.3612,Q,Q
2023-03-14 21:29:28:489,0,-1.28541,6.9815,-18.323,Q,Q
2023-03-14 21:29:28:499,0,-1.30111,6.95423,-18.2867,Q,Q
2023-03-14 21:29:28:509,0,-1.31504,6.93626,-18.2617,Q,Q
2023-03-14 21:29:28:519,0,-1.32868,6.9266,-18.2442,Q,Q
2023-03-14 21:29:28:529,0,-1.33826,6.91803,-18.238,Q,Q
2023-03-14 21:29:28:539,0,-1.34535,6.91387,-18.2389,Q,Q
2023-03-14 21:29:28:549,0,-1.36217,6.91048,-18.2495,Q,Q
2023-03-14 21:29:28:559,0,-1.3748,6.91292,-18.2687,Q,Q
2023-03-14 21:29:28:569,0,-1.39276,6.91651,-18.2946,Q,Q
2023-03-14 21:29:28:579,0,-1.41223,6.91873,-18.3309,Q,Q
2023-03-14 21:29:28:589,0,-1.43257,6.92926,-18.3712,Q,Q
2023-03-14 21:29:28:599,0,-1.44973,6.94476,-18.4166,Q,Q
2023-03-14 21:29:28:609,0,-1.46525,6.95974,-18.4614,Q,Q
2023-03-14 21:29:28:619,0,-1.47928,6.979,-18.5055,Q,Q
2023-03-14 21:29:28:629,0,-1.49867,6.99714,-18.5483,Q,Q
2023-03-14 21:29:28:639,0,-1.5198,7.02188,-18.5901,Q,Q
2023-03-14 21:29:28:649,0,-1.54046,7.04888,-18.632,Q,Q
2023-03-14 21:29:28:659,0,-1.56482,7.07126,-18.668,Q,Q
2023-03-14 21:29:28:669,0,-1.59262,7.09639,-18.7048,Q,Q
2023-03-14 21:29:28:679,0,-1.62317,7.12532,-18.7394,Q,Q
2023-03-14 21:29:28:689,0,-1.65453,7.1503,-18.7721,Q,Q
2023-03-14 21:29:28:699,0,-1.68676,7.17473,-18.8021,Q,Q
2023-03-14 21:29:28:708,0,-1.72453,7.19901,-18.8301,Q,Q
2023-03-14 21:29:28:719,0,-1.76276,7.22184,-18.862,Q,Q
2023-03-14 21:29:28:729,0,-1.80177,7.24482,-18.8982,Q,Q
2023-03-14 21:29:28:739,0,-1.8377,7.26478,-18.935,Q,Q
2023-03-14 21:29:28:749,0,-1.87017,7.27818,-18.9692,Q,Q
2023-03-14 21:29:28:759,0,-1.90294,7.29128,-19.0033,Q,Q
2023-03-14 21:29:28:769,0,-1.93305,7.29878,-19.031,Q,Q
2023-03-14 21:29:28:779,0,-1.96385,7.30319,-19.0574,Q,Q
2023-03-14 21:29:28:789,0,-1.9939,7.30707,-19.0803,Q,Q
2023-03-14 21:29:28:799,0,-2.02018,7.30518,-19.0946,Q,Q
2023-03-14 21:29:28:809,0,-2.05003,7.29923,-19.1038,Q,Q
2023-03-14 21:29:28:819,0,-2.08594,7.28618,-19.1085,Q,Q
2023-03-14 21:29:28:829,0,-2.1241,7.26298,-19.1088,Q,Q
2023-03-14 21:29:28:839,0,-2.17161,7.23702,-19.1108,Q,Q
2023-03-14 21:29:28:849,0,-2.21986,7.21401,-19.1197,Q,Q
2023-03-14 21:29:28:859,0,-2.26453,7.1967,-19.1268,Q,Q
2023-03-14 21:29:28:869,0,-2.30665,7.17526,-19.1283,Q,Q
2023-03-14 21:29:28:879,0,-2.35181,7.15845,-19.1359,Q,Q
2023-03-14 21:29:28:889,0,-2.39788,7.14132,-19.1436,Q,Q
2023-03-14 21:29:28:899,0,-2.44086,7.11882,-19.1504,Q,Q
2023-03-14 21:29:28:909,0,-2.48488,7.09271,-19.1549,Q,Q
2023-03-14 21:29:28:919,0,-2.52771,7.0633,-19.1613,Q,Q
2023-03-14 21:29:28:929,0,-2.57294,7.04026,-19.1677,Q,Q
2023-03-14 21:29:28:939,0,-2.61415,7.01468,-19.1755,Q,Q
2023-03-14 21:29:28:949,0,-2.65475,6.99087,-19.1796,Q,Q
2023-03-14 21:29:28:959,0,-2.69389,6.9636,-19.1838,Q,Q
2023-03-14 21:29:28:969,0,-2.74088,6.93253,-19.182,Q,Q
2023-03-14 21:29:28:979,0,-2.79704,6.8959,-19.1762,Q,Q
2023-03-14 21:29:28:989,0,-2.85751,6.85278,-19.1739,Q,Q
2023-03-14 21:29:28:999,0,-2.91806,6.80624,-19.1695,Q,Q
2023-03-14 21:29:29:9,0,-2.97734,6.76359,-19.1645,Q,Q
2023-03-14 21:29:29:19,0,-3.04236,6.7214,-19.1564,Q,Q
2023-03-14 21:29:29:29,0,-3.10697,6.68177,-19.1405,Q,Q
2023-03-14 21:29:29:39,0,-3.17382,6.63952,-19.1216,Q,Q
2023-03-14 21:29:29:49,0,-3.24352,6.59655,-19.0947,Q,Q
2023-03-14 21:29:29:59,0,-3.32306,6.54907,-19.0569,Q,Q
2023-03-14 21:29:29:69,0,-3.41063,6.49635,-19.0063,Q,Q
2023-03-14 21:29:29:79,0,-3.51559,6.43488,-18.9433,Q,Q
2023-03-14 21:29:29:89,0,-3.63401,6.36755,-18.8653,Q,Q
2023-03-14 21:29:29:99,0,-3.77027,6.29632,-18.7595,Q,Q
2023-03-14 21:29:29:109,0,-3.92804,6.2205,-18.6137,Q,Q
2023-03-14 21:29:29:119,0,-4.11897,6.1332,-18.4105,Q,Q
2023-03-14 21:29:29:129,0,-4.35907,6.02295,-18.1491,Q,Q
2023-03-14 21:29:29:139,0,-4.66115,5.89335,-17.834,Q,Q
2023-03-14 21:29:29:149,0,-5.04256,5.73315,-17.4703,Q,Q
2023-03-14 21:29:29:159,0,-5.52019,5.54102,-17.0681,Q,Q
2023-03-14 21:29:29:169,0,-6.09888,5.31739,-16.6375,Q,Q
2023-03-14 21:29:29:179,0,-6.77734,5.06738,-16.18,Q,Q
2023-03-14 21:29:29:189,0,-7.54751,4.77652,-15.7045,Q,Q
2023-03-14 21:29:29:199,0,-8.40052,4.45189,-15.2087,Q,Q
2023-03-14 21:29:29:209,0,-9.33477,4.09076,-14.6966,Q,Q
2023-03-14 21:29:29:219,0,-10.3424,3.69065,-14.1711,Q,Q
2023-03-14 21:29:29:229,0,-11.4272,3.25229,-13.6333,Q,Q
2023-03-14 21:29:29:239,0,-12.5922,2.78425,-13.094,Q,Q
2023-03-14 21:29:29:248,0,-13.8159,2.30275,-12.5518,Q,Q
2023-03-14 21:29:29:258,0,-15.0853,1.79752,-12.0065,Q,Q
2023-03-14 21:29:29:269,0,-16.3723,1.28999,-11.4696,Q,Q
2023-03-14 21:29:29:279,0,-17.6769,0.801628,-10.9395,Q,Q
2023-03-14 21:29:29:289,0,-18.9809,0.344946,-10.4143,Q,Q
2023-03-14 21:29:29:299,0,-20.2619,-0.0650041,-9.89852,Q,Q
2023-03-14 21:29:29:309,0,-21.5038,-0.422956,-9.4014,Q,Q
2023-03-14 21:29:29:319,0,-22.6734,-0.715578,-8.9481,Q,Q
2023-03-14 21:29:29:329,0,-23.7336,-0.943161,-8.56363,Q,Q
2023-03-14 21:29:29:339,0,-24.663,-1.11121,-8.26192,Q,Q
2023-03-14 21:29:29:349,0,-25.4529,-1.22593,-8.02646,Q,Q
2023-03-14 21:29:29:359,0,-26.1424,-1.31978,-7.82801,Q,Q
2023-03-14 21:29:29:369,0,-26.7586,-1.40588,-7.65772,Q,Q
2023-03-14 21:29:29:379,0,-27.3157,-1.49,-7.51254,Q,Q
2023-03-14 21:29:29:389,0,-27.7938,-1.56444,-7.41283,Q,Q
2023-03-14 21:29:29:399,0,-28.1792,-1.62176,-7.35774,Q,Q
2023-03-14 21:29:29:409,0,-28.4707,-1.65421,-7.3448,Q,Q
2023-03-14 21:29:29:419,0,-28.685,-1.66504,-7.3664,Q,Q
2023-03-14 21:29:29:428,0,-28.8355,-1.66488,-7.4231,Q,Q
2023-03-14 21:29:29:438,0,-28.9447,-1.66122,-7.50646,Q,Q
2023-03-14 21:29:29:448,0,-29.0266,-1.65973,-7.60645,Q,Q
2023-03-14 21:29:29:459,0,-29.0796,-1.65347,-7.71602,Q,Q
2023-03-14 21:29:29:468,0,-29.0935,-1.64771,-7.83398,Q,Q
2023-03-14 21:29:29:479,0,-29.0599,-1.64023,-7.95884,Q,Q
2023-03-14 21:29:29:489,0,-28.9796,-1.61878,-8.0871,Q,Q
2023-03-14 21:29:29:499,0,-28.8682,-1.58864,-8.22644,Q,Q
2023-03-14 21:29:29:509,0,-28.7171,-1.5391,-8.38336,Q,Q
2023-03-14 21:29:29:519,0,-28.53,-1.47596,-8.55228,Q,Q
2023-03-14 21:29:29:529,0,-28.3221,-1.40371,-8.72633,Q,Q
2023-03-14 21:29:29:539,0,-28.1051,-1.32492,-8.89928,Q,Q
2023-03-14 21:29:29:549,0,-27.8803,-1.23568,-9.06932,Q,Q
2023-03-14 21:29:29:559,0,-27.6415,-1.13704,-9.24915,Q,Q
2023-03-14 21:29:29:569,0,-27.3654,-1.02565,-9.45789,Q,Q
2023-03-14 21:29:29:579,0,-27.0295,-0.889172,-9.7046,Q,Q
2023-03-14 21:29:29:589,0,-26.6228,-0.739114,-9.9824,Q,Q
2023-03-14 21:29:29:599,0,-26.1804,-0.580019,-10.2903,Q,Q
2023-03-14 21:29:29:609,0,-25.7215,-0.41948,-10.6246,Q,Q
2023-03-14 21:29:29:619,0,-25.2339,-0.268505,-10.9873,Q,Q
2023-03-14 21:29:29:629,0,-24.7229,-0.124547,-11.3804,Q,Q
2023-03-14 21:29:29:639,0,-24.1877,0.0136686,-11.7946,Q,Q
2023-03-14 21:29:29:649,0,-23.6403,0.150582,-12.2277,Q,Q
2023-03-14 21:29:29:659,0,-23.0876,0.280654,-12.6759,Q,Q
2023-03-14 21:29:29:669,0,-22.526,0.409142,-13.1411,Q,Q
2023-03-14 21:29:29:679,0,-21.9505,0.535499,-13.6191,Q,Q
2023-03-14 21:29:29:689,0,-21.3656,0.663413,-14.109,Q,Q
2023-03-14 21:29:29:699,0,-20.7711,0.793736,-14.6057,Q,Q
2023-03-14 21:29:29:708,0,-20.1803,0.922058,-15.0927,Q,Q
2023-03-14 21:29:29:719,0,-19.6048,1.05333,-15.5745,Q,Q
2023-03-14 21:29:29:729,0,-19.0535,1.19157,-16.0485,Q,Q
2023-03-14 21:29:29:739,0,-18.5402,1.33127,-16.5065,Q,Q
2023-03-14 21:29:29:749,0,-18.0567,1.47525,-16.9578,Q,Q
2023-03-14 21:29:29:759,0,-17.5905,1.62374,-17.4141,Q,Q
2023-03-14 21:29:29:768,0,-17.1282,1.77674,-17.8692,Q,Q
2023-03-14 21:29:29:779,0,-16.671,1.93647,-18.3106,Q,Q
2023-03-14 21:29:29:789,0,-16.2327,2.10039,-18.7359,Q,Q
2023-03-14 21:29:29:799,0,-15.8112,2.26582,-19.1419,Q,Q
2023-03-14 21:29:29:809,0,-15.4153,2.42912,-19.5216,Q,Q
2023-03-14 21:29:29:819,0,-15.0436,2.58346,-19.8729,Q,Q
2023-03-14 21:29:29:829,0,-14.702,2.72543,-20.1946,Q,Q
2023-03-14 21:29:29:839,0,-14.3943,2.85818,-20.4887,Q,Q
2023-03-14 21:29:29:849,0,-14.1119,2.98207,-20.765,Q,Q
2023-03-14 21:29:29:859,0,-13.8565,3.10228,-21.0279,Q,Q
2023-03-14 21:29:29:869,0,-13.6246,3.21738,-21.268,Q,Q
2023-03-14 21:29:29:879,0,-13.4075,3.33317,-21.4937,Q,Q
2023-03-14 21:29:29:889,0,-13.2149,3.44294,-21.7117,Q,Q
2023-03-14 21:29:29:899,0,-13.0386,3.54872,-21.9136,Q,Q
2023-03-14 21:29:29:909,0,-12.8773,3.65045,-22.0937,Q,Q
2023-03-14 21:29:29:919,0,-12.7318,3.74492,-22.2541,Q,Q
2023-03-14 21:29:29:929,0,-12.5967,3.83029,-22.3974,Q,Q
2023-03-14 21:29:29:939,0,-12.4727,3.91409,-22.5182,Q,Q
2023-03-14 21:29:29:949,0,-12.3635,3.99147,-22.6225,Q,Q
2023-03-14 21:29:29:959,0,-12.2649,4.05905,-22.7077,Q,Q
2023-03-14 21:29:29:969,0,-12.1698,4.1207,-22.7803,Q,Q
2023-03-14 21:29:29:979,0,-12.0783,4.17487,-22.8443,Q,Q
2023-03-14 21:29:29:989,0,-11.9965,4.21508,-22.8949,Q,Q
2023-03-14 21:29:29:999,0,-11.9235,4.25109,-22.936,Q,Q
2023-03-14 21:29:30:9,0,-11.858,4.27574,-22.9673,Q,Q
2023-03-14 21:29:30:19,0,-11.7997,4.30111,-22.9928,Q,Q
2023-03-14 21:29:30:29,0,-11.7522,4.32543,-23.0078,Q,Q
2023-03-14 21:29:30:39,0,-11.7201,4.33889,-23.0137,Q,Q
2023-03-14 21:29:30:49,0,-11.7075,4.34714,-23.004,Q,Q
2023-03-14 21:29:30:59,0,-11.7192,4.35047,-22.9838,Q,Q
2023-03-14 21:29:30:69,0,-11.7484,4.34976,-22.9597,Q,Q
2023-03-14 21:29:30:79,0,-11.7892,4.35043,-22.9226,Q,Q
2023-03-14 21:29:30:89,0,-11.8461,4.32781,-22.8723,Q,Q
2023-03-14 21:29:30:99,0,-11.9313,4.28524,-22.8002,Q,Q
2023-03-14 21:29:30:109,0,-12.048,4.23043,-22.721,Q,Q
2023-03-14 21:29:30:119,0,-12.1973,4.15177,-22.6366,Q,Q
2023-03-14 21:29:30:129,0,-12.3793,4.05184,-22.5368,Q,Q
2023-03-14 21:29:30:139,0,-12.6054,3.94238,-22.425,Q,Q
2023-03-14 21:29:30:149,0,-12.8579,3.8273,-22.3113,Q,Q
2023-03-14 21:29:30:159,0,-13.1093,3.71177,-22.2017,Q,Q
2023-03-14 21:29:30:169,0,-13.3353,3.61055,-22.1025,Q,Q
2023-03-14 21:29:30:179,0,-13.5387,3.51961,-22.0127,Q,Q
2023-03-14 21:29:30:189,0,-13.7219,3.44073,-21.9267,Q,Q
2023-03-14 21:29:30:199,0,-13.9035,3.36302,-21.8401,Q,Q
2023-03-14 21:29:30:209,0,-14.0927,3.27857,-21.7567,Q,Q
2023-03-14 21:29:30:219,0,-14.2939,3.18544,-21.6713,Q,Q
2023-03-14 21:29:30:229,0,-14.5142,3.08212,-21.5887,Q,Q
2023-03-14 21:29:30:239,0,-14.7567,2.96429,-21.5021,Q,Q
2023-03-14 21:29:30:249,0,-15.0255,2.83535,-21.4107,Q,Q
2023-03-14 21:29:30:259,0,-15.3288,2.68977,-21.3099,Q,Q
2023-03-14 21:29:30:269,0,-15.6724,2.52473,-21.1965,Q,Q
2023-03-14 21:29:30:279,0,-16.0636,2.33869,-21.0701,Q,Q
2023-03-14 21:29:30:289,0,-16.5131,2.11961,-20.9305,Q,Q
2023-03-14 21:29:30:299,0,-17.0399,1.85983,-20.7648,Q,Q
2023-03-14 21:29:30:309,0,-17.655,1.55937,-20.5822,Q,Q
2023-03-14 21:29:30:319,0,-18.3432,1.24115,-20.3897,Q,Q
2023-03-14 21:29:30:329,0,-19.0731,0.919732,-20.1993,Q,Q
2023-03-14 21:29:30:339,0,-19.8076,0.601325,-19.9976,Q,Q
2023-03-14 21:29:30:349,0,-20.5396,0.298121,-19.7916,Q,Q
2023-03-14 21:29:30:359,0,-21.2684,0.00701874,-19.5757,Q,Q
2023-03-14 21:29:30:369,0,-22.0039,-0.270025,-19.3557,Q,Q
2023-03-14 21:29:30:379,0,-22.7527,-0.523471,-19.1354,Q,Q
2023-03-14 21:29:30:389,0,-23.4892,-0.753113,-18.9201,Q,Q
2023-03-14 21:29:30:399,0,-24.1865,-0.951143,-18.7193,Q,Q
2023-03-14 21:29:30:409,0,-24.8101,-1.11834,-18.5305,Q,Q
2023-03-14 21:29:30:419,0,-25.3528,-1.24933,-18.3562,Q,Q
2023-03-14 21:29:30:429,0,-25.8154,-1.3527,-18.1971,Q,Q
2023-03-14 21:29:30:439,0,-26.2427,-1.43367,-18.0447,Q,Q
2023-03-14 21:29:30:448,0,-26.6432,-1.49629,-17.9034,Q,Q
2023-03-14 21:29:30:459,0,-27.0242,-1.55472,-17.7782,Q,Q
2023-03-14 21:29:30:469,0,-27.3697,-1.59041,-17.683,Q,Q
2023-03-14 21:29:30:479,0,-27.6632,-1.61478,-17.6199,Q,Q
2023-03-14 21:29:30:489,0,-27.8985,-1.62541,-17.5851,Q,Q
2023-03-14 21:29:30:499,0,-28.0824,-1.62061,-17.5772,Q,Q
2023-03-14 21:29:30:508,0,-28.228,-1.60966,-17.5888,Q,Q
2023-03-14 21:29:30:519,0,-28.3423,-1.59649,-17.6167,Q,Q
2023-03-14 21:29:30:529,0,-28.4239,-1.58503,-17.6552,Q,Q
2023-03-14 21:29:30:539,0,-28.4774,-1.57748,-17.7106,Q,Q
2023-03-14 21:29:30:549,0,-28.5003,-1.57391,-17.7763,Q,Q
2023-03-14 21:29:30:559,0,-28.4952,-1.56461,-17.8572,Q,Q
2023-03-14 21:29:30:569,0,-28.4739,-1.56099,-17.9409,Q,Q
2023-03-14 21:29:30:579,0,-28.4391,-1.55089,-18.0337,Q,Q
2023-03-14 21:29:30:589,0,-28.3802,-1.52221,-18.1346,Q,Q
2023-03-14 21:29:30:599,0,-28.2841,-1.48137,-18.2442,Q,Q
2023-03-14 21:29:30:609,0,-28.1566,-1.42302,-18.3592,Q,Q
2023-03-14 21:29:30:619,0,-27.9991,-1.35416,-18.4769,Q,Q
2023-03-14 21:29:30:629,0,-27.8081,-1.27465,-18.6019,Q,Q
2023-03-14 21:29:30:639,0,-27.5846,-1.18336,-18.7456,Q,Q
2023-03-14 21:29:30:649,0,-27.3098,-1.0883,-18.9105,Q,Q
2023-03-14 21:29:30:659,0,-26.9782,-0.982941,-19.1082,Q,Q
2023-03-14 21:29:30:669,0,-26.5854,-0.865975,-19.3383,Q,Q
2023-03-14 21:29:30:679,0,-26.1287,-0.742406,-19.5933,Q,Q
2023-03-14 21:29:30:689,0,-25.615,-0.616975,-19.8696,Q,Q
2023-03-14 21:29:30:699,0,-25.0607,-0.489228,-20.1679,Q,Q
2023-03-14 21:29:30:709,0,-24.4698,-0.360998,-20.4789,Q,Q
2023-03-14 21:29:30:719,0,-23.846,-0.232357,-20.8007,Q,Q
2023-03-14 21:29:30:729,0,-23.2001,-0.110883,-21.1357,Q,Q
2023-03-14 21:29:30:739,0,-22.5398,0.0109877,-21.4799,Q,Q
2023-03-14 21:29:30:749,0,-21.8677,0.150881,-21.8409,Q,Q
2023-03-14 21:29:30:759,0,-21.1777,0.306802,-22.2107,Q,Q
2023-03-14 21:29:30:769,0,-20.4814,0.500325,-22.5967,Q,Q
2023-03-14 21:29:30:779,0,-19.7708,0.726765,-22.9901,Q,Q
2023-03-14 21:29:30:789,0,-19.0502,0.967105,-23.3726,Q,Q
2023-03-14 21:29:30:799,0,-18.325,1.22759,-23.7353,Q,Q
2023-03-14 21:29:30:809,0,-17.6056,1.49348,-24.0735,Q,Q
2023-03-14 21:29:30:819,0,-16.9051,1.75978,-24.3885,Q,Q
2023-03-14 21:29:30:829,0,-16.2373,2.01192,-24.6715,Q,Q
2023-03-14 21:29:30:839,0,-15.6227,2.25074,-24.9225,Q,Q
2023-03-14 21:29:30:849,0,-15.0588,2.47782,-25.1571,Q,Q
2023-03-14 21:29:30:859,0,-14.5249,2.69862,-25.3933,Q,Q
2023-03-14 21:29:30:869,0,-14.007,2.91927,-25.6282,Q,Q
2023-03-14 21:29:30:879,0,-13.5085,3.1333,-25.8522,Q,Q
2023-03-14 21:29:30:889,0,-13.0368,3.33688,-26.0702,Q,Q
2023-03-14 21:29:30:899,0,-12.5869,3.52922,-26.2715,Q,Q
2023-03-14 21:29:30:909,0,-12.166,3.70867,-26.4553,Q,Q
2023-03-14 21:29:30:919,0,-11.7713,3.86473,-26.6162,Q,Q
2023-03-14 21:29:30:929,0,-11.3966,4.00629,-26.758,Q,Q
2023-03-14 21:29:30:939,0,-11.0338,4.12928,-26.8885,Q,Q
2023-03-14 21:29:30:949,0,-10.6887,4.24377,-27.0133,Q,Q
2023-03-14 21:29:30:959,0,-10.3605,4.35511,-27.1463,Q,Q
2023-03-14 21:29:30:969,0,-10.046,4.4595,-27.2721,Q,Q
2023-03-14 21:29:30:979,0,-9.74991,4.5614,-27.3881,Q,Q
2023-03-14 21:29:30:989,0,-9.46669,4.65779,-27.4971,Q,Q
2023-03-14 21:29:30:999,0,-9.20344,4.74777,-27.6001,Q,Q
2023-03-14 21:29:31:9,0,-8.95406,4.83658,-27.6981,Q,Q
2023-03-14 21:29:31:19,0,-8.71727,4.92542,-27.7832,Q,Q
2023-03-14 21:29:31:29,0,-8.48824,5.01812,-27.8625,Q,Q
2023-03-14 21:29:31:39,0,-8.26882,5.11587,-27.9405,Q,Q
2023-03-14 21:29:31:49,0,-8.05549,5.21887,-28.0121,Q,Q
2023-03-14 21:29:31:59,0,-7.84694,5.32297,-28.0748,Q,Q
2023-03-14 21:29:31:69,0,-7.64016,5.42626,-28.1374,Q,Q
2023-03-14 21:29:31:79,0,-7.4383,5.53066,-28.1995,Q,Q
2023-03-14 21:29:31:89,0,-7.23858,5.63992,-28.2568,Q,Q
2023-03-14 21:29:31:99,0,-7.04874,5.74718,-28.3121,Q,Q
2023-03-14 21:29:31:109,0,-6.859,5.85428,-28.3621,Q,Q
2023-03-14 21:29:31:119,0,-6.67894,5.964,-28.3962,Q,Q
2023-03-14 21:29:31:129,0,-6.50192,6.07442,-28.4315,Q,Q
2023-03-14 21:29:31:139,0,-6.32811,6.18734,-28.4637,Q,Q
2023-03-14 21:29:31:149,0,-6.15293,6.30448,-28.482,Q,Q
2023-03-14 21:29:31:159,0,-5.97818,6.42041,-28.493,Q,Q
2023-03-14 21:29:31:169,0,-5.80541,6.52865,-28.4942,Q,Q
2023-03-14 21:29:31:179,0,-5.63293,6.6308,-28.4812,Q,Q
2023-03-14 21:29:31:189,0,-5.46266,6.72866,-28.4618,Q,Q
2023-03-14 21:29:31:199,0,-5.3002,6.82336,-28.4391,Q,Q
2023-03-14 21:29:31:209,0,-5.1423,6.91572,-28.415,Q,Q
2023-03-14 21:29:31:219,0,-4.989,7.00429,-28.3884,Q,Q
2023-03-14 21:29:31:229,0,-4.84375,7.0933,-28.3669,Q,Q
2023-03-14 21:29:31:239,0,-4.69931,7.18069,-28.3476,Q,Q
2023-03-14 21:29:31:249,0,-4.555,7.26266,-28.3262,Q,Q
2023-03-14 21:29:31:259,0,-4.41454,7.33845,-28.3003,Q,Q
2023-03-14 21:29:31:269,0,-4.27012,7.41479,-28.2748,Q,Q
2023-03-14 21:29:31:279,0,-4.12449,7.48738,-28.2451,Q,Q
2023-03-14 21:29:31:289,0,-3.98087,7.55437,-28.2172,Q,Q
2023-03-14 21:29:31:299,0,-3.83925,7.6131,-28.186,Q,Q
2023-03-14 21:29:31:309,0,-3.70438,7.66117,-28.1518,Q,Q
2023-03-14 21:29:31:319,0,-3.57343,7.7031,-28.1138,Q,Q
2023-03-14 21:29:31:329,0,-3.44884,7.73713,-28.0793,Q,Q
2023-03-14 21:29:31:339,0,-3.32942,7.76872,-28.0472,Q,Q
2023-03-14 21:29:31:349,0,-3.21565,7.80488,-28.0183,Q,Q
2023-03-14 21:29:31:359,0,-3.10479,7.84196,-27.9966,Q,Q
2023-03-14 21:29:31:369,0,-3.0012,7.87494,-27.9728,Q,Q
2023-03-14 21:29:31:379,0,-2.90013,7.90262,-27.9454,Q,Q
2023-03-14 21:29:31:389,0,-2.80266,7.93211,-27.9142,Q,Q
2023-03-14 21:29:31:399,0,-2.70849,7.95454,-27.8778,Q,Q
2023-03-14 21:29:31:409,0,-2.6171,7.97522,-27.8384,Q,Q
2023-03-14 21:29:31:419,0,-2.53192,7.9954,-27.7973,Q,Q
2023-03-14 21:29:31:429,0,-2.4598,8.01454,-27.758,Q,Q
2023-03-14 21:29:31:439,0,-2.39017,8.04214,-27.7222,Q,Q
2023-03-14 21:29:31:449,0,-2.32554,8.07703,-27.6879,Q,Q
2023-03-14 21:29:31:459,0,-2.25756,8.11197,-27.6544,Q,Q
2023-03-14 21:29:31:468,0,-2.18639,8.14671,-27.6275,Q,Q
2023-03-14 21:29:31:479,0,-2.11107,8.19103,-27.6014,Q,Q
2023-03-14 21:29:31:489,0,-2.03302,8.23822,-27.5739,Q,Q
2023-03-14 21:29:31:499,0,-1.955,8.28826,-27.5468,Q,Q
2023-03-14 21:29:31:509,0,-1.8833,8.34156,-27.5192,Q,Q
2023-03-14 21:29:31:519,0,-1.81964,8.38755,-27.4894,Q,Q
2023-03-14 21:29:31:529,0,-1.76215,8.43692,-27.465,Q,Q
2023-03-14 21:29:31:539,0,-1.71358,8.4825,-27.4443,Q,Q
2023-03-14 21:29:31:549,0,-1.66709,8.52905,-27.4228,Q,Q
2023-03-14 21:29:31:559,0,-1.62036,8.57587,-27.408,Q,Q
2023-03-14 21:29:31:569,0,-1.572,8.62815,-27.3978,Q,Q
2023-03-14 21:29:31:579,0,-1.52338,8.68306,-27.3955,Q,Q
2023-03-14 21:29:31:589,0,-1.48013,8.73724,-27.389,Q,Q
2023-03-14 21:29:31:599,0,-1.44418,8.79306,-27.3871,Q,Q
2023-03-14 21:29:31:609,0,-1.41228,8.84838,-27.3902,Q,Q
2023-03-14 21:29:31:619,0,-1.38404,8.89845,-27.3966,Q,Q
2023-03-14 21:29:31:629,0,-1.35615,8.94482,-27.4059,Q,Q
2023-03-14 21:29:31:639,0,-1.33225,8.98791,-27.4107,Q,Q
2023-03-14 21:29:31:649,0,-1.3153,9.0283,-27.4229,Q,Q
2023-03-14 21:29:31:659,0,-1.29961,9.06654,-27.4416,Q,Q
2023-03-14 21:29:31:669,0,-1.29121,9.10744,-27.4663,Q,Q
2023-03-14 21:29:31:679,0,-1.28239,9.14691,-27.4919,Q,Q
2023-03-14 21:29:31:689,0,-1.27928,9.18418,-27.5227,Q,Q
2023-03-14 21:29:31:699,0,-1.27717,9.21896,-27.5551,Q,Q
2023-03-14 21:29:31:709,0,-1.27681,9.24231,-27.5818,Q,Q
2023-03-14 21:29:31:719,0,-1.27765,9.26416,-27.6105,Q,Q
2023-03-14 21:29:31:729,0,-1.277,9.2849,-27.6445,Q,Q
2023-03-14 21:29:31:739,0,-1.27659,9.29961,-27.6797,Q,Q
2023-03-14 21:29:31:749,0,-1.28228,9.30441,-27.7193,Q,Q
2023-03-14 21:29:31:759,0,-1.28805,9.30982,-27.762,Q,Q
2023-03-14 21:29:31:769,0,-1.29686,9.30906,-27.8098,Q,Q
2023-03-14 21:29:31:779,0,-1.31326,9.29977,-27.858,Q,Q
2023-03-14 21:29:31:789,0,-1.32486,9.28529,-27.907,Q,Q
2023-03-14 21:29:31:799,0,-1.33677,9.25745,-27.9545,Q,Q
2023-03-14 21:29:31:809,0,-1.35723,9.23132,-27.9982,Q,Q
2023-03-14 21:29:31:819,0,-1.37972,9.20868,-28.0458,Q,Q
2023-03-14 21:29:31:829,0,-1.39831,9.18493,-28.0994,Q,Q
2023-03-14 21:29:31:839,0,-1.41596,9.15524,-28.1415,Q,Q
2023-03-14 21:29:31:849,0,-1.44518,9.119,-28.1725,Q,Q
2023-03-14 21:29:31:859,0,-1.47596,9.0825,-28.2023,Q,Q
2023-03-14 21:29:31:869,0,-1.50896,9.04164,-28.2298,Q,Q
2023-03-14 21:29:31:879,0,-1.53946,8.99961,-28.2468,Q,Q
2023-03-14 21:29:31:889,0,-1.57104,8.95353,-28.2661,Q,Q
2023-03-14 21:29:31:899,0,-1.60363,8.91127,-28.2805,Q,Q
2023-03-14 21:29:31:909,0,-1.63666,8.8719,-28.2953,Q,Q
2023-03-14 21:29:31:919,0,-1.66785,8.83279,-28.3073,Q,Q
2023-03-14 21:29:31:929,0,-1.69335,8.80073,-28.3124,Q,Q
2023-03-14 21:29:31:939,0,-1.71957,8.76574,-28.3105,Q,Q
2023-03-14 21:29:31:949,0,-1.7427,8.72914,-28.3048,Q,Q
2023-03-14 21:29:31:959,0,-1.76903,8.69388,-28.2966,Q,Q
2023-03-14 21:29:31:969,0,-1.79295,8.66326,-28.2851,Q,Q
2023-03-14 21:29:31:979,0,-1.80802,8.6393,-28.2707,Q,Q
2023-03-14 21:29:31:989,0,-1.82836,8.61634,-28.2523,Q,Q
2023-03-14 21:29:31:999,0,-1.84473,8.59492,-28.2355,Q,Q
2023-03-14 21:29:32:9,0,-1.85835,8.57424,-28.2139,Q,Q
2023-03-14 21:29:32:19,0,-1.8696,8.55826,-28.1874,Q,Q
2023-03-14 21:29:32:29,0,-1.87598,8.53867,-28.1596,Q,Q
2023-03-14 21:29:32:39,0,-1.87773,8.52303,-28.1231,Q,Q
2023-03-14 21:29:32:49,0,-1.87937,8.5041,-28.0792,Q,Q
2023-03-14 21:29:32:59,0,-1.87492,8.4868,-28.0314,Q,Q
2023-03-14 21:29:32:69,0,-1.86833,8.47504,-27.9792,Q,Q
2023-03-14 21:29:32:79,0,-1.86275,8.47179,-27.929,Q,Q
2023-03-14 21:29:32:89,0,-1.85744,8.4686,-27.8796,Q,Q
2023-03-14 21:29:32:99,0,-1.85484,8.46806,-27.8241,Q,Q
2023-03-14 21:29:32:109,0,-1.85423,8.46659,-27.7696,Q,Q
2023-03-14 21:29:32:119,0,-1.85921,8.46756,-27.7152,Q,Q
2023-03-14 21:29:32:129,0,-1.87197,8.4667,-27.6616,Q,Q
2023-03-14 21:29:32:139,0,-1.8919,8.46655,-27.6127,Q,Q
2023-03-14 21:29:32:149,0,-1.91751,8.46897,-27.5682,Q,Q
2023-03-14 21:29:32:159,0,-1.94317,8.47267,-27.5314,Q,Q
2023-03-14 21:29:32:169,0,-1.97367,8.481,-27.5012,Q,Q
2023-03-14 21:29:32:179,0,-2.00085,8.48872,-27.4761,Q,Q
2023-03-14 21:29:32:189,0,-2.026,8.49168,-27.4518,Q,Q
2023-03-14 21:29:32:199,0,-2.04896,8.49239,-27.4269,Q,Q
2023-03-14 21:29:32:209,0,-2.07393,8.48949,-27.4062,Q,Q
2023-03-14 21:29:32:219,0,-2.10552,8.47914,-27.3922,Q,Q
2023-03-14 21:29:32:229,0,-2.14415,8.46731,-27.3853,Q,Q
2023-03-14 21:29:32:239,0,-2.18139,8.45498,-27.3881,Q,Q
2023-03-14 21:29:32:249,0,-2.21969,8.44639,-27.3964,Q,Q
2023-03-14 21:29:32:259,0,-2.25234,8.4384,-27.4094,Q,Q
2023-03-14 21:29:32:269,0,-2.28454,8.4301,-27.4245,Q,Q
2023-03-14 21:29:32:279,0,-2.3084,8.42082,-27.4416,Q,Q
2023-03-14 21:29:32:289,0,-2.33728,8.40943,-27.4605,Q,Q
2023-03-14 21:29:32:299,0,-2.36276,8.39831,-27.4816,Q,Q
2023-03-14 21:29:32:309,0,-2.39089,8.38554,-27.5079,Q,Q
2023-03-14 21:29:32:319,0,-2.42781,8.37125,-27.5356,Q,Q
2023-03-14 21:29:32:329,0,-2.46734,8.35685,-27.565,Q,Q
2023-03-14 21:29:32:339,0,-2.51004,8.34693,-27.6024,Q,Q
2023-03-14 21:29:32:349,0,-2.55132,8.34035,-27.6425,Q,Q
2023-03-14 21:29:32:359,0,-2.59085,8.33041,-27.6819,Q,Q
2023-03-14 21:29:32:369,0,-2.62896,8.33107,-27.7233,Q,Q
2023-03-14 21:29:32:379,0,-2.66545,8.33848,-27.7704,Q,Q
2023-03-14 21:29:32:388,0,-2.69308,8.3534,-27.8143,Q,Q
2023-03-14 21:29:32:399,0,-2.72428,8.37266,-27.8619,Q,Q
2023-03-14 21:29:32:408,0,-2.76209,8.39584,-27.9114,Q,Q
2023-03-14 21:29:32:419,0,-2.80594,8.42205,-27.9684,Q,Q
2023-03-14 21:29:32:429,0,-2.84373,8.45032,-28.0294,Q,Q
2023-03-14 21:29:32:439,0,-2.87888,8.47345,-28.0855,Q,Q
2023-03-14 21:29:32:449,0,-2.91232,8.49273,-28.1425,Q,Q
2023-03-14 21:29:32:459,0,-2.94534,8.51197,-28.1973,Q,Q
2023-03-14 21:29:32:469,0,-2.97147,8.53097,-28.2499,Q,Q
2023-03-14 21:29:32:479,0,-2.99402,8.54876,-28.2961,Q,Q
2023-03-14 21:29:32:489,0,-3.01573,8.56653,-28.3419,Q,Q
2023-03-14 21:29:32:498,0,-3.0302,8.58348,-28.3817,Q,Q
2023-03-14 21:29:32:508,0,-3.04267,8.59847,-28.4154,Q,Q
2023-03-14 21:29:32:518,0,-3.05155,8.60738,-28.4427,Q,Q
2023-03-14 21:29:32:529,0,-3.06524,8.62009,-28.466,Q,Q
2023-03-14 21:29:32:539,0,-3.08295,8.63034,-28.4924,Q,Q
2023-03-14 21:29:32:549,0,-3.09737,8.64111,-28.5175,Q,Q
2023-03-14 21:29:32:559,0,-3.11264,8.65294,-28.536,Q,Q
2023-03-14 21:29:32:569,0,-3.12704,8.6627,-28.5531,Q,Q
2023-03-14 21:29:32:579,0,-3.13725,8.67274,-28.5669,Q,Q
2023-03-14 21:29:32:589,0,-3.14529,8.68222,-28.5796,Q,Q
2023-03-14 21:29:32:599,0,-3.15765,8.68674,-28.5887,Q,Q
2023-03-14 21:29:32:609,0,-3.17493,8.69149,-28.5915,Q,Q
2023-03-14 21:29:32:619,0,-3.19531,8.6953,-28.5913,Q,Q
2023-03-14 21:29:32:629,0,-3.21584,8.70189,-28.5931,Q,Q
2023-03-14 21:29:32:639,0,-3.2431,8.70716,-28.593,Q,Q
2023-03-14 21:29:32:649,0,-3.26955,8.70991,-28.5901,Q,Q
2023-03-14 21:29:32:659,0,-3.29797,8.71165,-28.5902,Q,Q
2023-03-14 21:29:32:669,0,-3.32918,8.70799,-28.5926,Q,Q
2023-03-14 21:29:32:679,0,-3.36205,8.706,-28.6024,Q,Q
2023-03-14 21:29:32:689,0,-3.39549,8.70346,-28.6252,Q,Q
2023-03-14 21:29:32:699,0,-3.42773,8.70019,-28.6551,Q,Q
2023-03-14 21:29:32:709,0,-3.45256,8.69087,-28.6928,Q,Q
2023-03-14 21:29:32:719,0,-3.47144,8.6822,-28.7374,Q,Q
2023-03-14 21:29:32:729,0,-3.48729,8.67113,-28.7916,Q,Q
2023-03-14 21:29:32:739,0,-3.494,8.65285,-28.8436,Q,Q
2023-03-14 21:29:32:749,0,-3.50526,8.63436,-28.894,Q,Q
2023-03-14 21:29:32:759,0,-3.52336,8.61472,-28.9474,Q,Q
2023-03-14 21:29:32:769,0,-3.54276,8.59904,-29.0087,Q,Q
2023-03-14 21:29:32:779,0,-3.57227,8.58653,-29.0738,Q,Q
2023-03-14 21:29:32:789,0,-3.60299,8.57962,-29.1391,Q,Q
2023-03-14 21:29:32:799,0,-3.63342,8.57757,-29.2036,Q,Q
2023-03-14 21:29:32:809,0,-3.66222,8.57821,-29.2609,Q,Q
2023-03-14 21:29:32:819,0,-3.69041,8.58259,-29.318,Q,Q
2023-03-14 21:29:32:829,0,-3.71733,8.58809,-29.3684,Q,Q
2023-03-14 21:29:32:839,0,-3.75067,8.59018,-29.4199,Q,Q
2023-03-14 21:29:32:849,0,-3.78839,8.59566,-29.4725,Q,Q
2023-03-14 21:29:32:859,0,-3.8315,8.60421,-29.5279,Q,Q
2023-03-14 21:29:32:869,0,-3.87602,8.62081,-29.5906,Q,Q
2023-03-14 21:29:32:879,0,-3.92832,8.64051,-29.6641,Q,Q
2023-03-14 21:29:32:889,0,-3.98709,8.66471,-29.7437,Q,Q
2023-03-14 21:29:32:899,0,-4.05493,8.69373,-29.8433,Q,Q
2023-03-14 21:29:32:909,0,-4.12942,8.73717,-29.9674,Q,Q
2023-03-14 21:29:32:919,0,-4.21369,8.79497,-30.1181,Q,Q
2023-03-14 21:29:32:929,0,-4.30844,8.8692,-30.3029,Q,Q
2023-03-14 21:29:32:939,0,-4.41912,8.96665,-30.5261,Q,Q
2023-03-14 21:29:32:949,0,-4.54763,9.07828,-30.7821,Q,Q
2023-03-14 21:29:32:959,0,-4.68812,9.20599,-31.0688,Q,Q
2023-03-14 21:29:32:969,0,-4.84393,9.33493,-31.3721,Q,Q
2023-03-14 21:29:32:979,0,-5.02037,9.46497,-31.6928,Q,Q
2023-03-14 21:29:32:989,0,-5.21183,9.58347,-32.0295,Q,Q
2023-03-14 21:29:32:999,0,-5.41799,9.69131,-32.3759,Q,Q
2023-03-14 21:29:33:8,0,-5.64203,9.77851,-32.7299,Q,Q
2023-03-14 21:29:33:19,0,-5.88215,9.84684,-33.0876,Q,Q
2023-03-14 21:29:33:28,0,-6.12242,9.89239,-33.4489,Q,Q
2023-03-14 21:29:33:39,0,-6.35792,9.90008,-33.8016,Q,Q
2023-03-14 21:29:33:49,0,-6.58752,9.86542,-34.1353,Q,Q
2023-03-14 21:29:33:59,0,-6.81655,9.78819,-34.4471,Q,Q
2023-03-14 21:29:33:69,0,-7.03672,9.67682,-34.7399,Q,Q
2023-03-14 21:29:33:79,0,-7.23372,9.53135,-35.0085,Q,Q
2023-03-14 21:29:33:89,0,-7.41383,9.36158,-35.2547,Q,Q
2023-03-14 21:29:33:99,0,-7.57421,9.1741,-35.4774,Q,Q
2023-03-14 21:29:33:109,0,-7.71467,8.9686,-35.6824,Q,Q
2023-03-14 21:29:33:119,0,-7.84399,8.74785,-35.8745,Q,Q
2023-03-14 21:29:33:128,0,-7.97115,8.51053,-36.0623,Q,Q
2023-03-14 21:29:33:138,0,-8.10166,8.25741,-36.2506,Q,Q
2023-03-14 21:29:33:149,0,-8.24189,7.9964,-36.4366,Q,Q
2023-03-14 21:29:33:159,0,-8.40498,7.72447,-36.6346,Q,Q
2023-03-14 21:29:33:169,0,-8.5862,7.45227,-36.8414,Q,Q
2023-03-14 21:29:33:179,0,-8.78112,7.1796,-37.0616,Q,Q
2023-03-14 21:29:33:189,0,-8.98263,6.91197,-37.2967,Q,Q
2023-03-14 21:29:33:199,0,-9.19485,6.66062,-37.5512,Q,Q
2023-03-14 21:29:33:209,0,-9.4113,6.42332,-37.8289,Q,Q
2023-03-14 21:29:33:219,0,-9.63395,6.20429,-38.1322,Q,Q
2023-03-14 21:29:33:229,0,-9.8621,6.00906,-38.4576,Q,Q
2023-03-14 21:29:33:239,0,-10.0896,5.82759,-38.7977,Q,Q
2023-03-14 21:29:33:249,0,-10.3156,5.65833,-39.1498,Q,Q
2023-03-14 21:29:33:259,0,-10.5231,5.50385,-39.5108,Q,Q
2023-03-14 21:29:33:269,0,-10.7069,5.37367,-39.8799,Q,Q
2023-03-14 21:29:33:279,0,-10.8581,5.26968,-40.2609,Q,Q
2023-03-14 21:29:33:289,0,-10.9733,5.18842,-40.6457,Q,Q
2023-03-14 21:29:33:299,0,-11.0662,5.12911,-41.0318,Q,Q
2023-03-14 21:29:33:309,0,-11.1359,5.09132,-41.4147,Q,Q
2023-03-14 21:29:33:319,0,-11.1946,5.05309,-41.7908,Q,Q
2023-03-14 21:29:33:329,0,-11.2477,5.02744,-42.168,Q,Q
2023-03-14 21:29:33:339,0,-11.289,5.00642,-42.5414,Q,Q
2023-03-14 21:29:33:349,0,-11.3232,4.99552,-42.9154,Q,Q
2023-03-14 21:29:33:359,0,-11.3492,4.99307,-43.2873,Q,Q
2023-03-14 21:29:33:369,0,-11.3735,4.99899,-43.6643,Q,Q
2023-03-14 21:29:33:379,0,-11.3958,5.00746,-44.0436,Q,Q
2023-03-14 21:29:33:389,0,-11.4216,5.02086,-44.4193,Q,Q
2023-03-14 21:29:33:399,0,-11.459,5.03733,-44.7918,Q,Q
2023-03-14 21:29:33:409,0,-11.5009,5.05028,-45.1624,Q,Q
2023-03-14 21:29:33:419,0,-11.5424,5.06106,-45.5281,Q,Q
2023-03-14 21:29:33:429,0,-11.584,5.07222,-45.8871,Q,Q
2023-03-14 21:29:33:439,0,-11.631,5.0835,-46.2431,Q,Q
2023-03-14 21:29:33:449,0,-11.6844,5.09953,-46.5949,Q,Q
2023-03-14 21:29:33:459,0,-11.7574,5.11656,-46.9408,Q,Q
2023-03-14 21:29:33:469,0,-11.8503,5.13063,-47.2758,Q,Q
2023-03-14 21:29:33:479,0,-11.9668,5.13776,-47.6007,Q,Q
2023-03-14 21:29:33:489,0,-12.1014,5.13575,-47.9163,Q,Q
2023-03-14 21:29:33:499,0,-12.2475,5.12064,-48.2144,Q,Q
2023-03-14 21:29:33:509,0,-12.4102,5.09085,-48.4986,Q,Q
2023-03-14 21:29:33:519,0,-12.5984,5.0513,-48.7684,Q,Q
2023-03-14 21:29:33:529,0,-12.7989,5.01317,-49.0306,Q,Q
2023-03-14 21:29:33:539,0,-12.9892,4.97584,-49.2759,Q,Q
2023-03-14 21:29:33:549,0,-13.1709,4.94574,-49.509,Q,Q
2023-03-14 21:29:33:559,0,-13.3405,4.89019,-49.7343,Q,Q
2023-03-14 21:29:33:569,0,-13.5169,4.86043,-49.9309,Q,Q
2023-03-14 21:29:33:579,0,-13.6864,4.82506,-50.0933,Q,Q
2023-03-14 21:29:33:589,0,-13.8464,4.78222,-50.2639,Q,Q
2023-03-14 21:29:33:599,0,-13.9917,4.78791,-50.4513,Q,Q
2023-03-14 21:29:33:609,0,-14.1082,4.80515,-50.6355,Q,Q
2023-03-14 21:29:33:619,0,-14.2191,4.82765,-50.8121,Q,Q
2023-03-14 21:29:33:629,0,-14.332,4.8529,-50.9873,Q,Q
2023-03-14 21:29:33:639,0,-14.4426,4.87895,-51.1595,Q,Q
2023-03-14 21:29:33:649,0,-14.5416,4.90914,-51.325,Q,Q
2023-03-14 21:29:33:659,0,-14.6368,4.93904,-51.4842,Q,Q
2023-03-14 21:29:33:669,0,-14.7252,4.9719,-51.6428,Q,Q
2023-03-14 21:29:33:679,0,-14.7983,5.01012,-51.8036,Q,Q
2023-03-14 21:29:33:689,0,-14.8609,5.05278,-51.9603,Q,Q
2023-03-14 21:29:33:699,0,-14.9151,5.10868,-52.1237,Q,Q
2023-03-14 21:29:33:709,0,-14.9712,5.17001,-52.2946,Q,Q
2023-03-14 21:29:33:719,0,-15.023,5.23536,-52.468,Q,Q
2023-03-14 21:29:33:729,0,-15.0692,5.29494,-52.6421,Q,Q
2023-03-14 21:29:33:739,0,-15.1124,5.35216,-52.8151,Q,Q
2023-03-14 21:29:33:749,0,-15.1636,5.40009,-52.9848,Q,Q
2023-03-14 21:29:33:759,0,-15.2268,5.43811,-53.1453,Q,Q
2023-03-14 21:29:33:769,0,-15.2868,5.45652,-53.2753,Q,Q
2023-03-14 21:29:33:779,0,-15.3498,5.45424,-53.3759,Q,Q
2023-03-14 21:29:33:789,0,-15.4179,5.43192,-53.4483,Q,Q
2023-03-14 21:29:33:799,0,-15.4935,5.38969,-53.5063,Q,Q
2023-03-14 21:29:33:809,0,-15.5746,5.33861,-53.5516,Q,Q
2023-03-14 21:29:33:819,0,-15.6502,5.28033,-53.5664,Q,Q
2023-03-14 21:29:33:829,0,-15.7296,5.20966,-53.5528,Q,Q
2023-03-14 21:29:33:839,0,-15.8079,5.13383,-53.5311,Q,Q
2023-03-14 21:29:33:849,0,-15.8825,5.0558,-53.499,Q,Q
2023-03-14 21:29:33:859,0,-15.9379,4.98731,-53.4537,Q,Q
2023-03-14 21:29:33:869,0,-15.972,4.92553,-53.3948,Q,Q
2023-03-14 21:29:33:879,0,-15.9897,4.8653,-53.3279,Q,Q
2023-03-14 21:29:33:889,0,-16.0127,4.80637,-53.2562,Q,Q
2023-03-14 21:29:33:899,0,-16.04,4.74863,-53.1871,Q,Q
2023-03-14 21:29:33:909,0,-16.0663,4.68817,-53.1193,Q,Q
2023-03-14 21:29:33:919,0,-16.0932,4.63165,-53.062,Q,Q
2023-03-14 21:29:33:929,0,-16.1269,4.57911,-53.0256,Q,Q
2023-03-14 21:29:33:939,0,-16.1699,4.51972,-53.0132,Q,Q
2023-03-14 21:29:33:949,0,-16.2116,4.4606,-53.0356,Q,Q
2023-03-14 21:29:33:959,0,-16.2599,4.40905,-53.0796,Q,Q
2023-03-14 21:29:33:969,0,-16.3192,4.35914,-53.1402,Q,Q
2023-03-14 21:29:33:979,0,-16.3868,4.30762,-53.2096,Q,Q
2023-03-14 21:29:33:989,0,-16.4667,4.24648,-53.2743,Q,Q
2023-03-14 21:29:33:999,0,-16.5493,4.17021,-53.35,Q,Q
2023-03-14 21:29:34:9,0,-16.6314,4.07958,-53.4119,Q,Q
2023-03-14 21:29:34:19,0,-16.717,3.97814,-53.4624,Q,Q
2023-03-14 21:29:34:29,0,-16.8151,3.86289,-53.4984,Q,Q
2023-03-14 21:29:34:38,0,-16.9243,3.73923,-53.523,Q,Q
2023-03-14 21:29:34:49,0,-17.048,3.61247,-53.5306,Q,Q
2023-03-14 21:29:34:59,0,-17.1931,3.48205,-53.5239,Q,Q
2023-03-14 21:29:34:69,0,-17.3509,3.34195,-53.5007,Q,Q
2023-03-14 21:29:34:79,0,-17.5303,3.19158,-53.4593,Q,Q
2023-03-14 21:29:34:89,0,-17.7288,3.02733,-53.4104,Q,Q
2023-03-14 21:29:34:99,0,-17.9532,2.84553,-53.3552,Q,Q
2023-03-14 21:29:34:109,0,-18.1992,2.65333,-53.2993,Q,Q
2023-03-14 21:29:34:119,0,-18.4586,2.4517,-53.2473,Q,Q
2023-03-14 21:29:34:129,0,-18.7117,2.26252,-53.1925,Q,Q
2023-03-14 21:29:34:139,0,-18.9568,2.08176,-53.1248,Q,Q
2023-03-14 21:29:34:149,0,-19.1846,1.9143,-53.0376,Q,Q
2023-03-14 21:29:34:159,0,-19.4082,1.75527,-52.9416,Q,Q
2023-03-14 21:29:34:169,0,-19.6304,1.60394,-52.8447,Q,Q
2023-03-14 21:29:34:179,0,-19.8566,1.46666,-52.7435,Q,Q
2023-03-14 21:29:34:189,0,-20.0809,1.34171,-52.6386,Q,Q
2023-03-14 21:29:34:199,0,-20.269,1.22388,-52.5422,Q,Q
2023-03-14 21:29:34:209,0,-20.4219,1.12658,-52.4622,Q,Q
2023-03-14 21:29:34:219,0,-20.5415,1.05622,-52.3915,Q,Q
2023-03-14 21:29:34:229,0,-20.6184,1.01271,-52.33,Q,Q
2023-03-14 21:29:34:239,0,-20.6428,0.996179,-52.287,Q,Q
2023-03-14 21:29:34:249,0,-20.6118,1.0188,-52.2665,Q,Q
2023-03-14 21:29:34:259,0,-20.5363,1.06404,-52.248,Q,Q
2023-03-14 21:29:34:269,0,-20.4314,1.13502,-52.2235,Q,Q
2023-03-14 21:29:34:279,0,-20.3087,1.22921,-52.193,Q,Q
2023-03-14 21:29:34:289,0,-20.1608,1.35513,-52.1661,Q,Q
2023-03-14 21:29:34:299,0,-19.9674,1.49179,-52.1489,Q,Q
2023-03-14 21:29:34:309,0,-19.7379,1.65269,-52.1467,Q,Q
2023-03-14 21:29:34:319,0,-19.4962,1.82515,-52.1482,Q,Q
2023-03-14 21:29:34:329,0,-19.2761,1.99955,-52.153,Q,Q
2023-03-14 21:29:34:339,0,-19.0763,2.1732,-52.1591,Q,Q
2023-03-14 21:29:34:349,0,-18.8637,2.36009,-52.17,Q,Q
2023-03-14 21:29:34:359,0,-18.5935,2.56205,-52.1771,Q,Q
2023-03-14 21:29:34:369,0,-18.2518,2.78175,-52.191,Q,Q
2023-03-14 21:29:34:379,0,-17.8565,3.01984,-52.2181,Q,Q
2023-03-14 21:29:34:389,0,-17.4414,3.26852,-52.2441,Q,Q
2023-03-14 21:29:34:399,0,-17.0321,3.52048,-52.267,Q,Q
2023-03-14 21:29:34:409,0,-16.635,3.76768,-52.289,Q,Q
2023-03-14 21:29:34:419,0,-16.2402,4.00662,-52.3166,Q,Q
2023-03-14 21:29:34:429,0,-15.8358,4.23163,-52.3488,Q,Q
2023-03-14 21:29:34:439,0,-15.4282,4.44178,-52.3826,Q,Q
2023-03-14 21:29:34:449,0,-15.0327,4.64678,-52.4268,Q,Q
2023-03-14 21:29:34:459,0,-14.6638,4.84848,-52.4733,Q,Q
2023-03-14 21:29:34:469,0,-14.3161,5.04535,-52.5135,Q,Q
2023-03-14 21:29:34:479,0,-13.9802,5.22924,-52.546,Q,Q
2023-03-14 21:29:34:489,0,-13.6524,5.39999,-52.567,Q,Q
2023-03-14 21:29:34:499,0,-13.3259,5.55422,-52.5768,Q,Q
2023-03-14 21:29:34:509,0,-13.001,5.69811,-52.5723,Q,Q
2023-03-14 21:29:34:519,0,-12.6738,5.82691,-52.5512,Q,Q
2023-03-14 21:29:34:529,0,-12.3502,5.94986,-52.5207,Q,Q
2023-03-14 21:29:34:539,0,-12.0452,6.0697,-52.4819,Q,Q
2023-03-14 21:29:34:549,0,-11.7492,6.19685,-52.4442,Q,Q
2023-03-14 21:29:34:558,0,-11.4548,6.32603,-52.4115,Q,Q
2023-03-14 21:29:34:569,0,-11.1629,6.4648,-52.3788,Q,Q
2023-03-14 21:29:34:579,0,-10.8685,6.60317,-52.336,Q,Q
2023-03-14 21:29:34:589,0,-10.5745,6.73137,-52.2751,Q,Q
2023-03-14 21:29:34:599,0,-10.2837,6.84598,-52.1932,Q,Q
2023-03-14 21:29:34:609,0,-10.0003,6.94977,-52.0989,Q,Q
2023-03-14 21:29:34:619,0,-9.73055,7.04996,-51.999,Q,Q
2023-03-14 21:29:34:629,0,-9.47644,7.13921,-51.8881,Q,Q
2023-03-14 21:29:34:639,0,-9.24041,7.23007,-51.7801,Q,Q
2023-03-14 21:29:34:649,0,-9.02383,7.33771,-51.6777,Q,Q
2023-03-14 21:29:34:659,0,-8.81412,7.45114,-51.5787,Q,Q
2023-03-14 21:29:34:669,0,-8.61773,7.55313,-51.4638,Q,Q
2023-03-14 21:29:34:679,0,-8.43774,7.62796,-51.3345,Q,Q
2023-03-14 21:29:34:689,0,-8.28873,7.69174,-51.2057,Q,Q
2023-03-14 21:29:34:699,0,-8.15262,7.74913,-51.0841,Q,Q
2023-03-14 21:29:34:709,0,-8.02104,7.80581,-50.9694,Q,Q
2023-03-14 21:29:34:719,0,-7.89667,7.86751,-50.8737,Q,Q
2023-03-14 21:29:34:729,0,-7.79135,7.93536,-50.7955,Q,Q
2023-03-14 21:29:34:739,0,-7.70503,8.01399,-50.7329,Q,Q
2023-03-14 21:29:34:749,0,-7.62566,8.09985,-50.6908,Q,Q
2023-03-14 21:29:34:759,0,-7.55009,8.17857,-50.6544,Q,Q
2023-03-14 21:29:34:769,0,-7.48836,8.25014,-50.6277,Q,Q
2023-03-14 21:29:34:779,0,-7.44566,8.32293,-50.6178,Q,Q
2023-03-14 21:29:34:789,0,-7.41661,8.38665,-50.6346,Q,Q
2023-03-14 21:29:34:799,0,-7.37879,8.45427,-50.6779,Q,Q
2023-03-14 21:29:34:809,0,-7.33415,8.51606,-50.7334,Q,Q
2023-03-14 21:29:34:819,0,-7.28266,8.58131,-50.8028,Q,Q
2023-03-14 21:29:34:829,0,-7.24193,8.64504,-50.8909,Q,Q
2023-03-14 21:29:34:839,0,-7.21436,8.71339,-50.9977,Q,Q
2023-03-14 21:29:34:849,0,-7.19729,8.79005,-51.1226,Q,Q
2023-03-14 21:29:34:859,0,-7.18781,8.86854,-51.2625,Q,Q
2023-03-14 21:29:34:869,0,-7.1872,8.94533,-51.4058,Q,Q
2023-03-14 21:29:34:879,0,-7.19054,9.0147,-51.5428,Q,Q
2023-03-14 21:29:34:889,0,-7.19213,9.06459,-51.6594,Q,Q
2023-03-14 21:29:34:899,0,-7.18761,9.10276,-51.761,Q,Q
2023-03-14 21:29:34:909,0,-7.17996,9.12471,-51.8458,Q,Q
2023-03-14 21:29:34:919,0,-7.17315,9.13607,-51.9095,Q,Q
2023-03-14 21:29:34:929,0,-7.16104,9.13675,-51.9522,Q,Q
2023-03-14 21:29:34:939,0,-7.15274,9.13294,-51.9831,Q,Q
2023-03-14 21:29:34:949,0,-7.15703,9.12883,-52.0051,Q,Q
2023-03-14 21:29:34:959,0,-7.16676,9.1307,-52.0176,Q,Q
2023-03-14 21:29:34:969,0,-7.18327,9.12864,-52.0267,Q,Q
2023-03-14 21:29:34:979,0,-7.20657,9.12366,-52.0288,Q,Q
2023-03-14 21:29:34:989,0,-7.23857,9.11599,-52.0275,Q,Q
2023-03-14 21:29:34:999,0,-7.27207,9.10624,-52.026,Q,Q
2023-03-14 21:29:35:9,0,-7.30856,9.09453,-52.0288,Q,Q
2023-03-14 21:29:35:19,0,-7.3548,9.07848,-52.0333,Q,Q
2023-03-14 21:29:35:29,0,-7.40162,9.06441,-52.0411,Q,Q
2023-03-14 21:29:35:39,0,-7.44473,9.05108,-52.054,Q,Q
2023-03-14 21:29:35:49,0,-7.48176,9.04304,-52.0742,Q,Q
2023-03-14 21:29:35:59,0,-7.5088,9.04482,-52.1061,Q,Q
2023-03-14 21:29:35:69,0,-7.52332,9.05943,-52.1467,Q,Q
2023-03-14 21:29:35:79,0,-7.52051,9.07806,-52.1897,Q,Q
2023-03-14 21:29:35:89,0,-7.49981,9.08686,-52.2255,Q,Q
2023-03-14 21:29:35:99,0,-7.46132,9.08196,-52.2508,Q,Q
2023-03-14 21:29:35:109,0,-7.40555,9.05471,-52.2586,Q,Q
2023-03-14 21:29:35:119,0,-7.33354,9.00683,-52.2508,Q,Q
2023-03-14 21:29:35:129,0,-7.25893,8.94049,-52.2295,Q,Q
2023-03-14 21:29:35:139,0,-7.19072,8.86841,-52.2065,Q,Q
2023-03-14 21:29:35:149,0,-7.12733,8.79762,-52.1789,Q,Q
2023-03-14 21:29:35:159,0,-7.06437,8.73784,-52.1473,Q,Q
2023-03-14 21:29:35:169,0,-7.0092,8.69992,-52.1199,Q,Q
2023-03-14 21:29:35:179,0,-6.9636,8.68447,-52.1034,Q,Q
2023-03-14 21:29:35:189,0,-6.92745,8.69589,-52.096,Q,Q
2023-03-14 21:29:35:199,0,-6.90871,8.73062,-52.0967,Q,Q
2023-03-14 21:29:35:209,0,-6.88491,8.78656,-52.0956,Q,Q
2023-03-14 21:29:35:219,0,-6.86534,8.85943,-52.0968,Q,Q
2023-03-14 21:29:35:229,0,-6.8397,8.94254,-52.0912,Q,Q
