Timestamp_cmd,imu_cmd,roll_delta,pitch_delta,yaw_delta
2023-03-11 00:00:45:359,0,3.37622,-8.28255,87.7277
2023-03-11 00:00:45:367,0,3.37482,-8.28472,87.699
2023-03-11 00:00:45:377,0,3.37315,-8.28619,87.6677
2023-03-11 00:00:45:387,0,3.37238,-8.28548,87.6405
2023-03-11 00:00:45:397,0,3.36789,-8.28374,87.608
2023-03-11 00:00:45:407,0,3.36191,-8.28272,87.5764
2023-03-11 00:00:45:418,0,3.36647,-8.28278,87.5444
2023-03-11 00:00:45:427,0,3.37458,-8.28413,87.5191
2023-03-11 00:00:45:437,0,3.38458,-8.28921,87.5011
2023-03-11 00:00:45:447,0,3.39522,-8.29098,87.4827
2023-03-11 00:00:45:457,0,3.41189,-8.28829,87.4672
2023-03-11 00:00:45:467,0,3.42845,-8.28334,87.4554
2023-03-11 00:00:45:477,0,3.44788,-8.27668,87.4514
2023-03-11 00:00:45:487,0,3.47357,-8.2738,87.4539
2023-03-11 00:00:45:497,0,3.49242,-8.26964,87.4641
2023-03-11 00:00:45:507,0,3.50847,-8.27211,87.4783
2023-03-11 00:00:45:517,0,3.52232,-8.27827,87.4975
2023-03-11 00:00:45:527,0,3.53536,-8.28453,87.5132
2023-03-11 00:00:45:537,0,3.54767,-8.28857,87.5226
2023-03-11 00:00:45:547,0,3.558,-8.29466,87.5311
2023-03-11 00:00:45:557,0,3.5665,-8.3,87.5351
2023-03-11 00:00:45:567,0,3.57689,-8.3024,87.5317
2023-03-11 00:00:45:577,0,3.58152,-8.30425,87.5276
2023-03-11 00:00:45:587,0,3.58057,-8.30393,87.5253
2023-03-11 00:00:45:597,0,3.57948,-8.30085,87.5223
2023-03-11 00:00:45:607,0,3.57987,-8.29777,87.5177
2023-03-11 00:00:45:617,0,3.57812,-8.29269,87.5168
2023-03-11 00:00:45:627,0,3.57119,-8.29162,87.5206
2023-03-11 00:00:45:637,0,3.56536,-8.29131,87.5277
2023-03-11 00:00:45:647,0,3.5534,-8.29258,87.5397
2023-03-11 00:00:45:658,0,3.54087,-8.29215,87.5469
2023-03-11 00:00:45:667,0,3.52521,-8.28837,87.5534
2023-03-11 00:00:45:678,0,3.50751,-8.28206,87.5608
2023-03-11 00:00:45:687,0,3.49427,-8.27897,87.5631
2023-03-11 00:00:45:697,0,3.47867,-8.28346,87.5698
2023-03-11 00:00:45:707,0,3.46025,-8.28894,87.5739
2023-03-11 00:00:45:717,0,3.44299,-8.29548,87.5822
2023-03-11 00:00:45:727,0,3.42672,-8.29992,87.5872
2023-03-11 00:00:45:737,0,3.41251,-8.30229,87.5916
2023-03-11 00:00:45:747,0,3.39687,-8.30649,87.5987
2023-03-11 00:00:45:757,0,3.38412,-8.30647,87.6075
2023-03-11 00:00:45:767,0,3.36961,-8.31017,87.6182
2023-03-11 00:00:45:777,0,3.35754,-8.3145,87.6295
2023-03-11 00:00:45:787,0,3.34801,-8.32167,87.6426
2023-03-11 00:00:45:797,0,3.33781,-8.32735,87.6529
2023-03-11 00:00:45:807,0,3.33456,-8.33379,87.6629
2023-03-11 00:00:45:817,0,3.3385,-8.34256,87.6704
2023-03-11 00:00:45:827,0,3.34552,-8.35258,87.6767
2023-03-11 00:00:45:837,0,3.34846,-8.36641,87.6863
2023-03-11 00:00:45:847,0,3.35194,-8.37797,87.6945
2023-03-11 00:00:45:857,0,3.35308,-8.3938,87.6997
2023-03-11 00:00:45:867,0,3.34983,-8.40525,87.7058
2023-03-11 00:00:45:877,0,3.34066,-8.41518,87.713
2023-03-11 00:00:45:887,0,3.32641,-8.42542,87.7233
2023-03-11 00:00:45:897,0,3.31225,-8.43664,87.7328
2023-03-11 00:00:45:907,0,3.29527,-8.44835,87.7494
2023-03-11 00:00:45:917,0,3.2799,-8.45703,87.766
2023-03-11 00:00:45:927,0,3.26142,-8.4625,87.7855
2023-03-11 00:00:45:937,0,3.24394,-8.47306,87.8028
2023-03-11 00:00:45:947,0,3.22032,-8.4801,87.8236
2023-03-11 00:00:45:957,0,3.20394,-8.48696,87.8418
2023-03-11 00:00:45:967,0,3.18856,-8.48988,87.8589
2023-03-11 00:00:45:977,0,3.1705,-8.49422,87.8769
2023-03-11 00:00:45:987,0,3.15187,-8.49348,87.8931
2023-03-11 00:00:45:997,0,3.13479,-8.494,87.9143
2023-03-11 00:00:46:7,0,3.11843,-8.4954,87.9289
2023-03-11 00:00:46:17,0,3.10226,-8.49552,87.948
2023-03-11 00:00:46:27,0,3.09152,-8.49298,87.9697
2023-03-11 00:00:46:37,0,3.0766,-8.49077,87.9896
2023-03-11 00:00:46:47,0,3.06152,-8.48612,88.0064
2023-03-11 00:00:46:57,0,3.04325,-8.48175,88.0259
2023-03-11 00:00:46:67,0,3.02225,-8.47763,88.05
2023-03-11 00:00:46:77,0,3.00425,-8.47617,88.0692
2023-03-11 00:00:46:87,0,2.989,-8.47143,88.0867
2023-03-11 00:00:46:97,0,2.97483,-8.46943,88.1003
2023-03-11 00:00:46:107,0,2.96413,-8.46845,88.11
2023-03-11 00:00:46:117,0,2.95808,-8.46834,88.1159
2023-03-11 00:00:46:127,0,2.95087,-8.46475,88.1195
2023-03-11 00:00:46:137,0,2.94401,-8.46282,88.1227
2023-03-11 00:00:46:147,0,2.93766,-8.46403,88.1236
2023-03-11 00:00:46:157,0,2.93396,-8.46119,88.1221
2023-03-11 00:00:46:167,0,2.93139,-8.45822,88.1183
2023-03-11 00:00:46:177,0,2.92989,-8.45214,88.1212
2023-03-11 00:00:46:187,0,2.92428,-8.44373,88.1233
2023-03-11 00:00:46:197,0,2.91841,-8.43554,88.1194
2023-03-11 00:00:46:207,0,2.90951,-8.42968,88.1165
2023-03-11 00:00:46:217,0,2.90072,-8.4226,88.1116
2023-03-11 00:00:46:227,0,2.88993,-8.41847,88.1111
2023-03-11 00:00:46:237,0,2.87588,-8.41831,88.1137
2023-03-11 00:00:46:247,0,2.86457,-8.41828,88.1173
2023-03-11 00:00:46:257,0,2.85667,-8.41307,88.1208
2023-03-11 00:00:46:267,0,2.8496,-8.40929,88.1247
2023-03-11 00:00:46:277,0,2.84084,-8.40027,88.1299
2023-03-11 00:00:46:287,0,2.83594,-8.39429,88.1337
2023-03-11 00:00:46:297,0,2.82852,-8.38869,88.1378
2023-03-11 00:00:46:307,0,2.82083,-8.38339,88.144
2023-03-11 00:00:46:317,0,2.81816,-8.38036,88.1491
2023-03-11 00:00:46:327,0,2.81208,-8.37848,88.1519
2023-03-11 00:00:46:337,0,2.8065,-8.3794,88.1578
2023-03-11 00:00:46:347,0,2.80292,-8.38267,88.1646
2023-03-11 00:00:46:358,0,2.80229,-8.38333,88.1737
2023-03-11 00:00:46:367,0,2.79503,-8.38201,88.1804
2023-03-11 00:00:46:377,0,2.78898,-8.38185,88.1908
2023-03-11 00:00:46:387,0,2.78251,-8.38059,88.2025
2023-03-11 00:00:46:398,0,2.77407,-8.38764,88.2204
2023-03-11 00:00:46:407,0,2.76574,-8.39709,88.246
2023-03-11 00:00:46:417,0,2.75793,-8.40644,88.2744
2023-03-11 00:00:46:427,0,2.74199,-8.4173,88.3033
2023-03-11 00:00:46:438,0,2.73152,-8.42104,88.3357
2023-03-11 00:00:46:447,0,2.7177,-8.42259,88.3709
2023-03-11 00:00:46:457,0,2.6976,-8.42385,88.4132
2023-03-11 00:00:46:467,0,2.67627,-8.42509,88.4619
2023-03-11 00:00:46:478,0,2.65116,-8.42796,88.5146
2023-03-11 00:00:46:487,0,2.62529,-8.43147,88.5757
2023-03-11 00:00:46:498,0,2.60308,-8.43493,88.6428
2023-03-11 00:00:46:507,0,2.58494,-8.43663,88.7166
2023-03-11 00:00:46:518,0,2.56364,-8.43419,88.7918
2023-03-11 00:00:46:527,0,2.54485,-8.42691,88.8762
2023-03-11 00:00:46:538,0,2.52285,-8.42087,88.9635
2023-03-11 00:00:46:548,0,2.49515,-8.41655,89.0532
2023-03-11 00:00:46:557,0,2.46441,-8.4141,89.1428
2023-03-11 00:00:46:567,0,2.43361,-8.41107,89.2298
2023-03-11 00:00:46:578,0,2.40633,-8.40926,89.3151
2023-03-11 00:00:46:587,0,2.38327,-8.40276,89.3883
2023-03-11 00:00:46:598,0,2.35977,-8.40472,89.463
2023-03-11 00:00:46:607,0,2.34096,-8.40736,89.5316
2023-03-11 00:00:46:618,0,2.32724,-8.40972,89.5911
2023-03-11 00:00:46:627,0,2.3146,-8.4129,89.6402
2023-03-11 00:00:46:638,0,2.30055,-8.41223,89.6814
2023-03-11 00:00:46:647,0,2.28919,-8.41031,89.7119
2023-03-11 00:00:46:658,0,2.28211,-8.41217,89.7312
2023-03-11 00:00:46:667,0,2.28011,-8.4208,89.7473
2023-03-11 00:00:46:678,0,2.27519,-8.43252,89.7581
2023-03-11 00:00:46:687,0,2.27504,-8.44916,89.7598
2023-03-11 00:00:46:698,0,2.27661,-8.46477,89.7558
2023-03-11 00:00:46:707,0,2.27484,-8.4751,89.7505
2023-03-11 00:00:46:718,0,2.27817,-8.48331,89.7377
2023-03-11 00:00:46:727,0,2.27864,-8.49244,89.7307
2023-03-11 00:00:46:737,0,2.27984,-8.50313,89.7229
2023-03-11 00:00:46:747,0,2.28478,-8.51215,89.7153
2023-03-11 00:00:46:758,0,2.28729,-8.52076,89.7085
2023-03-11 00:00:46:767,0,2.28804,-8.52627,89.7054
2023-03-11 00:00:46:777,0,2.29119,-8.53014,89.7027
2023-03-11 00:00:46:787,0,2.29093,-8.5353,89.7022
2023-03-11 00:00:46:798,0,2.29064,-8.54328,89.7048
2023-03-11 00:00:46:807,0,2.29089,-8.54547,89.7067
2023-03-11 00:00:46:818,0,2.2887,-8.55124,89.7081
2023-03-11 00:00:46:827,0,2.28621,-8.55843,89.7069
2023-03-11 00:00:46:837,0,2.28754,-8.56704,89.7034
2023-03-11 00:00:46:847,0,2.28898,-8.5757,89.6997
2023-03-11 00:00:46:858,0,2.28931,-8.58679,89.6946
2023-03-11 00:00:46:868,0,2.28891,-8.59549,89.6901
2023-03-11 00:00:46:878,0,2.28216,-8.60529,89.6894
2023-03-11 00:00:46:887,0,2.27044,-8.61681,89.6903
2023-03-11 00:00:46:898,0,2.25673,-8.62922,89.6914
2023-03-11 00:00:46:907,0,2.23819,-8.64173,89.6916
2023-03-11 00:00:46:918,0,2.22255,-8.65321,89.6894
2023-03-11 00:00:46:927,0,2.2073,-8.66009,89.688
2023-03-11 00:00:46:937,0,2.19102,-8.66044,89.6827
2023-03-11 00:00:46:947,0,2.1728,-8.65776,89.6736
2023-03-11 00:00:46:957,0,2.15562,-8.65387,89.6644
2023-03-11 00:00:46:967,0,2.13475,-8.64822,89.6562
2023-03-11 00:00:46:977,0,2.1174,-8.63901,89.6493
2023-03-11 00:00:46:987,0,2.09475,-8.63227,89.6459
2023-03-11 00:00:46:997,0,2.06848,-8.61491,89.645
2023-03-11 00:00:47:7,0,2.0368,-8.5922,89.6471
2023-03-11 00:00:47:17,0,2.00548,-8.5665,89.6511
2023-03-11 00:00:47:27,0,1.96839,-8.53766,89.661
2023-03-11 00:00:47:37,0,1.93527,-8.5055,89.6732
2023-03-11 00:00:47:47,0,1.90705,-8.47136,89.692
2023-03-11 00:00:47:58,0,1.88313,-8.44377,89.7126
2023-03-11 00:00:47:67,0,1.86868,-8.4151,89.7404
2023-03-11 00:00:47:78,0,1.85085,-8.39497,89.7779
2023-03-11 00:00:47:87,0,1.83077,-8.38074,89.8239
2023-03-11 00:00:47:98,0,1.79876,-8.37415,89.8789
2023-03-11 00:00:47:107,0,1.74838,-8.37346,89.9451
2023-03-11 00:00:47:118,0,1.67697,-8.37299,90.0237
2023-03-11 00:00:47:127,0,1.58465,-8.37282,90.1055
2023-03-11 00:00:47:137,0,1.47323,-8.37493,90.2004
2023-03-11 00:00:47:147,0,1.34613,-8.37696,90.3087
2023-03-11 00:00:47:158,0,1.20298,-8.3899,90.4231
2023-03-11 00:00:47:167,0,1.06246,-8.40187,90.5462
2023-03-11 00:00:47:177,0,0.928265,-8.41697,90.6713
2023-03-11 00:00:47:187,0,0.788011,-8.42896,90.7983
2023-03-11 00:00:47:198,0,0.638143,-8.44049,90.9203
2023-03-11 00:00:47:207,0,0.475274,-8.45351,91.0413
2023-03-11 00:00:47:218,0,0.29067,-8.46448,91.1547
2023-03-11 00:00:47:227,0,0.104496,-8.47553,91.2546
2023-03-11 00:00:47:238,0,-0.0736013,-8.48333,91.3425
2023-03-11 00:00:47:247,0,-0.231504,-8.48739,91.419
2023-03-11 00:00:47:258,0,-0.362106,-8.49509,91.4865
2023-03-11 00:00:47:267,0,-0.478126,-8.50511,91.5379
2023-03-11 00:00:47:277,0,-0.583648,-8.51966,91.5855
2023-03-11 00:00:47:287,0,-0.678493,-8.547,91.6271
2023-03-11 00:00:47:297,0,-0.767662,-8.58606,91.6649
2023-03-11 00:00:47:307,0,-0.844978,-8.63298,91.6898
2023-03-11 00:00:47:318,0,-0.907837,-8.68542,91.7053
2023-03-11 00:00:47:327,0,-0.958757,-8.73847,91.7178
2023-03-11 00:00:47:338,0,-1.00212,-8.79388,91.7253
2023-03-11 00:00:47:348,0,-1.03972,-8.84282,91.7332
2023-03-11 00:00:47:358,0,-1.06169,-8.87654,91.7375
2023-03-11 00:00:47:367,0,-1.07746,-8.90234,91.7396
2023-03-11 00:00:47:378,0,-1.08917,-8.91303,91.7444
2023-03-11 00:00:47:387,0,-1.10115,-8.91106,91.7502
2023-03-11 00:00:47:398,0,-1.11658,-8.90302,91.7544
2023-03-11 00:00:47:407,0,-1.13771,-8.89335,91.761
2023-03-11 00:00:47:417,0,-1.16026,-8.88491,91.7625
2023-03-11 00:00:47:427,0,-1.18027,-8.86633,91.7571
2023-03-11 00:00:47:437,0,-1.20053,-8.8518,91.758
2023-03-11 00:00:47:447,0,-1.21977,-8.84514,91.7664
2023-03-11 00:00:47:457,0,-1.25202,-8.85072,91.7804
2023-03-11 00:00:47:467,0,-1.28673,-8.86545,91.7896
2023-03-11 00:00:47:478,0,-1.33312,-8.88047,91.7954
2023-03-11 00:00:47:488,0,-1.37802,-8.89385,91.7986
2023-03-11 00:00:47:497,0,-1.43114,-8.90413,91.7895
2023-03-11 00:00:47:507,0,-1.46667,-8.92441,91.7817
2023-03-11 00:00:47:518,0,-1.48625,-8.94505,91.7672
2023-03-11 00:00:47:527,0,-1.49093,-8.96572,91.764
2023-03-11 00:00:47:537,0,-1.48018,-8.98197,91.7755
2023-03-11 00:00:47:547,0,-1.46092,-9.00768,91.7892
2023-03-11 00:00:47:557,0,-1.45151,-9.04096,91.8092
2023-03-11 00:00:47:567,0,-1.45918,-9.0674,91.8353
2023-03-11 00:00:47:578,0,-1.46921,-9.08442,91.8578
2023-03-11 00:00:47:587,0,-1.46786,-9.08747,91.8789
2023-03-11 00:00:47:598,0,-1.44921,-9.08772,91.8956
2023-03-11 00:00:47:608,0,-1.42029,-9.09305,91.9149
2023-03-11 00:00:47:618,0,-1.39157,-9.10963,91.9413
2023-03-11 00:00:47:627,0,-1.37211,-9.13385,91.9698
2023-03-11 00:00:47:638,0,-1.3598,-9.16537,92.0001
2023-03-11 00:00:47:647,0,-1.35674,-9.20027,92.0258
2023-03-11 00:00:47:658,0,-1.36048,-9.23125,92.0476
2023-03-11 00:00:47:667,0,-1.36695,-9.26313,92.0596
2023-03-11 00:00:47:677,0,-1.36809,-9.29121,92.0619
2023-03-11 00:00:47:687,0,-1.36355,-9.31214,92.0539
2023-03-11 00:00:47:698,0,-1.35491,-9.32446,92.0379
2023-03-11 00:00:47:707,0,-1.33809,-9.32815,92.0155
2023-03-11 00:00:47:717,0,-1.31853,-9.32966,91.9842
2023-03-11 00:00:47:727,0,-1.29238,-9.32869,91.9521
2023-03-11 00:00:47:738,0,-1.26737,-9.32161,91.9223
2023-03-11 00:00:47:747,0,-1.24042,-9.30811,91.8939
2023-03-11 00:00:47:758,0,-1.20788,-9.29213,91.8655
2023-03-11 00:00:47:767,0,-1.17063,-9.27034,91.8457
2023-03-11 00:00:47:778,0,-1.12061,-9.24441,91.8314
2023-03-11 00:00:47:787,0,-1.06054,-9.21155,91.8228
2023-03-11 00:00:47:797,0,-0.988561,-9.17631,91.8172
2023-03-11 00:00:47:807,0,-0.912237,-9.13954,91.8191
2023-03-11 00:00:47:817,0,-0.8292,-9.10032,91.8281
2023-03-11 00:00:47:827,0,-0.74786,-9.06631,91.8444
2023-03-11 00:00:47:837,0,-0.661167,-9.0362,91.8627
2023-03-11 00:00:47:847,0,-0.568301,-9.00912,91.8818
2023-03-11 00:00:47:857,0,-0.475736,-8.98676,91.908
2023-03-11 00:00:47:867,0,-0.381097,-8.9704,91.9362
2023-03-11 00:00:47:878,0,-0.288966,-8.96031,91.9686
2023-03-11 00:00:47:887,0,-0.199232,-8.95236,91.9936
2023-03-11 00:00:47:898,0,-0.111363,-8.94945,92.019
2023-03-11 00:00:47:907,0,-0.0335215,-8.94493,92.0422
2023-03-11 00:00:47:918,0,0.0367646,-8.9406,92.0622
2023-03-11 00:00:47:927,0,0.10403,-8.93512,92.078
2023-03-11 00:00:47:937,0,0.163216,-8.93238,92.0898
2023-03-11 00:00:47:948,0,0.215685,-8.93139,92.1015
2023-03-11 00:00:47:957,0,0.264501,-8.92895,92.1147
2023-03-11 00:00:47:968,0,0.304437,-8.92364,92.1282
2023-03-11 00:00:47:978,0,0.339817,-8.91376,92.1393
2023-03-11 00:00:47:987,0,0.36626,-8.90815,92.1546
2023-03-11 00:00:47:998,0,0.393165,-8.90321,92.1691
2023-03-11 00:00:48:7,0,0.417064,-8.90128,92.1875
2023-03-11 00:00:48:18,0,0.438608,-8.8988,92.207
2023-03-11 00:00:48:27,0,0.451073,-8.8995,92.2231
2023-03-11 00:00:48:37,0,0.459268,-8.90271,92.2372
2023-03-11 00:00:48:47,0,0.455824,-8.90723,92.2471
2023-03-11 00:00:48:58,0,0.446389,-8.91377,92.2521
2023-03-11 00:00:48:67,0,0.433355,-8.92577,92.2523
2023-03-11 00:00:48:78,0,0.424382,-8.94199,92.2474
2023-03-11 00:00:48:87,0,0.414921,-8.95907,92.2392
2023-03-11 00:00:48:98,0,0.402633,-8.97466,92.2288
2023-03-11 00:00:48:107,0,0.386848,-8.99107,92.2205
2023-03-11 00:00:48:118,0,0.377183,-8.99961,92.2079
2023-03-11 00:00:48:127,0,0.364902,-9.00404,92.2015
2023-03-11 00:00:48:137,0,0.347939,-9.00516,92.2003
2023-03-11 00:00:48:147,0,0.327447,-9.00559,92.2093
2023-03-11 00:00:48:157,0,0.303002,-9.00607,92.2204
2023-03-11 00:00:48:167,0,0.269195,-9.00225,92.2386
2023-03-11 00:00:48:177,0,0.221077,-8.99723,92.2671
2023-03-11 00:00:48:187,0,0.163907,-8.99175,92.2967
2023-03-11 00:00:48:197,0,0.104953,-8.98944,92.3236
2023-03-11 00:00:48:208,0,0.0511305,-8.98939,92.3491
2023-03-11 00:00:48:218,0,0.0109801,-8.99021,92.3642
2023-03-11 00:00:48:227,0,-0.0194876,-8.99216,92.3758
2023-03-11 00:00:48:238,0,-0.0439273,-8.99709,92.3801
2023-03-11 00:00:48:247,0,-0.0697595,-9.00874,92.3815
2023-03-11 00:00:48:258,0,-0.0900949,-9.01749,92.3801
2023-03-11 00:00:48:267,0,-0.106005,-9.02918,92.3709
2023-03-11 00:00:48:278,0,-0.119958,-9.03633,92.3579
2023-03-11 00:00:48:287,0,-0.134763,-9.04246,92.3418
2023-03-11 00:00:48:298,0,-0.144453,-9.04788,92.3256
2023-03-11 00:00:48:307,0,-0.149979,-9.04817,92.3095
2023-03-11 00:00:48:317,0,-0.147211,-9.0443,92.2922
2023-03-11 00:00:48:327,0,-0.140989,-9.03865,92.2764
2023-03-11 00:00:48:338,0,-0.137088,-9.03555,92.2615
2023-03-11 00:00:48:347,0,-0.132702,-9.0277,92.2475
2023-03-11 00:00:48:358,0,-0.123952,-9.02018,92.2356
2023-03-11 00:00:48:367,0,-0.115035,-9.01379,92.2282
2023-03-11 00:00:48:378,0,-0.10828,-9.00703,92.2218
2023-03-11 00:00:48:387,0,-0.101716,-9.0008,92.2124
2023-03-11 00:00:48:398,0,-0.096703,-8.99199,92.1963
2023-03-11 00:00:48:407,0,-0.0876162,-8.98124,92.18
2023-03-11 00:00:48:418,0,-0.0780006,-8.96726,92.1609
2023-03-11 00:00:48:427,0,-0.0731144,-8.95655,92.139
2023-03-11 00:00:48:438,0,-0.0692587,-8.95267,92.1199
2023-03-11 00:00:48:447,0,-0.0654383,-8.95153,92.1052
2023-03-11 00:00:48:457,0,-0.0601551,-8.95009,92.0883
2023-03-11 00:00:48:467,0,-0.0507031,-8.94327,92.0722
2023-03-11 00:00:48:478,0,-0.041814,-8.92966,92.0499
2023-03-11 00:00:48:487,0,-0.0377741,-8.91378,92.0301
2023-03-11 00:00:48:498,0,-0.0292818,-8.8969,92.0063
2023-03-11 00:00:48:507,0,-0.0169694,-8.87929,91.9813
2023-03-11 00:00:48:518,0,-0.00317257,-8.86184,91.9522
2023-03-11 00:00:48:527,0,0.0102866,-8.84417,91.9224
2023-03-11 00:00:48:538,0,0.026069,-8.82424,91.8924
2023-03-11 00:00:48:547,0,0.0446289,-8.81183,91.8578
2023-03-11 00:00:48:558,0,0.0674454,-8.8028,91.8236
2023-03-11 00:00:48:568,0,0.0948543,-8.79333,91.7884
2023-03-11 00:00:48:578,0,0.123482,-8.78697,91.7527
2023-03-11 00:00:48:588,0,0.148425,-8.78453,91.7198
2023-03-11 00:00:48:598,0,0.168282,-8.78047,91.6895
2023-03-11 00:00:48:607,0,0.182112,-8.77331,91.6605
2023-03-11 00:00:48:618,0,0.189449,-8.77304,91.6308
2023-03-11 00:00:48:627,0,0.19186,-8.77247,91.6055
2023-03-11 00:00:48:637,0,0.193281,-8.76989,91.5768
2023-03-11 00:00:48:647,0,0.191962,-8.77024,91.55
2023-03-11 00:00:48:658,0,0.195348,-8.76846,91.5282
2023-03-11 00:00:48:667,0,0.199258,-8.76486,91.5054
2023-03-11 00:00:48:678,0,0.205036,-8.75365,91.482
2023-03-11 00:00:48:687,0,0.213484,-8.74543,91.4599
2023-03-11 00:00:48:697,0,0.219591,-8.73748,91.44
2023-03-11 00:00:48:707,0,0.226087,-8.73429,91.4261
2023-03-11 00:00:48:718,0,0.233752,-8.73554,91.41
2023-03-11 00:00:48:727,0,0.241881,-8.7351,91.3917
2023-03-11 00:00:48:738,0,0.256772,-8.72893,91.3755
2023-03-11 00:00:48:747,0,0.275297,-8.72205,91.3591
2023-03-11 00:00:48:758,0,0.296686,-8.71233,91.3404
2023-03-11 00:00:48:767,0,0.320992,-8.70408,91.327
2023-03-11 00:00:48:778,0,0.35021,-8.69466,91.314
2023-03-11 00:00:48:787,0,0.384208,-8.68069,91.3055
2023-03-11 00:00:48:798,0,0.420169,-8.66783,91.2972
2023-03-11 00:00:48:807,0,0.456307,-8.66293,91.2915
2023-03-11 00:00:48:817,0,0.489486,-8.6589,91.2851
2023-03-11 00:00:48:827,0,0.519941,-8.65636,91.2829
2023-03-11 00:00:48:838,0,0.549651,-8.64983,91.2837
2023-03-11 00:00:48:847,0,0.58373,-8.64679,91.2817
2023-03-11 00:00:48:858,0,0.616625,-8.63902,91.2779
2023-03-11 00:00:48:867,0,0.646197,-8.63731,91.2695
2023-03-11 00:00:48:878,0,0.673031,-8.63185,91.263
2023-03-11 00:00:48:887,0,0.696604,-8.6312,91.2507
2023-03-11 00:00:48:898,0,0.720511,-8.62621,91.2352
2023-03-11 00:00:48:907,0,0.742653,-8.62214,91.2188
2023-03-11 00:00:48:918,0,0.760938,-8.61791,91.1986
2023-03-11 00:00:48:927,0,0.781662,-8.6123,91.171
2023-03-11 00:00:48:938,0,0.7977,-8.60607,91.1433
2023-03-11 00:00:48:947,0,0.808806,-8.59764,91.1181
2023-03-11 00:00:48:958,0,0.818016,-8.58631,91.0911
2023-03-11 00:00:48:967,0,0.820494,-8.57957,91.0709
2023-03-11 00:00:48:978,0,0.82295,-8.57033,91.0466
2023-03-11 00:00:48:987,0,0.825247,-8.56018,91.0216
2023-03-11 00:00:48:997,0,0.827381,-8.54427,91.0022
2023-03-11 00:00:49:7,0,0.833784,-8.52822,90.9812
2023-03-11 00:00:49:18,0,0.840523,-8.51611,90.9611
2023-03-11 00:00:49:27,0,0.845773,-8.50785,90.9428
2023-03-11 00:00:49:38,0,0.847773,-8.5009,90.9251
2023-03-11 00:00:49:47,0,0.844494,-8.49762,90.9119
2023-03-11 00:00:49:57,0,0.837829,-8.49813,90.8985
2023-03-11 00:00:49:67,0,0.834813,-8.49953,90.8838
2023-03-11 00:00:49:78,0,0.83505,-8.5002,90.8737
2023-03-11 00:00:49:88,0,0.837687,-8.50263,90.8665
2023-03-11 00:00:49:98,0,0.842172,-8.50485,90.8679
2023-03-11 00:00:49:107,0,0.849309,-8.51319,90.8714
2023-03-11 00:00:49:117,0,0.857555,-8.52291,90.8773
2023-03-11 00:00:49:127,0,0.86368,-8.53183,90.8844
2023-03-11 00:00:49:137,0,0.874473,-8.54203,90.8964
2023-03-11 00:00:49:147,0,0.887269,-8.55218,90.9074
2023-03-11 00:00:49:158,0,0.899388,-8.56118,90.9206
2023-03-11 00:00:49:167,0,0.911583,-8.57487,90.9353
2023-03-11 00:00:49:177,0,0.926419,-8.58458,90.9501
2023-03-11 00:00:49:187,0,0.942879,-8.59994,90.9652
2023-03-11 00:00:49:198,0,0.958057,-8.60825,90.9834
2023-03-11 00:00:49:207,0,0.973855,-8.61378,90.9977
2023-03-11 00:00:49:218,0,0.989405,-8.61964,91.0109
2023-03-11 00:00:49:227,0,1.00633,-8.61908,91.0215
2023-03-11 00:00:49:238,0,1.02025,-8.61572,91.034
2023-03-11 00:00:49:247,0,1.03437,-8.61244,91.0456
2023-03-11 00:00:49:258,0,1.04545,-8.60337,91.0552
2023-03-11 00:00:49:267,0,1.05698,-8.59502,91.0636
2023-03-11 00:00:49:277,0,1.06311,-8.58477,91.0673
2023-03-11 00:00:49:287,0,1.07046,-8.57488,91.0623
2023-03-11 00:00:49:297,0,1.07894,-8.56556,91.0535
2023-03-11 00:00:49:307,0,1.08372,-8.55457,91.0335
2023-03-11 00:00:49:317,0,1.08348,-8.54298,91.0056
2023-03-11 00:00:49:327,0,1.0816,-8.53206,90.9702
2023-03-11 00:00:49:337,0,1.08046,-8.5259,90.925
2023-03-11 00:00:49:347,0,1.08437,-8.51943,90.87
2023-03-11 00:00:49:357,0,1.08818,-8.51848,90.8163
2023-03-11 00:00:49:367,0,1.08933,-8.52083,90.7581
2023-03-11 00:00:49:377,0,1.09511,-8.52572,90.6945
2023-03-11 00:00:49:387,0,1.10122,-8.52788,90.6349
2023-03-11 00:00:49:397,0,1.11091,-8.53171,90.5761
2023-03-11 00:00:49:407,0,1.12202,-8.53149,90.521
2023-03-11 00:00:49:417,0,1.13781,-8.53471,90.4748
2023-03-11 00:00:49:427,0,1.15556,-8.53688,90.4348
2023-03-11 00:00:49:437,0,1.17717,-8.53526,90.4031
2023-03-11 00:00:49:447,0,1.20206,-8.52649,90.3793
2023-03-11 00:00:49:457,0,1.22469,-8.52194,90.3613
2023-03-11 00:00:49:467,0,1.24328,-8.51826,90.3533
2023-03-11 00:00:49:477,0,1.25896,-8.51553,90.3483
2023-03-11 00:00:49:487,0,1.26849,-8.5134,90.3537
2023-03-11 00:00:49:497,0,1.27767,-8.50974,90.3673
2023-03-11 00:00:49:507,0,1.28553,-8.51044,90.3889
2023-03-11 00:00:49:517,0,1.29408,-8.51368,90.4091
2023-03-11 00:00:49:527,0,1.3065,-8.51588,90.4284
2023-03-11 00:00:49:537,0,1.31694,-8.52392,90.4535
2023-03-11 00:00:49:547,0,1.3293,-8.53061,90.4761
2023-03-11 00:00:49:557,0,1.33948,-8.53698,90.496
2023-03-11 00:00:49:567,0,1.3494,-8.54869,90.5142
2023-03-11 00:00:49:577,0,1.35935,-8.56588,90.5349
2023-03-11 00:00:49:587,0,1.36681,-8.5798,90.5529
2023-03-11 00:00:49:597,0,1.37667,-8.5908,90.5654
2023-03-11 00:00:49:607,0,1.387,-8.59665,90.5745
2023-03-11 00:00:49:617,0,1.39861,-8.60386,90.58
2023-03-11 00:00:49:627,0,1.41136,-8.61272,90.5841
2023-03-11 00:00:49:637,0,1.42398,-8.62594,90.5871
2023-03-11 00:00:49:647,0,1.43536,-8.63463,90.5835
2023-03-11 00:00:49:657,0,1.44891,-8.64518,90.5801
2023-03-11 00:00:49:667,0,1.45977,-8.65459,90.5716
2023-03-11 00:00:49:677,0,1.47068,-8.66317,90.5598
2023-03-11 00:00:49:687,0,1.48107,-8.66807,90.5504
2023-03-11 00:00:49:697,0,1.49699,-8.66948,90.5359
2023-03-11 00:00:49:707,0,1.51151,-8.67174,90.5245
2023-03-11 00:00:49:717,0,1.52768,-8.67655,90.5125
2023-03-11 00:00:49:727,0,1.54514,-8.67693,90.4997
2023-03-11 00:00:49:737,0,1.56168,-8.67844,90.4922
2023-03-11 00:00:49:747,0,1.58409,-8.67958,90.481
2023-03-11 00:00:49:757,0,1.60306,-8.67889,90.4713
2023-03-11 00:00:49:767,0,1.61935,-8.67879,90.467
2023-03-11 00:00:49:777,0,1.63591,-8.67755,90.4628
2023-03-11 00:00:49:787,0,1.64954,-8.67849,90.4586
2023-03-11 00:00:49:797,0,1.66176,-8.68061,90.4637
2023-03-11 00:00:49:807,0,1.6703,-8.6847,90.4716
2023-03-11 00:00:49:817,0,1.67422,-8.68976,90.4897
2023-03-11 00:00:49:827,0,1.67868,-8.69537,90.5167
2023-03-11 00:00:49:837,0,1.68565,-8.69836,90.5489
2023-03-11 00:00:49:847,0,1.69756,-8.70476,90.5852
2023-03-11 00:00:49:857,0,1.70536,-8.70725,90.6285
2023-03-11 00:00:49:867,0,1.72183,-8.71035,90.6687
2023-03-11 00:00:49:877,0,1.735,-8.71903,90.7114
2023-03-11 00:00:49:887,0,1.73862,-8.72675,90.7555
2023-03-11 00:00:49:897,0,1.73415,-8.73947,90.7968
2023-03-11 00:00:49:907,0,1.72807,-8.75249,90.8369
2023-03-11 00:00:49:917,0,1.71582,-8.76727,90.8776
2023-03-11 00:00:49:927,0,1.70625,-8.78528,90.9173
2023-03-11 00:00:49:938,0,1.69477,-8.80339,90.9548
2023-03-11 00:00:49:947,0,1.68697,-8.82084,90.9915
2023-03-11 00:00:49:957,0,1.68812,-8.83146,91.0218
2023-03-11 00:00:49:967,0,1.69673,-8.83964,91.048
2023-03-11 00:00:49:977,0,1.71499,-8.84312,91.0687
2023-03-11 00:00:49:987,0,1.74193,-8.84789,91.0862
2023-03-11 00:00:49:997,0,1.77029,-8.85323,91.1032
2023-03-11 00:00:50:7,0,1.79952,-8.85645,91.1212
2023-03-11 00:00:50:17,0,1.82808,-8.85276,91.1407
2023-03-11 00:00:50:27,0,1.86285,-8.84418,91.1562
2023-03-11 00:00:50:38,0,1.89893,-8.83252,91.1679
2023-03-11 00:00:50:47,0,1.93139,-8.81934,91.1771
2023-03-11 00:00:50:58,0,1.96335,-8.80012,91.186
2023-03-11 00:00:50:67,0,1.99169,-8.78004,91.188
2023-03-11 00:00:50:78,0,2.01217,-8.75945,91.1853
2023-03-11 00:00:50:87,0,2.02903,-8.74205,91.181
2023-03-11 00:00:50:98,0,2.03716,-8.72739,91.1746
2023-03-11 00:00:50:107,0,2.04433,-8.7139,91.1634
2023-03-11 00:00:50:118,0,2.05263,-8.6987,91.1507
2023-03-11 00:00:50:127,0,2.06247,-8.68937,91.136
2023-03-11 00:00:50:138,0,2.07046,-8.68004,91.1218
2023-03-11 00:00:50:147,0,2.07709,-8.67227,91.1092
2023-03-11 00:00:50:158,0,2.08446,-8.66145,91.0993
2023-03-11 00:00:50:167,0,2.09177,-8.65365,91.0994
2023-03-11 00:00:50:177,0,2.09457,-8.64966,91.1053
2023-03-11 00:00:50:187,0,2.0969,-8.64809,91.1182
2023-03-11 00:00:50:198,0,2.09531,-8.64336,91.1351
2023-03-11 00:00:50:207,0,2.09255,-8.63726,91.153
2023-03-11 00:00:50:217,0,2.09273,-8.63108,91.1721
2023-03-11 00:00:50:227,0,2.09875,-8.62372,91.1889
2023-03-11 00:00:50:237,0,2.10979,-8.61798,91.2011
2023-03-11 00:00:50:247,0,2.12378,-8.61305,91.2062
2023-03-11 00:00:50:257,0,2.14381,-8.6105,91.2007
2023-03-11 00:00:50:267,0,2.16775,-8.6129,91.1858
2023-03-11 00:00:50:277,0,2.18801,-8.61455,91.1637
2023-03-11 00:00:50:287,0,2.20762,-8.61435,91.1283
2023-03-11 00:00:50:297,0,2.22471,-8.60841,91.0816
2023-03-11 00:00:50:307,0,2.24181,-8.59735,91.0281
2023-03-11 00:00:50:317,0,2.2587,-8.58347,90.9661
2023-03-11 00:00:50:327,0,2.2717,-8.57181,90.9005
2023-03-11 00:00:50:337,0,2.28866,-8.5621,90.831
2023-03-11 00:00:50:347,0,2.3122,-8.55559,90.7573
2023-03-11 00:00:50:357,0,2.34354,-8.54486,90.6721
2023-03-11 00:00:50:367,0,2.37675,-8.53479,90.5843
2023-03-11 00:00:50:378,0,2.40227,-8.52041,90.4862
2023-03-11 00:00:50:387,0,2.42857,-8.51071,90.3807
2023-03-11 00:00:50:398,0,2.44904,-8.50666,90.2672
2023-03-11 00:00:50:407,0,2.46482,-8.50803,90.1472
2023-03-11 00:00:50:418,0,2.47658,-8.51156,90.0239
2023-03-11 00:00:50:427,0,2.48865,-8.52405,89.8986
2023-03-11 00:00:50:437,0,2.49948,-8.54299,89.7712
2023-03-11 00:00:50:447,0,2.50844,-8.5675,89.6479
2023-03-11 00:00:50:458,0,2.51512,-8.59583,89.53
2023-03-11 00:00:50:467,0,2.50983,-8.63047,89.4202
2023-03-11 00:00:50:477,0,2.49459,-8.66756,89.3242
2023-03-11 00:00:50:487,0,2.46372,-8.7105,89.2485
2023-03-11 00:00:50:497,0,2.41653,-8.75763,89.1913
2023-03-11 00:00:50:507,0,2.36022,-8.80316,89.1494
2023-03-11 00:00:50:517,0,2.30229,-8.83936,89.1155
2023-03-11 00:00:50:527,0,2.24336,-8.863,89.0927
2023-03-11 00:00:50:537,0,2.1927,-8.87542,89.0811
2023-03-11 00:00:50:547,0,2.15645,-8.87163,89.0713
2023-03-11 00:00:50:557,0,2.12459,-8.8565,89.0658
2023-03-11 00:00:50:567,0,2.10381,-8.83151,89.0597
2023-03-11 00:00:50:577,0,2.08491,-8.80081,89.06
2023-03-11 00:00:50:587,0,2.07226,-8.77006,89.0536
2023-03-11 00:00:50:597,0,2.0601,-8.73525,89.0388
2023-03-11 00:00:50:607,0,2.0572,-8.70381,89.0123
2023-03-11 00:00:50:618,0,2.05703,-8.67415,88.9772
2023-03-11 00:00:50:627,0,2.0591,-8.65017,88.9314
2023-03-11 00:00:50:637,0,2.06416,-8.6313,88.876
2023-03-11 00:00:50:647,0,2.07146,-8.62513,88.8065
2023-03-11 00:00:50:657,0,2.07655,-8.62769,88.738
2023-03-11 00:00:50:667,0,2.0787,-8.64005,88.6688
2023-03-11 00:00:50:678,0,2.07936,-8.6633,88.606
2023-03-11 00:00:50:687,0,2.07517,-8.6922,88.5528
2023-03-11 00:00:50:698,0,2.07171,-8.7299,88.5091
2023-03-11 00:00:50:707,0,2.06117,-8.76829,88.4799
2023-03-11 00:00:50:718,0,2.0497,-8.80521,88.4673
2023-03-11 00:00:50:727,0,2.03395,-8.83342,88.4597
2023-03-11 00:00:50:738,0,2.02249,-8.86035,88.4604
2023-03-11 00:00:50:747,0,2.01117,-8.88422,88.4698
2023-03-11 00:00:50:758,0,1.99924,-8.90677,88.4894
2023-03-11 00:00:50:767,0,1.98464,-8.91975,88.5164
2023-03-11 00:00:50:778,0,1.97412,-8.93267,88.5468
2023-03-11 00:00:50:787,0,1.96645,-8.9495,88.5799
2023-03-11 00:00:50:798,0,1.95376,-8.96325,88.6145
2023-03-11 00:00:50:807,0,1.94409,-8.97717,88.648
2023-03-11 00:00:50:818,0,1.93454,-8.98966,88.6854
2023-03-11 00:00:50:827,0,1.927,-9.00065,88.719
2023-03-11 00:00:50:838,0,1.92215,-9.01387,88.7537
2023-03-11 00:00:50:847,0,1.91606,-9.02595,88.7834
2023-03-11 00:00:50:858,0,1.90942,-9.03764,88.8175
2023-03-11 00:00:50:867,0,1.90515,-9.05351,88.8515
2023-03-11 00:00:50:877,0,1.9004,-9.07501,88.8888
2023-03-11 00:00:50:887,0,1.89969,-9.09823,88.9219
2023-03-11 00:00:50:897,0,1.89704,-9.12249,88.9541
2023-03-11 00:00:50:907,0,1.902,-9.14605,88.9862
2023-03-11 00:00:50:918,0,1.90358,-9.17264,89.0162
2023-03-11 00:00:50:928,0,1.90941,-9.20365,89.0482
2023-03-11 00:00:50:938,0,1.91567,-9.23493,89.0765
2023-03-11 00:00:50:948,0,1.92159,-9.26627,89.1016
2023-03-11 00:00:50:958,0,1.92628,-9.29795,89.1265
2023-03-11 00:00:50:967,0,1.93133,-9.33071,89.151
2023-03-11 00:00:50:978,0,1.93807,-9.36204,89.1734
2023-03-11 00:00:50:987,0,1.94354,-9.3984,89.1999
2023-03-11 00:00:50:998,0,1.9506,-9.43115,89.2228
2023-03-11 00:00:51:7,0,1.96032,-9.45904,89.252
2023-03-11 00:00:51:18,0,1.96829,-9.49031,89.276
2023-03-11 00:00:51:27,0,1.9669,-9.51695,89.3079
2023-03-11 00:00:51:38,0,1.96336,-9.53876,89.3396
2023-03-11 00:00:51:47,0,1.96404,-9.55997,89.3674
2023-03-11 00:00:51:58,0,1.96192,-9.58071,89.3923
2023-03-11 00:00:51:68,0,1.96442,-9.59697,89.4178
2023-03-11 00:00:51:78,0,1.9666,-9.61385,89.4419
2023-03-11 00:00:51:87,0,1.96782,-9.62809,89.4615
2023-03-11 00:00:51:98,0,1.96845,-9.64385,89.4776
2023-03-11 00:00:51:107,0,1.96693,-9.65459,89.4867
2023-03-11 00:00:51:117,0,1.96355,-9.66701,89.4934
2023-03-11 00:00:51:128,0,1.95806,-9.67899,89.4991
2023-03-11 00:00:51:138,0,1.96018,-9.68667,89.4974
2023-03-11 00:00:51:147,0,1.96582,-9.69531,89.4947
2023-03-11 00:00:51:157,0,1.97854,-9.70513,89.4966
2023-03-11 00:00:51:167,0,1.99043,-9.71002,89.4926
2023-03-11 00:00:51:178,0,2.00374,-9.7084,89.4934
2023-03-11 00:00:51:187,0,2.01872,-9.705,89.4878
2023-03-11 00:00:51:198,0,2.03298,-9.69963,89.4824
2023-03-11 00:00:51:207,0,2.04878,-9.68766,89.48
2023-03-11 00:00:51:217,0,2.06528,-9.67846,89.4742
2023-03-11 00:00:51:227,0,2.08587,-9.6704,89.4736
2023-03-11 00:00:51:238,0,2.10421,-9.67128,89.4768
2023-03-11 00:00:51:247,0,2.12997,-9.66954,89.48
2023-03-11 00:00:51:258,0,2.15623,-9.66955,89.488
2023-03-11 00:00:51:267,0,2.18065,-9.67081,89.4967
2023-03-11 00:00:51:277,0,2.20569,-9.67398,89.5062
2023-03-11 00:00:51:287,0,2.2249,-9.6788,89.5191
2023-03-11 00:00:51:298,0,2.24288,-9.682,89.536
2023-03-11 00:00:51:307,0,2.25506,-9.68262,89.5513
2023-03-11 00:00:51:317,0,2.26934,-9.68588,89.5629
2023-03-11 00:00:51:327,0,2.28144,-9.69442,89.5767
2023-03-11 00:00:51:337,0,2.29093,-9.70294,89.5862
2023-03-11 00:00:51:347,0,2.29377,-9.70972,89.5968
2023-03-11 00:00:51:358,0,2.29538,-9.71741,89.6092
2023-03-11 00:00:51:367,0,2.28876,-9.72884,89.6248
2023-03-11 00:00:51:378,0,2.27904,-9.73572,89.6431
2023-03-11 00:00:51:387,0,2.27001,-9.73822,89.659
2023-03-11 00:00:51:397,0,2.26002,-9.73635,89.6772
2023-03-11 00:00:51:407,0,2.2552,-9.73197,89.697
2023-03-11 00:00:51:418,0,2.25219,-9.72636,89.7245
2023-03-11 00:00:51:427,0,2.25416,-9.72511,89.7593
2023-03-11 00:00:51:438,0,2.25521,-9.72878,89.8027
2023-03-11 00:00:51:447,0,2.25774,-9.7233,89.8459
2023-03-11 00:00:51:458,0,2.2643,-9.71415,89.8955
2023-03-11 00:00:51:467,0,2.2716,-9.70724,89.9445
2023-03-11 00:00:51:478,0,2.27812,-9.70052,89.9996
2023-03-11 00:00:51:487,0,2.28385,-9.69249,90.0545
2023-03-11 00:00:51:497,0,2.29672,-9.68153,90.1105
2023-03-11 00:00:51:507,0,2.31907,-9.67265,90.1681
2023-03-11 00:00:51:518,0,2.34255,-9.66792,90.2242
2023-03-11 00:00:51:527,0,2.36808,-9.66251,90.2826
2023-03-11 00:00:51:538,0,2.39604,-9.65387,90.3422
2023-03-11 00:00:51:547,0,2.41876,-9.64643,90.404
2023-03-11 00:00:51:558,0,2.44272,-9.63819,90.4599
2023-03-11 00:00:51:567,0,2.46296,-9.63267,90.514
2023-03-11 00:00:51:578,0,2.48074,-9.63294,90.5634
2023-03-11 00:00:51:587,0,2.49964,-9.63548,90.6141
2023-03-11 00:00:51:598,0,2.51216,-9.63631,90.6595
2023-03-11 00:00:51:607,0,2.52223,-9.63856,90.708
2023-03-11 00:00:51:618,0,2.53024,-9.63852,90.7545
2023-03-11 00:00:51:627,0,2.53557,-9.63996,90.7966
2023-03-11 00:00:51:638,0,2.54457,-9.63574,90.8387
2023-03-11 00:00:51:647,0,2.55309,-9.6279,90.8814
2023-03-11 00:00:51:658,0,2.55365,-9.61965,90.9235
2023-03-11 00:00:51:667,0,2.55043,-9.61522,90.961
2023-03-11 00:00:51:678,0,2.54583,-9.60647,91.0007
2023-03-11 00:00:51:687,0,2.54287,-9.59328,91.0405
2023-03-11 00:00:51:697,0,2.53813,-9.58383,91.0779
2023-03-11 00:00:51:707,0,2.53816,-9.57133,91.1134
2023-03-11 00:00:51:718,0,2.54466,-9.56041,91.1451
2023-03-11 00:00:51:727,0,2.55231,-9.54665,91.1667
2023-03-11 00:00:51:738,0,2.56528,-9.53132,91.188
2023-03-11 00:00:51:747,0,2.57799,-9.51615,91.208
2023-03-11 00:00:51:757,0,2.58958,-9.50623,91.2225
2023-03-11 00:00:51:767,0,2.59581,-9.49562,91.2325
2023-03-11 00:00:51:778,0,2.60015,-9.4857,91.231
2023-03-11 00:00:51:787,0,2.60515,-9.47472,91.2249
2023-03-11 00:00:51:798,0,2.61206,-9.47037,91.2128
2023-03-11 00:00:51:807,0,2.62164,-9.46221,91.1943
2023-03-11 00:00:51:818,0,2.62949,-9.45509,91.1734
2023-03-11 00:00:51:827,0,2.63579,-9.45126,91.1498
2023-03-11 00:00:51:838,0,2.64164,-9.44939,91.1264
2023-03-11 00:00:51:847,0,2.6498,-9.44616,91.1002
2023-03-11 00:00:51:858,0,2.65776,-9.44468,91.0766
2023-03-11 00:00:51:867,0,2.65845,-9.44439,91.0603
2023-03-11 00:00:51:878,0,2.65818,-9.44329,91.0474
2023-03-11 00:00:51:887,0,2.65682,-9.44296,91.038
2023-03-11 00:00:51:897,0,2.65215,-9.44221,91.0307
2023-03-11 00:00:51:907,0,2.6472,-9.44052,91.0263
2023-03-11 00:00:51:917,0,2.64382,-9.44329,91.0226
2023-03-11 00:00:51:927,0,2.6428,-9.44501,91.0233
2023-03-11 00:00:51:937,0,2.64196,-9.44918,91.0234
2023-03-11 00:00:51:947,0,2.63945,-9.45138,91.0262
2023-03-11 00:00:51:957,0,2.6399,-9.45681,91.0285
2023-03-11 00:00:51:967,0,2.64038,-9.4591,91.0316
2023-03-11 00:00:51:978,0,2.63761,-9.46155,91.038
2023-03-11 00:00:51:987,0,2.63482,-9.46371,91.0427
2023-03-11 00:00:51:998,0,2.63891,-9.46763,91.0522
2023-03-11 00:00:52:7,0,2.63947,-9.47154,91.0668
2023-03-11 00:00:52:18,0,2.64077,-9.48516,91.0833
2023-03-11 00:00:52:27,0,2.64182,-9.49996,91.1006
2023-03-11 00:00:52:38,0,2.64327,-9.51366,91.114
2023-03-11 00:00:52:47,0,2.64388,-9.52234,91.1291
2023-03-11 00:00:52:58,0,2.64585,-9.53538,91.1415
2023-03-11 00:00:52:67,0,2.64873,-9.55128,91.1542
2023-03-11 00:00:52:78,0,2.64831,-9.56771,91.1658
2023-03-11 00:00:52:87,0,2.64081,-9.58231,91.1727
2023-03-11 00:00:52:97,0,2.63609,-9.58929,91.1744
2023-03-11 00:00:52:107,0,2.62812,-9.58982,91.1694
2023-03-11 00:00:52:118,0,2.62034,-9.58166,91.1567
2023-03-11 00:00:52:127,0,2.61488,-9.57625,91.1395
2023-03-11 00:00:52:138,0,2.60655,-9.56188,91.116
2023-03-11 00:00:52:147,0,2.59882,-9.54746,91.0917
2023-03-11 00:00:52:157,0,2.59563,-9.5306,91.0629
2023-03-11 00:00:52:167,0,2.58999,-9.51416,91.0317
2023-03-11 00:00:52:177,0,2.58188,-9.50001,90.9995
2023-03-11 00:00:52:187,0,2.57295,-9.48367,90.9614
2023-03-11 00:00:52:198,0,2.56262,-9.4714,90.9218
2023-03-11 00:00:52:207,0,2.54749,-9.46202,90.8728
2023-03-11 00:00:52:217,0,2.53262,-9.45647,90.8253
2023-03-11 00:00:52:227,0,2.52184,-9.45132,90.7721
2023-03-11 00:00:52:238,0,2.50655,-9.44954,90.7144
2023-03-11 00:00:52:247,0,2.4956,-9.44653,90.6516
2023-03-11 00:00:52:258,0,2.48347,-9.44619,90.5879
2023-03-11 00:00:52:267,0,2.47613,-9.45379,90.5317
2023-03-11 00:00:52:278,0,2.46676,-9.46664,90.4769
2023-03-11 00:00:52:287,0,2.45593,-9.48303,90.4307
2023-03-11 00:00:52:298,0,2.44245,-9.50447,90.3903
2023-03-11 00:00:52:307,0,2.43044,-9.52039,90.3566
2023-03-11 00:00:52:318,0,2.41924,-9.53473,90.3308
2023-03-11 00:00:52:327,0,2.40809,-9.54938,90.3147
2023-03-11 00:00:52:338,0,2.3982,-9.56044,90.3024
2023-03-11 00:00:52:347,0,2.3928,-9.57214,90.3036
2023-03-11 00:00:52:357,0,2.39082,-9.58573,90.3112
2023-03-11 00:00:52:367,0,2.38738,-9.60081,90.3264
2023-03-11 00:00:52:378,0,2.38727,-9.61624,90.3456
2023-03-11 00:00:52:387,0,2.39265,-9.62938,90.3649
2023-03-11 00:00:52:397,0,2.40252,-9.63897,90.3814
2023-03-11 00:00:52:407,0,2.41118,-9.6469,90.3968
2023-03-11 00:00:52:417,0,2.42193,-9.65739,90.414
2023-03-11 00:00:52:427,0,2.43186,-9.6743,90.4281
2023-03-11 00:00:52:437,0,2.4407,-9.69028,90.4429
2023-03-11 00:00:52:447,0,2.44781,-9.7122,90.4569
2023-03-11 00:00:52:458,0,2.45588,-9.73107,90.4736
2023-03-11 00:00:52:467,0,2.46178,-9.75088,90.49
2023-03-11 00:00:52:478,0,2.46834,-9.76577,90.5012
2023-03-11 00:00:52:488,0,2.4736,-9.78482,90.5127
2023-03-11 00:00:52:497,0,2.4811,-9.8036,90.5274
2023-03-11 00:00:52:507,0,2.4865,-9.82332,90.543
2023-03-11 00:00:52:518,0,2.49159,-9.84266,90.559
2023-03-11 00:00:52:527,0,2.49658,-9.86013,90.5709
2023-03-11 00:00:52:538,0,2.49948,-9.87061,90.5824
2023-03-11 00:00:52:547,0,2.4992,-9.88196,90.5882
2023-03-11 00:00:52:557,0,2.49753,-9.89317,90.5901
2023-03-11 00:00:52:567,0,2.50094,-9.90202,90.597
2023-03-11 00:00:52:578,0,2.50286,-9.90885,90.5962
2023-03-11 00:00:52:587,0,2.50325,-9.91351,90.5963
2023-03-11 00:00:52:598,0,2.50329,-9.92068,90.5925
2023-03-11 00:00:52:607,0,2.50264,-9.92954,90.5901
2023-03-11 00:00:52:618,0,2.49766,-9.93603,90.5902
2023-03-11 00:00:52:627,0,2.49101,-9.94454,90.5888
2023-03-11 00:00:52:638,0,2.48176,-9.94962,90.5857
2023-03-11 00:00:52:647,0,2.47499,-9.95315,90.5749
2023-03-11 00:00:52:658,0,2.46976,-9.95414,90.5541
2023-03-11 00:00:52:667,0,2.47151,-9.94766,90.5302
2023-03-11 00:00:52:678,0,2.47907,-9.93757,90.4983
2023-03-11 00:00:52:688,0,2.49234,-9.92364,90.4609
2023-03-11 00:00:52:698,0,2.5098,-9.91051,90.4178
2023-03-11 00:00:52:707,0,2.53062,-9.89318,90.3752
2023-03-11 00:00:52:718,0,2.55516,-9.87767,90.3299
2023-03-11 00:00:52:727,0,2.58127,-9.86455,90.2868
2023-03-11 00:00:52:738,0,2.61148,-9.85413,90.2485
2023-03-11 00:00:52:747,0,2.64189,-9.84458,90.2193
2023-03-11 00:00:52:758,0,2.66926,-9.83526,90.1896
2023-03-11 00:00:52:767,0,2.70242,-9.82386,90.1571
2023-03-11 00:00:52:778,0,2.73216,-9.81558,90.1338
2023-03-11 00:00:52:787,0,2.76231,-9.80841,90.1143
2023-03-11 00:00:52:798,0,2.78114,-9.80263,90.0958
2023-03-11 00:00:52:807,0,2.79988,-9.79931,90.0819
2023-03-11 00:00:52:817,0,2.8131,-9.79778,90.0759
2023-03-11 00:00:52:827,0,2.82696,-9.7967,90.0713
2023-03-11 00:00:52:837,0,2.83529,-9.79341,90.0696
2023-03-11 00:00:52:847,0,2.84192,-9.78542,90.0704
2023-03-11 00:00:52:858,0,2.85006,-9.77859,90.0709
2023-03-11 00:00:52:867,0,2.85958,-9.77716,90.0694
2023-03-11 00:00:52:878,0,2.86433,-9.78254,90.0729
2023-03-11 00:00:52:887,0,2.8632,-9.79383,90.0826
2023-03-11 00:00:52:897,0,2.8541,-9.80342,90.094
2023-03-11 00:00:52:907,0,2.84246,-9.81535,90.1065
2023-03-11 00:00:52:917,0,2.82572,-9.82234,90.1204
2023-03-11 00:00:52:927,0,2.80399,-9.83322,90.1362
2023-03-11 00:00:52:937,0,2.78563,-9.84145,90.1493
2023-03-11 00:00:52:947,0,2.7671,-9.85078,90.1612
2023-03-11 00:00:52:957,0,2.75403,-9.85493,90.1742
2023-03-11 00:00:52:967,0,2.74333,-9.86202,90.1886
2023-03-11 00:00:52:978,0,2.72969,-9.86569,90.2028
2023-03-11 00:00:52:987,0,2.71073,-9.86812,90.2145
2023-03-11 00:00:52:998,0,2.69232,-9.86875,90.2285
2023-03-11 00:00:53:7,0,2.67016,-9.86702,90.2416
2023-03-11 00:00:53:18,0,2.64744,-9.86282,90.2554
2023-03-11 00:00:53:27,0,2.62866,-9.85916,90.2657
2023-03-11 00:00:53:37,0,2.61777,-9.85572,90.2753
2023-03-11 00:00:53:47,0,2.61126,-9.84773,90.2839
2023-03-11 00:00:53:58,0,2.60854,-9.84252,90.2904
2023-03-11 00:00:53:67,0,2.60994,-9.83523,90.2907
2023-03-11 00:00:53:78,0,2.61027,-9.8274,90.285
2023-03-11 00:00:53:87,0,2.61364,-9.82129,90.278
2023-03-11 00:00:53:98,0,2.62032,-9.80946,90.2687
2023-03-11 00:00:53:107,0,2.62865,-9.79217,90.2531
2023-03-11 00:00:53:117,0,2.64292,-9.77439,90.2319
2023-03-11 00:00:53:127,0,2.6591,-9.75545,90.2114
2023-03-11 00:00:53:138,0,2.67453,-9.74295,90.1926
2023-03-11 00:00:53:148,0,2.69186,-9.73381,90.1747
2023-03-11 00:00:53:157,0,2.70128,-9.7335,90.1619
2023-03-11 00:00:53:167,0,2.70767,-9.73106,90.1504
2023-03-11 00:00:53:178,0,2.71389,-9.73361,90.1427
2023-03-11 00:00:53:187,0,2.71846,-9.73377,90.1424
2023-03-11 00:00:53:198,0,2.71766,-9.73722,90.1423
2023-03-11 00:00:53:207,0,2.72035,-9.74185,90.1469
2023-03-11 00:00:53:218,0,2.72096,-9.7479,90.1544
2023-03-11 00:00:53:227,0,2.72536,-9.75833,90.1651
2023-03-11 00:00:53:238,0,2.73014,-9.77083,90.1755
2023-03-11 00:00:53:247,0,2.73063,-9.77772,90.1897
2023-03-11 00:00:53:258,0,2.73144,-9.78845,90.2003
2023-03-11 00:00:53:267,0,2.73236,-9.7996,90.2166
2023-03-11 00:00:53:278,0,2.73339,-9.81201,90.2324
2023-03-11 00:00:53:287,0,2.73131,-9.82493,90.2474
2023-03-11 00:00:53:298,0,2.72872,-9.83905,90.2615
2023-03-11 00:00:53:307,0,2.72626,-9.85209,90.2768
2023-03-11 00:00:53:318,0,2.72122,-9.86717,90.2942
2023-03-11 00:00:53:327,0,2.71503,-9.88592,90.312
2023-03-11 00:00:53:337,0,2.70667,-9.89899,90.33
2023-03-11 00:00:53:348,0,2.69823,-9.91457,90.3502
2023-03-11 00:00:53:358,0,2.69362,-9.92741,90.37
2023-03-11 00:00:53:367,0,2.68936,-9.93685,90.388
2023-03-11 00:00:53:378,0,2.68776,-9.94391,90.4035
2023-03-11 00:00:53:387,0,2.68934,-9.94737,90.4177
2023-03-11 00:00:53:398,0,2.69195,-9.94698,90.4318
2023-03-11 00:00:53:407,0,2.6983,-9.94624,90.44
2023-03-11 00:00:53:418,0,2.70193,-9.94362,90.4467
2023-03-11 00:00:53:427,0,2.70315,-9.93956,90.4511
2023-03-11 00:00:53:437,0,2.70097,-9.93667,90.4457
2023-03-11 00:00:53:447,0,2.7021,-9.93045,90.4375
2023-03-11 00:00:53:458,0,2.70429,-9.92597,90.429
2023-03-11 00:00:53:467,0,2.71012,-9.9225,90.4171
2023-03-11 00:00:53:478,0,2.7151,-9.92178,90.4011
2023-03-11 00:00:53:487,0,2.72168,-9.92066,90.3861
2023-03-11 00:00:53:497,0,2.73257,-9.91818,90.3724
2023-03-11 00:00:53:507,0,2.74011,-9.91408,90.3518
2023-03-11 00:00:53:518,0,2.74748,-9.91004,90.3375
2023-03-11 00:00:53:527,0,2.75687,-9.90432,90.3215
2023-03-11 00:00:53:538,0,2.7619,-9.90261,90.3063
2023-03-11 00:00:53:548,0,2.76447,-9.90031,90.2949
2023-03-11 00:00:53:557,0,2.76501,-9.90212,90.2918
2023-03-11 00:00:53:567,0,2.76645,-9.89744,90.2864
2023-03-11 00:00:53:578,0,2.76684,-9.89413,90.2883
2023-03-11 00:00:53:587,0,2.77217,-9.88625,90.2918
2023-03-11 00:00:53:597,0,2.77613,-9.87734,90.2949
2023-03-11 00:00:53:607,0,2.78049,-9.86797,90.2946
2023-03-11 00:00:53:618,0,2.78229,-9.85664,90.2952
2023-03-11 00:00:53:627,0,2.78673,-9.84994,90.2954
2023-03-11 00:00:53:638,0,2.78842,-9.84539,90.2918
2023-03-11 00:00:53:647,0,2.79166,-9.84154,90.2877
2023-03-11 00:00:53:658,0,2.79711,-9.83642,90.2808
2023-03-11 00:00:53:667,0,2.80576,-9.83365,90.2768
2023-03-11 00:00:53:678,0,2.81476,-9.83176,90.2738
2023-03-11 00:00:53:687,0,2.82386,-9.83166,90.273
2023-03-11 00:00:53:698,0,2.83005,-9.83233,90.2722
2023-03-11 00:00:53:707,0,2.82968,-9.83676,90.2714
2023-03-11 00:00:53:718,0,2.82779,-9.83907,90.2704
2023-03-11 00:00:53:728,0,2.82862,-9.84405,90.27
2023-03-11 00:00:53:738,0,2.82508,-9.84576,90.2693
2023-03-11 00:00:53:747,0,2.81651,-9.84665,90.268
2023-03-11 00:00:53:758,0,2.81184,-9.84599,90.261
2023-03-11 00:00:53:767,0,2.80714,-9.84578,90.2565
2023-03-11 00:00:53:778,0,2.80356,-9.85184,90.2556
2023-03-11 00:00:53:788,0,2.79469,-9.85927,90.2573
2023-03-11 00:00:53:798,0,2.78359,-9.86357,90.2598
2023-03-11 00:00:53:807,0,2.77312,-9.86974,90.272
2023-03-11 00:00:53:818,0,2.76142,-9.87247,90.2816
2023-03-11 00:00:53:827,0,2.74951,-9.87749,90.2932
2023-03-11 00:00:53:838,0,2.73622,-9.88062,90.3051
2023-03-11 00:00:53:848,0,2.7286,-9.88113,90.3233
2023-03-11 00:00:53:858,0,2.72135,-9.88457,90.3374
2023-03-11 00:00:53:867,0,2.71253,-9.88176,90.3537
2023-03-11 00:00:53:878,0,2.7077,-9.88257,90.3655
2023-03-11 00:00:53:887,0,2.6965,-9.88567,90.3787
2023-03-11 00:00:53:898,0,2.68493,-9.88384,90.3912
2023-03-11 00:00:53:907,0,2.67024,-9.88216,90.3995
2023-03-11 00:00:53:918,0,2.65591,-9.87756,90.4055
2023-03-11 00:00:53:927,0,2.64577,-9.87337,90.4122
2023-03-11 00:00:53:938,0,2.63771,-9.87046,90.4219
2023-03-11 00:00:53:948,0,2.62823,-9.86315,90.4292
2023-03-11 00:00:53:957,0,2.62272,-9.86056,90.4363
2023-03-11 00:00:53:967,0,2.61212,-9.85966,90.4428
2023-03-11 00:00:53:978,0,2.59649,-9.85845,90.4498
2023-03-11 00:00:53:987,0,2.57984,-9.85729,90.4519
2023-03-11 00:00:53:998,0,2.56078,-9.8499,90.4493
2023-03-11 00:00:54:7,0,2.54446,-9.8496,90.4466
2023-03-11 00:00:54:18,0,2.53112,-9.84226,90.4397
2023-03-11 00:00:54:27,0,2.52116,-9.83286,90.4248
2023-03-11 00:00:54:37,0,2.51489,-9.82796,90.4079
2023-03-11 00:00:54:47,0,2.51083,-9.82916,90.3941
2023-03-11 00:00:54:58,0,2.51069,-9.83366,90.3837
2023-03-11 00:00:54:67,0,2.50451,-9.83776,90.3776
2023-03-11 00:00:54:78,0,2.49528,-9.83865,90.3773
2023-03-11 00:00:54:87,0,2.4845,-9.84046,90.3805
2023-03-11 00:00:54:98,0,2.47089,-9.84106,90.3892
2023-03-11 00:00:54:107,0,2.45513,-9.84088,90.4017
2023-03-11 00:00:54:117,0,2.43958,-9.83789,90.4163
2023-03-11 00:00:54:127,0,2.42616,-9.83345,90.4329
2023-03-11 00:00:54:137,0,2.4174,-9.83174,90.4451
2023-03-11 00:00:54:147,0,2.41292,-9.82737,90.4568
2023-03-11 00:00:54:158,0,2.41287,-9.82606,90.4611
2023-03-11 00:00:54:167,0,2.41057,-9.82657,90.465
2023-03-11 00:00:54:178,0,2.40606,-9.82562,90.4636
2023-03-11 00:00:54:187,0,2.40025,-9.8277,90.465
2023-03-11 00:00:54:197,0,2.39491,-9.82686,90.465
2023-03-11 00:00:54:207,0,2.38543,-9.82441,90.4651
2023-03-11 00:00:54:217,0,2.37277,-9.82317,90.4663
2023-03-11 00:00:54:227,0,2.36448,-9.81967,90.4715
2023-03-11 00:00:54:237,0,2.35701,-9.81766,90.4777
2023-03-11 00:00:54:247,0,2.34692,-9.81449,90.4863
2023-03-11 00:00:54:258,0,2.33886,-9.81339,90.4931
2023-03-11 00:00:54:267,0,2.32839,-9.81114,90.5034
2023-03-11 00:00:54:278,0,2.31611,-9.80931,90.5162
2023-03-11 00:00:54:288,0,2.3045,-9.80619,90.5235
2023-03-11 00:00:54:297,0,2.29568,-9.80323,90.5322
2023-03-11 00:00:54:307,0,2.29146,-9.79945,90.538
2023-03-11 00:00:54:317,0,2.28801,-9.79556,90.5447
2023-03-11 00:00:54:327,0,2.28893,-9.79258,90.547
2023-03-11 00:00:54:338,0,2.29016,-9.79347,90.5514
2023-03-11 00:00:54:348,0,2.28953,-9.7949,90.558
2023-03-11 00:00:54:357,0,2.28797,-9.79975,90.5652
2023-03-11 00:00:54:367,0,2.29038,-9.80736,90.5731
2023-03-11 00:00:54:378,0,2.29674,-9.82031,90.5848
2023-03-11 00:00:54:388,0,2.30258,-9.8326,90.5961
2023-03-11 00:00:54:398,0,2.30741,-9.84155,90.6054
2023-03-11 00:00:54:407,0,2.30877,-9.85103,90.6158
2023-03-11 00:00:54:418,0,2.30683,-9.85989,90.6219
2023-03-11 00:00:54:427,0,2.30548,-9.86568,90.623
2023-03-11 00:00:54:437,0,2.3081,-9.87367,90.6213
2023-03-11 00:00:54:447,0,2.30651,-9.87663,90.6133
2023-03-11 00:00:54:458,0,2.30145,-9.88155,90.6118
2023-03-11 00:00:54:467,0,2.29383,-9.88475,90.6093
2023-03-11 00:00:54:477,0,2.2886,-9.8887,90.6042
2023-03-11 00:00:54:487,0,2.28,-9.8908,90.5993
2023-03-11 00:00:54:497,0,2.27706,-9.89337,90.5969
2023-03-11 00:00:54:507,0,2.27725,-9.89469,90.596
2023-03-11 00:00:54:517,0,2.28222,-9.8953,90.5983
2023-03-11 00:00:54:527,0,2.29002,-9.89759,90.6054
2023-03-11 00:00:54:538,0,2.29279,-9.89814,90.6168
2023-03-11 00:00:54:547,0,2.2991,-9.89974,90.6296
2023-03-11 00:00:54:558,0,2.3051,-9.90162,90.6431
2023-03-11 00:00:54:567,0,2.31556,-9.90109,90.6603
2023-03-11 00:00:54:578,0,2.32846,-9.89628,90.6736
2023-03-11 00:00:54:588,0,2.34596,-9.89403,90.6878
2023-03-11 00:00:54:598,0,2.36692,-9.8925,90.698
2023-03-11 00:00:54:608,0,2.38179,-9.88955,90.7071
2023-03-11 00:00:54:618,0,2.40009,-9.8921,90.7163
2023-03-11 00:00:54:627,0,2.41326,-9.89559,90.7234
2023-03-11 00:00:54:638,0,2.42555,-9.905,90.734
2023-03-11 00:00:54:648,0,2.44024,-9.91054,90.7369
2023-03-11 00:00:54:658,0,2.45267,-9.91992,90.7355
2023-03-11 00:00:54:668,0,2.4634,-9.92598,90.7396
2023-03-11 00:00:54:678,0,2.47633,-9.9332,90.7395
2023-03-11 00:00:54:687,0,2.48678,-9.94246,90.7459
2023-03-11 00:00:54:698,0,2.49408,-9.94946,90.7525
2023-03-11 00:00:54:707,0,2.49751,-9.95994,90.7563
2023-03-11 00:00:54:717,0,2.49947,-9.96867,90.7607
2023-03-11 00:00:54:727,0,2.49928,-9.97632,90.7663
2023-03-11 00:00:54:737,0,2.4967,-9.97731,90.7753
2023-03-11 00:00:54:747,0,2.49492,-9.97926,90.7801
2023-03-11 00:00:54:758,0,2.49767,-9.97971,90.7806
2023-03-11 00:00:54:767,0,2.49573,-9.98053,90.7822
2023-03-11 00:00:54:778,0,2.49639,-9.98166,90.7843
2023-03-11 00:00:54:787,0,2.4958,-9.97868,90.7834
2023-03-11 00:00:54:798,0,2.48988,-9.97458,90.7855
2023-03-11 00:00:54:807,0,2.48347,-9.967,90.7873
2023-03-11 00:00:54:818,0,2.47336,-9.96262,90.7879
2023-03-11 00:00:54:827,0,2.46368,-9.95569,90.792
2023-03-11 00:00:54:837,0,2.45018,-9.95117,90.7992
2023-03-11 00:00:54:847,0,2.44438,-9.9462,90.8068
2023-03-11 00:00:54:858,0,2.43936,-9.93688,90.8082
2023-03-11 00:00:54:867,0,2.44032,-9.92765,90.8082
2023-03-11 00:00:54:877,0,2.44874,-9.91521,90.8038
2023-03-11 00:00:54:887,0,2.45741,-9.90206,90.7942
2023-03-11 00:00:54:897,0,2.46748,-9.89182,90.7844
2023-03-11 00:00:54:907,0,2.48222,-9.87989,90.7712
2023-03-11 00:00:54:917,0,2.49575,-9.8651,90.7574
2023-03-11 00:00:54:927,0,2.5096,-9.84856,90.7371
2023-03-11 00:00:54:937,0,2.52454,-9.82737,90.7136
2023-03-11 00:00:54:947,0,2.54123,-9.81078,90.6906
2023-03-11 00:00:54:957,0,2.55463,-9.80474,90.6715
2023-03-11 00:00:54:967,0,2.56927,-9.7978,90.6601
2023-03-11 00:00:54:977,0,2.57972,-9.79287,90.6483
2023-03-11 00:00:54:987,0,2.59158,-9.78538,90.6408
2023-03-11 00:00:54:997,0,2.60238,-9.78213,90.6355
2023-03-11 00:00:55:7,0,2.60956,-9.77775,90.63
2023-03-11 00:00:55:17,0,2.61637,-9.77214,90.6282
2023-03-11 00:00:55:27,0,2.62342,-9.76808,90.6245
2023-03-11 00:00:55:38,0,2.63185,-9.76345,90.6236
2023-03-11 00:00:55:48,0,2.6397,-9.76299,90.6212
2023-03-11 00:00:55:57,0,2.65037,-9.76696,90.6183
2023-03-11 00:00:55:67,0,2.65522,-9.77007,90.6153
2023-03-11 00:00:55:78,0,2.66409,-9.77337,90.6089
2023-03-11 00:00:55:87,0,2.67572,-9.77853,90.6035
2023-03-11 00:00:55:98,0,2.68236,-9.78449,90.5983
2023-03-11 00:00:55:107,0,2.68823,-9.79161,90.5991
2023-03-11 00:00:55:117,0,2.69425,-9.79953,90.5987
2023-03-11 00:00:55:127,0,2.69078,-9.80747,90.6002
2023-03-11 00:00:55:137,0,2.69259,-9.81607,90.6072
2023-03-11 00:00:55:147,0,2.69,-9.82284,90.6164
2023-03-11 00:00:55:157,0,2.68574,-9.8332,90.6259
2023-03-11 00:00:55:167,0,2.68488,-9.84511,90.6364
2023-03-11 00:00:55:177,0,2.68107,-9.85286,90.6461
2023-03-11 00:00:55:187,0,2.67991,-9.85983,90.6565
2023-03-11 00:00:55:197,0,2.67967,-9.86188,90.665
2023-03-11 00:00:55:207,0,2.67825,-9.86485,90.6754
2023-03-11 00:00:55:218,0,2.67674,-9.86935,90.6805
2023-03-11 00:00:55:227,0,2.67691,-9.87041,90.6852
2023-03-11 00:00:55:238,0,2.67799,-9.87127,90.683
2023-03-11 00:00:55:248,0,2.67629,-9.87008,90.6799
2023-03-11 00:00:55:257,0,2.67494,-9.87097,90.6762
2023-03-11 00:00:55:267,0,2.67024,-9.87273,90.6715
2023-03-11 00:00:55:277,0,2.66982,-9.87286,90.6658
2023-03-11 00:00:55:287,0,2.66727,-9.87297,90.6631
2023-03-11 00:00:55:298,0,2.66211,-9.87333,90.659
2023-03-11 00:00:55:308,0,2.65449,-9.87604,90.6549
2023-03-11 00:00:55:317,0,2.65122,-9.8749,90.6482
2023-03-11 00:00:55:327,0,2.64902,-9.87358,90.6443
2023-03-11 00:00:55:337,0,2.64395,-9.87081,90.6418
2023-03-11 00:00:55:347,0,2.64495,-9.86961,90.6359
2023-03-11 00:00:55:358,0,2.6408,-9.86743,90.6351
2023-03-11 00:00:55:367,0,2.63346,-9.86671,90.6318
2023-03-11 00:00:55:378,0,2.62621,-9.86934,90.6321
2023-03-11 00:00:55:387,0,2.61251,-9.87191,90.6314
2023-03-11 00:00:55:397,0,2.59594,-9.87422,90.6337
2023-03-11 00:00:55:407,0,2.58473,-9.87579,90.6348
2023-03-11 00:00:55:417,0,2.57529,-9.87507,90.6369
2023-03-11 00:00:55:427,0,2.5681,-9.88149,90.6368
2023-03-11 00:00:55:438,0,2.55863,-9.88334,90.6377
2023-03-11 00:00:55:448,0,2.54642,-9.88515,90.6402
2023-03-11 00:00:55:457,0,2.5338,-9.88478,90.6442
2023-03-11 00:00:55:467,0,2.52479,-9.88195,90.6488
2023-03-11 00:00:55:478,0,2.51821,-9.8818,90.6505
2023-03-11 00:00:55:487,0,2.51114,-9.87901,90.6528
2023-03-11 00:00:55:498,0,2.50766,-9.87694,90.6561
2023-03-11 00:00:55:507,0,2.50691,-9.87848,90.6571
2023-03-11 00:00:55:518,0,2.50401,-9.8776,90.6552
2023-03-11 00:00:55:527,0,2.50223,-9.87594,90.6535
2023-03-11 00:00:55:538,0,2.49389,-9.87342,90.6507
2023-03-11 00:00:55:547,0,2.49094,-9.86946,90.6474
2023-03-11 00:00:55:557,0,2.48733,-9.86839,90.6473
2023-03-11 00:00:55:567,0,2.47814,-9.87116,90.6479
2023-03-11 00:00:55:577,0,2.47151,-9.87685,90.6492
2023-03-11 00:00:55:587,0,2.46628,-9.88204,90.6515
2023-03-11 00:00:55:597,0,2.46041,-9.88357,90.6534
2023-03-11 00:00:55:607,0,2.45741,-9.88253,90.6507
2023-03-11 00:00:55:617,0,2.45484,-9.88224,90.6486
2023-03-11 00:00:55:627,0,2.45286,-9.88008,90.6438
2023-03-11 00:00:55:638,0,2.45051,-9.87861,90.6403
2023-03-11 00:00:55:647,0,2.44858,-9.87857,90.6383
2023-03-11 00:00:55:658,0,2.44224,-9.87607,90.6371
2023-03-11 00:00:55:667,0,2.43596,-9.87629,90.6336
2023-03-11 00:00:55:678,0,2.43111,-9.87309,90.6276
2023-03-11 00:00:55:687,0,2.42419,-9.86958,90.627
2023-03-11 00:00:55:697,0,2.41789,-9.86599,90.6267
2023-03-11 00:00:55:707,0,2.40851,-9.86075,90.6269
2023-03-11 00:00:55:718,0,2.39477,-9.8606,90.6307
2023-03-11 00:00:55:727,0,2.38261,-9.85971,90.6325
2023-03-11 00:00:55:738,0,2.36971,-9.85335,90.6339
2023-03-11 00:00:55:747,0,2.36025,-9.84737,90.639
2023-03-11 00:00:55:758,0,2.34895,-9.84453,90.6416
2023-03-11 00:00:55:767,0,2.34073,-9.83855,90.6448
2023-03-11 00:00:55:777,0,2.33629,-9.83513,90.639
2023-03-11 00:00:55:787,0,2.33662,-9.83201,90.6332
2023-03-11 00:00:55:797,0,2.33516,-9.83058,90.628
2023-03-11 00:00:55:807,0,2.33838,-9.82526,90.6166
2023-03-11 00:00:55:817,0,2.34499,-9.81544,90.6046
2023-03-11 00:00:55:827,0,2.35334,-9.81034,90.5905
2023-03-11 00:00:55:837,0,2.362,-9.80841,90.5809
2023-03-11 00:00:55:847,0,2.3683,-9.81067,90.5755
2023-03-11 00:00:55:858,0,2.37551,-9.8134,90.5749
2023-03-11 00:00:55:867,0,2.37965,-9.81661,90.5786
2023-03-11 00:00:55:878,0,2.38455,-9.81763,90.5838
2023-03-11 00:00:55:887,0,2.39048,-9.82009,90.5883
2023-03-11 00:00:55:897,0,2.39683,-9.81656,90.593
2023-03-11 00:00:55:907,0,2.40614,-9.81806,90.6005
2023-03-11 00:00:55:917,0,2.41182,-9.82038,90.6055
2023-03-11 00:00:55:927,0,2.42,-9.82168,90.6119
2023-03-11 00:00:55:938,0,2.42951,-9.82496,90.617
2023-03-11 00:00:55:947,0,2.43806,-9.82968,90.6202
2023-03-11 00:00:55:958,0,2.4479,-9.83584,90.6198
2023-03-11 00:00:55:967,0,2.45484,-9.84074,90.6222
2023-03-11 00:00:55:978,0,2.46676,-9.84666,90.6232
2023-03-11 00:00:55:987,0,2.47375,-9.85107,90.6215
2023-03-11 00:00:55:997,0,2.47333,-9.85833,90.6239
2023-03-11 00:00:56:7,0,2.47346,-9.86556,90.6255
2023-03-11 00:00:56:17,0,2.47,-9.86919,90.6322
2023-03-11 00:00:56:27,0,2.46939,-9.87279,90.6382
2023-03-11 00:00:56:37,0,2.46541,-9.88013,90.6454
2023-03-11 00:00:56:47,0,2.46423,-9.8831,90.6482
2023-03-11 00:00:56:58,0,2.46007,-9.88208,90.6528
2023-03-11 00:00:56:67,0,2.45521,-9.88281,90.6517
2023-03-11 00:00:56:78,0,2.45019,-9.88476,90.6496
2023-03-11 00:00:56:87,0,2.44749,-9.88832,90.6481
2023-03-11 00:00:56:98,0,2.44591,-9.88444,90.6426
2023-03-11 00:00:56:108,0,2.44517,-9.87912,90.6358
2023-03-11 00:00:56:117,0,2.44359,-9.87196,90.6297
2023-03-11 00:00:56:127,0,2.44333,-9.86825,90.6239
2023-03-11 00:00:56:138,0,2.44213,-9.86524,90.6147
2023-03-11 00:00:56:148,0,2.44256,-9.86216,90.6082
2023-03-11 00:00:56:158,0,2.44001,-9.85556,90.6024
2023-03-11 00:00:56:167,0,2.4337,-9.85444,90.5958
2023-03-11 00:00:56:178,0,2.43193,-9.84831,90.5884
2023-03-11 00:00:56:188,0,2.42905,-9.84416,90.583
2023-03-11 00:00:56:197,0,2.42853,-9.83952,90.5806
2023-03-11 00:00:56:207,0,2.42977,-9.83595,90.5752
2023-03-11 00:00:56:217,0,2.4289,-9.83469,90.5703
2023-03-11 00:00:56:227,0,2.42855,-9.83106,90.5667
2023-03-11 00:00:56:237,0,2.42747,-9.83004,90.5622
2023-03-11 00:00:56:247,0,2.42753,-9.82858,90.5582
2023-03-11 00:00:56:257,0,2.42327,-9.82671,90.5548
2023-03-11 00:00:56:267,0,2.419,-9.82478,90.5552
2023-03-11 00:00:56:277,0,2.4186,-9.82569,90.5597
2023-03-11 00:00:56:287,0,2.41739,-9.82496,90.5615
2023-03-11 00:00:56:297,0,2.41563,-9.82624,90.5662
2023-03-11 00:00:56:307,0,2.41344,-9.83016,90.5696
2023-03-11 00:00:56:317,0,2.40891,-9.83261,90.5743
2023-03-11 00:00:56:327,0,2.40653,-9.8347,90.5795
2023-03-11 00:00:56:338,0,2.40557,-9.83801,90.5834
2023-03-11 00:00:56:347,0,2.40252,-9.84023,90.5852
2023-03-11 00:00:56:358,0,2.40147,-9.83793,90.5862
2023-03-11 00:00:56:367,0,2.39872,-9.83843,90.5888
2023-03-11 00:00:56:378,0,2.40107,-9.84079,90.5916
2023-03-11 00:00:56:387,0,2.4051,-9.843,90.5948
2023-03-11 00:00:56:397,0,2.41036,-9.8423,90.5996
2023-03-11 00:00:56:407,0,2.41608,-9.83923,90.5983
2023-03-11 00:00:56:418,0,2.41921,-9.84063,90.5969
2023-03-11 00:00:56:427,0,2.41968,-9.83852,90.5997
2023-03-11 00:00:56:437,0,2.42571,-9.83678,90.5969
2023-03-11 00:00:56:447,0,2.43063,-9.83729,90.5943
2023-03-11 00:00:56:457,0,2.43236,-9.83451,90.5932
2023-03-11 00:00:56:467,0,2.42948,-9.83652,90.5916
2023-03-11 00:00:56:477,0,2.43329,-9.83858,90.59
2023-03-11 00:00:56:487,0,2.43202,-9.83805,90.588
2023-03-11 00:00:56:497,0,2.432,-9.84343,90.5901
2023-03-11 00:00:56:507,0,2.43305,-9.85045,90.5945
2023-03-11 00:00:56:517,0,2.43347,-9.85216,90.6
2023-03-11 00:00:56:527,0,2.43261,-9.85102,90.6047
2023-03-11 00:00:56:537,0,2.43102,-9.84891,90.6094
2023-03-11 00:00:56:547,0,2.43033,-9.84796,90.6135
2023-03-11 00:00:56:557,0,2.43338,-9.84601,90.6193
2023-03-11 00:00:56:567,0,2.43252,-9.84432,90.6245
2023-03-11 00:00:56:577,0,2.42886,-9.84423,90.6313
2023-03-11 00:00:56:587,0,2.42569,-9.84721,90.6333
2023-03-11 00:00:56:597,0,2.42172,-9.84632,90.6355
2023-03-11 00:00:56:607,0,2.4176,-9.84637,90.6372
2023-03-11 00:00:56:618,0,2.41286,-9.84687,90.6369
2023-03-11 00:00:56:627,0,2.40601,-9.84901,90.6373
2023-03-11 00:00:56:638,0,2.40174,-9.84751,90.638
2023-03-11 00:00:56:647,0,2.39731,-9.84882,90.6378
2023-03-11 00:00:56:657,0,2.39304,-9.84785,90.6379
2023-03-11 00:00:56:667,0,2.39002,-9.8443,90.6394
2023-03-11 00:00:56:677,0,2.38378,-9.8423,90.6412
2023-03-11 00:00:56:687,0,2.38095,-9.83792,90.6396
2023-03-11 00:00:56:697,0,2.37509,-9.83624,90.6374
2023-03-11 00:00:56:707,0,2.37071,-9.83235,90.6331
2023-03-11 00:00:56:717,0,2.37103,-9.82926,90.628
2023-03-11 00:00:56:727,0,2.36832,-9.82621,90.6224
2023-03-11 00:00:56:738,0,2.37193,-9.81938,90.6125
2023-03-11 00:00:56:747,0,2.37461,-9.81089,90.6018
2023-03-11 00:00:56:757,0,2.37993,-9.80696,90.593
2023-03-11 00:00:56:767,0,2.38131,-9.80982,90.5892
2023-03-11 00:00:56:778,0,2.38243,-9.81425,90.5883
2023-03-11 00:00:56:787,0,2.38769,-9.81505,90.5918
2023-03-11 00:00:56:798,0,2.38756,-9.81613,90.5965
2023-03-11 00:00:56:807,0,2.38595,-9.81515,90.6053
2023-03-11 00:00:56:818,0,2.38833,-9.81555,90.6157
2023-03-11 00:00:56:827,0,2.39003,-9.81513,90.628
2023-03-11 00:00:56:838,0,2.38977,-9.81377,90.6368
2023-03-11 00:00:56:847,0,2.39366,-9.81662,90.6429
2023-03-11 00:00:56:858,0,2.39541,-9.81732,90.6505
2023-03-11 00:00:56:867,0,2.39657,-9.82216,90.6547
2023-03-11 00:00:56:878,0,2.39869,-9.82391,90.6553
2023-03-11 00:00:56:887,0,2.40058,-9.82541,90.6583
2023-03-11 00:00:56:897,0,2.40335,-9.82921,90.6613
2023-03-11 00:00:56:907,0,2.4086,-9.83638,90.6595
2023-03-11 00:00:56:917,0,2.40787,-9.83751,90.6616
