Timestamp_log,left_angle,right_angle,left_thrust,right_thrust,read_left_angle,read_right_angle,accel_x,accel_y,accel_z,roll,pitch,yaw,error
2023-05-05 12-48-47-156836,0,160,1562,1436,-89.78,-110.093,0.02,-0.29,-9.78,1.56,-0.07,177.08,31.56
2023-05-05 12-48-47-338397,0,160,1562,1436,-89.868,-110.093,0.02,-0.29,-9.78,1.55,-0.08,177.08,31.55
2023-05-05 12-48-47-515160,0,160,1562,1436,-89.868,-110.093,0.06,-0.31,-10.14,1.55,-0.17,177.07,31.55
2023-05-05 12-48-47-703072,0,160,1562,1436,-89.868,-110.093,0.01,-0.18,-9.97,0.68,-0.43,176.93,30.68
2023-05-05 12-48-47-878373,0,160,1562,1436,-89.868,-110.093,-0.04,0.17,-9.89,-1.13,-0.46,176.41,28.87
2023-05-05 12-48-48-063714,0,160,1562,1436,-89.868,-110.093,-0.07,0.57,-9.82,-3.55,-0.65,175.56,26.45
2023-05-05 12-48-48-248651,0,160,1562,1436,-89.868,-110.093,-0.11,1.05,-9.75,-6.52,-0.79,174.27,23.48
2023-05-05 12-48-48-426255,0,160,1560,1440.0,-89.78,-110.093,-0.07,1.54,-9.69,-9.36,-0.57,172.75,20.64
2023-05-05 12-48-48-606895,0,160,1555,1445.0,-89.868,-110.093,0.03,2.12,-9.6,-12.68,-0.13,170.71,17.32
2023-05-05 12-48-48-789822,0,160,1550,1450.0,-89.868,-110.093,-0.0,2.62,-9.42,-15.83,-0.32,168.66,14.17
2023-05-05 12-48-48-970718,0,160,1546,1454.0,-89.868,-110.093,-0.28,3.15,-9.16,-18.52,-2.28,167.29,11.48
2023-05-05 12-48-49-148528,0,160,1543,1457.0,-89.78,-110.093,-0.94,3.41,-8.99,-20.57,-5.32,166.34,9.43
2023-05-05 12-48-49-322686,0,160,1541,1459.0,-89.78,-110.093,-1.22,3.66,-8.87,-22.06,-7.51,165.11,7.940000000000001
2023-05-05 12-48-49-508104,0,160,1540,1460.0,-89.868,-110.093,-1.5,3.74,-8.77,-23.09,-9.16,163.28,6.91
2023-05-05 12-48-49-681301,0,160,1539,1461.0,-89.78,-110.093,-1.7,3.81,-8.71,-23.4,-10.3,161.37,6.600000000000001
2023-05-05 12-48-49-867230,0,160,1540,1460.0,-89.868,-110.093,-1.83,3.78,-8.74,-23.18,-11.38,159.15,6.82
2023-05-05 12-48-50-047967,0,160,1541,1459.0,-89.868,-110.093,-2.96,3.41,-8.75,-22.31,-12.52,156.58,7.690000000000001
2023-05-05 12-48-50-227614,0,160,1543,1457.0,-89.868,-110.093,-1.98,3.55,-8.85,-21.41,-12.57,154.88,8.59
2023-05-05 12-48-50-412737,0,160,1544,1456.0,-89.78,-110.093,-2.03,3.32,-8.91,-20.33,-12.58,153.15,9.670000000000002
2023-05-05 12-48-50-585926,0,160,1546,1454.0,-89.868,-110.093,-2.05,3.09,-9.01,-19.16,-12.07,151.54,10.84
2023-05-05 12-48-50-756461,0,160,1548,1452.0,-89.78,-110.093,-1.8,2.92,-9.13,-17.86,-10.92,150.05,12.14
2023-05-05 12-48-50-936842,0,160,1550,1450.0,-89.868,-110.093,-1.58,2.74,-9.29,-16.58,-9.68,148.81,13.420000000000002
2023-05-05 12-48-51-107342,0,160,1551,1449.0,-89.868,-110.093,-1.37,2.56,-9.32,-15.52,-8.51,147.89,14.48
2023-05-05 12-48-51-294418,0,160,1553,1447.0,-89.78,-110.093,-1.22,2.41,-9.51,-14.49,-7.48,147.21,15.51
2023-05-05 12-48-51-466791,0,160,1554,1446.0,-89.868,-110.093,-1.1,2.29,-9.53,-13.79,-6.75,146.75,16.21
2023-05-05 12-48-51-647600,0,160,1555,1445.0,-89.78,-110.093,-0.99,2.23,-9.51,-13.33,-6.08,146.41,16.67
2023-05-05 12-48-51-823505,0,160,1555,1445.0,-89.78,-110.093,-0.9,2.21,-9.54,-13.04,-5.57,146.19,16.96
2023-05-05 12-48-52-008194,0,160,1555,1445.0,-89.78,-110.093,-0.87,2.13,-9.59,-13.02,-5.51,146.13,16.98
2023-05-05 12-48-52-191303,0,160,1554,1446.0,-89.78,-110.093,-0.95,2.24,-9.57,-13.31,-5.94,146.13,16.689999999999998
2023-05-05 12-48-52-372105,0,160,1554,1446.0,-89.78,-110.093,-1.07,2.25,-9.47,-13.85,-6.62,146.08,16.15
2023-05-05 12-48-52-550355,0,160,1553,1447.0,-89.78,-110.093,-1.17,2.42,-9.36,-14.49,-7.07,145.81,15.51
2023-05-05 12-48-52-735975,0,160,1552,1448.0,-89.78,-110.093,-1.13,2.53,-9.37,-15.1,-7.04,145.27,14.9
2023-05-05 12-48-52-914590,0,160,1551,1449.0,-89.868,-110.093,-1.17,2.6,-9.38,-15.71,-7.25,144.81,14.29
2023-05-05 12-48-53-089885,0,160,1550,1450.0,-89.868,-110.093,-1.29,2.7,-9.3,-16.34,-7.78,144.45,13.66
2023-05-05 12-48-53-260020,0,160,1549,1451.0,-89.78,-110.093,-1.38,2.82,-9.25,-16.93,-8.27,144.05,13.07
2023-05-05 12-48-53-436935,0,160,1548,1452.0,-89.78,-110.093,-1.47,2.9,-9.23,-17.46,-8.93,143.68,12.54
2023-05-05 12-48-53-608569,0,160,1548,1452.0,-89.78,-110.093,-1.56,2.96,-9.14,-17.85,-9.53,143.2,12.149999999999999
2023-05-05 12-48-53-779870,0,160,1547,1453.0,-89.868,-110.093,-1.61,2.97,-9.13,-18.0,-9.71,142.62,12.0
2023-05-05 12-48-53-965180,0,160,1548,1452.0,-89.78,-110.093,-1.62,2.93,-9.15,-17.96,-9.64,141.92,12.04
2023-05-05 12-48-54-145381,0,160,1548,1452.0,-89.78,-110.093,-1.56,2.92,-9.18,-17.76,-9.47,141.33,12.239999999999998
2023-05-05 12-48-54-320024,0,160,1548,1452.0,-89.78,-110.093,-1.5,2.88,-9.22,-17.47,-9.16,140.76,12.530000000000001
2023-05-05 12-48-54-485770,0,160,1549,1451.0,-89.868,-110.093,-1.46,2.84,-9.23,-17.16,-8.83,140.32,12.84
2023-05-05 12-48-54-665628,0,160,1550,1450.0,-89.78,-110.093,-1.38,2.77,-9.22,-16.71,-8.3,139.83,13.29
2023-05-05 12-48-54-855911,0,160,1550,1450.0,-89.78,-110.093,-1.25,2.66,-9.32,-16.15,-7.53,139.44,13.850000000000001
2023-05-05 12-48-55-038679,0,160,1551,1449.0,-89.78,-110.093,-1.17,2.61,-9.42,-15.58,-7.16,139.37,14.42
2023-05-05 12-48-55-220446,0,160,1552,1448.0,-89.868,-110.005,-1.16,2.56,-9.39,-15.31,-7.41,139.57,14.69
2023-05-05 12-48-55-398071,0,160,1552,1448.0,-89.78,-110.093,-1.25,2.54,-9.35,-15.17,-7.6,139.65,14.83
2023-05-05 12-48-55-576464,0,160,1552,1448.0,-89.78,-110.093,-1.19,2.51,-9.39,-15.18,-7.45,139.55,14.82
2023-05-05 12-48-55-748877,0,160,1552,1448.0,-89.868,-110.093,-1.18,2.52,-9.39,-15.3,-7.18,139.36,14.7
2023-05-05 12-48-55-932474,0,160,1551,1449.0,-89.78,-110.093,-1.06,2.59,-9.38,-15.54,-6.93,139.18,14.46
2023-05-05 12-48-56-105837,0,160,1551,1449.0,-89.78,-110.093,-1.1,2.65,-9.36,-15.86,-6.82,139.07,14.14
2023-05-05 12-48-56-279254,0,160,1550,1450.0,-89.868,-110.093,-1.11,2.69,-9.34,-16.16,-6.89,139.01,13.84
2023-05-05 12-48-56-454868,0,160,1550,1450.0,-89.78,-110.093,-1.16,2.77,-9.33,-16.55,-7.02,138.9,13.45
2023-05-05 12-48-56-636356,0,160,1549,1451.0,-89.78,-110.093,-1.21,2.79,-9.31,-16.93,-7.42,138.86,13.07
2023-05-05 12-48-56-801904,0,160,1549,1451.0,-89.868,-110.093,-1.29,2.85,-9.27,-17.23,-7.87,138.82,12.77
2023-05-05 12-48-56-985895,0,160,1548,1452.0,-89.868,-110.093,-1.34,2.87,-9.18,-17.42,-8.04,138.61,12.579999999999998
2023-05-05 12-48-57-163734,0,160,1549,1451.0,-89.78,-110.093,-1.3,2.86,-9.2,-17.32,-7.85,138.32,12.68
2023-05-05 12-48-57-349419,0,160,1549,1451.0,-89.868,-110.093,-1.26,2.82,-9.26,-17.07,-7.52,138.07,12.93
2023-05-05 12-48-57-514141,0,160,1549,1451.0,-89.868,-110.093,-1.2,2.76,-9.3,-16.75,-7.1,137.87,13.25
2023-05-05 12-48-57-697145,0,160,1550,1450.0,-89.868,-110.093,-1.08,2.71,-9.29,-16.31,-6.58,137.74,13.690000000000001
2023-05-05 12-48-57-871222,0,160,1551,1449.0,-89.868,-110.093,-0.97,2.63,-9.36,-15.77,-5.96,137.7,14.23
2023-05-05 12-48-58-051600,0,160,1552,1448.0,-89.868,-110.093,-0.91,2.56,-9.44,-15.26,-5.62,137.86,14.74
2023-05-05 12-48-58-231055,0,160,1552,1448.0,-89.868,-110.093,-0.86,2.48,-9.46,-14.93,-5.31,138.03,15.07
2023-05-05 12-48-58-418140,0,160,1552,1448.0,-89.868,-110.093,-0.78,2.47,-9.47,-14.77,-4.92,138.19,15.23
2023-05-05 12-48-58-594609,0,160,1552,1448.0,-89.868,-110.093,-0.71,2.44,-9.47,-14.73,-4.55,138.36,15.27
2023-05-05 12-48-58-773871,0,160,1552,1448.0,-89.868,-110.093,-0.69,2.48,-9.46,-14.79,-4.3,138.51,15.21
2023-05-05 12-48-58-950651,0,160,1552,1448.0,-89.78,-110.093,-0.6,2.52,-9.41,-14.9,-3.91,138.58,15.1
2023-05-05 12-48-59-125949,0,160,1552,1448.0,-89.868,-110.093,-0.58,2.53,-9.44,-15.09,-3.36,138.52,14.91
2023-05-05 12-48-59-313476,0,160,1551,1449.0,-89.868,-110.093,-0.52,2.54,-9.51,-15.32,-2.88,138.48,14.68
2023-05-05 12-48-59-499329,0,160,1551,1449.0,-89.78,-110.093,-0.47,2.61,-9.41,-15.56,-3.15,138.89,14.44
2023-05-05 12-48-59-675844,0,160,1551,1449.0,-89.868,-110.093,-0.58,2.64,-9.41,-15.8,-3.44,139.24,14.2
2023-05-05 12-48-59-852502,0,160,1550,1450.0,-89.868,-110.093,-0.58,2.66,-9.39,-16.05,-3.71,139.52,13.95
2023-05-05 12-49-00-029871,0,160,1550,1450.0,-89.868,-110.093,-0.61,2.72,-9.38,-16.3,-3.98,139.74,13.7
2023-05-05 12-49-00-205964,0,160,1550,1450.0,-89.868,-110.093,-0.86,2.7,-9.33,-16.46,-4.59,139.93,13.54
2023-05-05 12-49-00-383795,0,160,1549,1451.0,-89.78,-110.093,-0.84,2.77,-9.31,-16.68,-5.0,140.08,13.32
2023-05-05 12-49-00-562511,0,160,1549,1451.0,-89.868,-110.093,-0.88,2.79,-9.33,-16.92,-5.34,140.14,13.079999999999998
2023-05-05 12-49-00-738599,0,160,1549,1451.0,-89.78,-110.093,-0.9,2.87,-9.23,-17.09,-5.53,140.07,12.91
2023-05-05 12-49-00-932576,0,160,1549,1451.0,-89.868,-110.093,-0.92,2.85,-9.26,-17.1,-5.53,139.96,12.899999999999999
2023-05-05 12-49-01-110971,0,160,1549,1451.0,-89.868,-110.093,-0.86,2.81,-9.26,-16.92,-5.27,139.8,13.079999999999998
2023-05-05 12-49-01-290918,0,160,1550,1450.0,-89.78,-110.093,-0.72,2.78,-9.29,-16.56,-4.67,139.57,13.440000000000001
2023-05-05 12-49-01-457329,0,160,1550,1450.0,-89.868,-110.093,-0.63,2.7,-9.36,-16.08,-4.03,139.48,13.920000000000002
2023-05-05 12-49-01-641968,0,160,1551,1449.0,-89.868,-110.093,-0.58,2.58,-9.45,-15.65,-3.63,139.64,14.35
2023-05-05 12-49-01-822856,0,160,1552,1448.0,-89.868,-110.093,-0.53,2.57,-9.46,-15.37,-3.54,139.91,14.63
2023-05-05 12-49-02-007478,0,160,1552,1448.0,-89.78,-110.093,-0.51,2.55,-9.46,-15.25,-3.36,140.08,14.75
2023-05-05 12-49-02-181246,0,160,1552,1448.0,-89.868,-110.093,-0.48,2.53,-9.47,-15.25,-3.06,140.13,14.75
2023-05-05 12-49-02-361684,0,160,1551,1449.0,-89.78,-110.093,-0.54,2.51,-9.49,-15.34,-2.89,140.2,14.66
2023-05-05 12-49-02-541015,0,160,1551,1449.0,-89.868,-110.093,-0.48,2.58,-9.42,-15.48,-3.06,140.48,14.52
2023-05-05 12-49-02-721604,0,160,1551,1449.0,-89.78,-110.093,-0.52,2.6,-9.4,-15.65,-3.27,140.71,14.35
2023-05-05 12-49-02-894979,0,160,1551,1449.0,-89.868,-110.093,-0.56,2.64,-9.37,-15.86,-3.49,140.9,14.14
2023-05-05 12-49-03-073553,0,160,1550,1450.0,-89.868,-110.093,-0.59,2.67,-9.38,-16.03,-3.66,141.04,13.969999999999999
2023-05-05 12-49-03-262554,0,160,1550,1450.0,-89.868,-110.093,-0.55,2.71,-9.4,-16.18,-3.77,141.13,13.82
2023-05-05 12-49-03-441850,0,160,1550,1450.0,-89.868,-110.093,-0.64,2.71,-9.36,-16.19,-3.96,141.19,13.809999999999999
2023-05-05 12-49-03-623692,0,160,1550,1450.0,-89.868,-110.093,-0.7,2.68,-9.38,-16.2,-4.23,141.28,13.8
2023-05-05 12-49-03-805673,0,160,1550,1450.0,-89.78,-110.093,-0.73,2.71,-9.35,-16.31,-4.49,141.38,13.690000000000001
2023-05-05 12-49-03-985651,0,160,1550,1450.0,-89.868,-110.093,-0.76,2.73,-9.36,-16.45,-4.81,141.44,13.55
2023-05-05 12-49-04-159428,0,160,1550,1450.0,-89.868,-110.093,-0.81,2.78,-9.36,-16.59,-5.02,141.44,13.41
2023-05-05 12-49-04-343623,0,160,1549,1451.0,-89.78,-110.093,-0.85,2.79,-9.35,-16.71,-5.23,141.41,13.29
2023-05-05 12-49-04-528706,0,160,1549,1451.0,-89.78,-110.093,-0.88,2.84,-9.29,-16.87,-5.49,141.34,13.129999999999999
2023-05-05 12-49-04-700717,0,160,1549,1451.0,-89.78,-110.093,-0.91,2.81,-9.29,-16.93,-5.43,141.14,13.07
2023-05-05 12-49-04-883984,0,160,1549,1451.0,-89.868,-110.093,-0.89,2.8,-9.3,-16.79,-5.24,140.95,13.21
2023-05-05 12-49-05-064032,0,160,1550,1450.0,-89.868,-110.093,-0.81,2.77,-9.32,-16.55,-4.93,140.8,13.45
2023-05-05 12-49-05-258183,0,160,1550,1450.0,-89.78,-110.093,-0.71,2.68,-9.39,-16.18,-4.49,140.66,13.82
2023-05-05 12-49-05-420187,0,160,1551,1449.0,-89.78,-110.093,-0.65,2.64,-9.41,-15.92,-4.14,140.63,14.08
2023-05-05 12-49-05-587039,0,160,1551,1449.0,-89.868,-110.093,-0.62,2.61,-9.43,-15.68,-3.84,140.64,14.32
2023-05-05 12-49-05-768027,0,160,1551,1449.0,-89.78,-110.093,-0.56,2.59,-9.46,-15.52,-3.64,140.73,14.48
2023-05-05 12-49-05-950305,0,160,1551,1449.0,-89.78,-110.093,-0.53,2.65,-9.4,-15.57,-3.57,140.81,14.43
2023-05-05 12-49-06-128321,0,160,1551,1449.0,-89.868,-110.093,-0.61,2.54,-9.46,-15.7,-3.41,140.78,14.3
2023-05-05 12-49-06-310463,0,160,1551,1449.0,-89.868,-110.093,-0.55,2.63,-9.4,-15.84,-3.58,140.93,14.16
2023-05-05 12-49-06-489505,0,160,1550,1450.0,-89.78,-110.093,-0.61,2.68,-9.38,-15.99,-3.75,141.06,14.01
2023-05-05 12-49-06-671399,0,160,1550,1450.0,-89.78,-110.093,-0.63,2.71,-9.38,-16.16,-3.92,141.17,13.84
2023-05-05 12-49-06-849461,0,160,1550,1450.0,-89.868,-110.093,-0.61,2.78,-9.36,-16.26,-4.26,141.24,13.739999999999998
2023-05-05 12-49-07-031450,0,160,1550,1450.0,-89.868,-110.093,-0.73,2.71,-9.39,-16.38,-4.46,141.28,13.620000000000001
2023-05-05 12-49-07-214846,0,160,1550,1450.0,-89.78,-110.093,-0.75,2.75,-9.36,-16.5,-4.66,141.3,13.5
2023-05-05 12-49-07-400196,0,160,1549,1451.0,-89.78,-110.093,-0.81,2.78,-9.35,-16.65,-4.84,141.26,13.350000000000001
2023-05-05 12-49-07-576603,0,160,1549,1451.0,-89.78,-110.093,-0.83,2.8,-9.31,-16.79,-4.99,141.19,13.21
2023-05-05 12-49-07-759637,0,160,1549,1451.0,-89.868,-110.093,-0.81,2.8,-9.28,-16.74,-4.91,141.04,13.260000000000002
2023-05-05 12-49-07-936664,0,160,1550,1450.0,-89.78,-110.093,-0.76,2.77,-9.31,-16.48,-4.59,140.9,13.52
2023-05-05 12-49-08-112859,0,160,1550,1450.0,-89.78,-110.093,-0.66,2.66,-9.35,-16.14,-4.14,140.78,13.86
2023-05-05 12-49-08-301624,0,160,1551,1449.0,-89.78,-110.093,-0.57,2.6,-9.44,-15.76,-3.72,140.8,14.24
2023-05-05 12-49-08-485739,0,160,1551,1449.0,-89.78,-110.093,-0.58,2.58,-9.45,-15.51,-3.58,140.96,14.49
2023-05-05 12-49-08-649182,0,160,1551,1449.0,-89.868,-110.093,-0.59,2.57,-9.44,-15.36,-3.44,141.07,14.64
2023-05-05 12-49-08-838910,0,160,1552,1448.0,-89.78,-110.093,-0.52,2.55,-9.44,-15.32,-3.16,141.07,14.68
2023-05-05 12-49-09-026148,0,160,1551,1449.0,-89.868,-110.093,-0.48,2.48,-9.44,-15.37,-2.85,141.04,14.63
2023-05-05 12-49-09-206145,0,160,1551,1449.0,-89.78,-110.093,-0.44,2.59,-9.45,-15.41,-2.89,141.24,14.59
2023-05-05 12-49-09-393991,0,160,1551,1449.0,-89.78,-110.093,-0.45,2.59,-9.43,-15.49,-2.97,141.41,14.51
2023-05-05 12-49-09-575226,0,160,1551,1449.0,-89.78,-110.093,-0.46,2.59,-9.43,-15.54,-3.01,141.52,14.46
2023-05-05 12-49-09-747235,0,160,1551,1449.0,-89.78,-110.093,-0.47,2.64,-9.38,-15.57,-3.06,141.65,14.43
2023-05-05 12-49-09-934021,0,160,1551,1449.0,-89.868,-110.093,-0.48,2.61,-9.45,-15.57,-3.06,141.73,14.43
2023-05-05 12-49-10-115590,0,160,1551,1449.0,-89.868,-110.093,-0.51,2.63,-9.46,-15.63,-3.27,141.86,14.37
2023-05-05 12-49-10-298454,0,160,1551,1449.0,-89.868,-110.093,-0.55,2.67,-9.37,-15.81,-3.51,141.98,14.19
2023-05-05 12-49-10-468726,0,160,1551,1449.0,-89.868,-110.093,-0.6,2.67,-9.39,-15.97,-3.71,142.06,14.03
2023-05-05 12-49-10-653148,0,160,1550,1450.0,-89.868,-110.093,-0.62,2.67,-9.37,-16.16,-3.92,142.12,13.84
2023-05-05 12-49-10-832161,0,160,1550,1450.0,-89.868,-110.093,-0.66,2.71,-9.37,-16.33,-4.12,142.14,13.670000000000002
2023-05-05 12-49-11-010984,0,160,1550,1450.0,-89.78,-110.093,-0.77,2.72,-9.34,-16.46,-4.6,142.15,13.54
2023-05-05 12-49-11-198308,0,160,1550,1450.0,-89.868,-110.093,-0.81,2.77,-9.31,-16.62,-4.99,142.19,13.379999999999999
2023-05-05 12-49-11-372259,0,160,1549,1451.0,-89.78,-110.093,-0.85,2.8,-9.33,-16.83,-5.29,142.13,13.170000000000002
2023-05-05 12-49-11-556650,0,160,1549,1451.0,-89.868,-110.093,-0.9,2.88,-9.26,-17.06,-5.56,141.99,12.940000000000001
2023-05-05 12-49-11-733546,0,160,1549,1451.0,-89.78,-110.093,-0.92,2.85,-9.22,-17.16,-5.62,141.74,12.84
2023-05-05 12-49-11-920510,0,160,1549,1451.0,-89.78,-110.093,-0.85,2.86,-9.26,-16.98,-5.3,141.42,13.02
2023-05-05 12-49-12-100401,0,160,1550,1450.0,-89.868,-110.093,-0.76,2.8,-9.33,-16.61,-4.74,141.13,13.39
2023-05-05 12-49-12-286214,0,160,1550,1450.0,-89.78,-110.093,-0.67,2.69,-9.38,-16.12,-4.08,140.94,13.879999999999999
2023-05-05 12-49-12-460272,0,160,1551,1449.0,-89.868,-110.093,-0.6,2.62,-9.43,-15.73,-3.7,140.97,14.27
2023-05-05 12-49-12-631254,0,160,1551,1449.0,-89.868,-110.093,-0.57,2.57,-9.44,-15.47,-3.51,141.1,14.53
2023-05-05 12-49-12-816343,0,160,1552,1448.0,-89.78,-110.093,-0.52,2.58,-9.43,-15.3,-3.3,141.19,14.7
2023-05-05 12-49-12-998276,0,160,1552,1448.0,-89.78,-110.093,-0.45,2.56,-9.47,-15.29,-2.99,141.17,14.71
2023-05-05 12-49-13-174975,0,160,1551,1449.0,-89.868,-110.093,-0.44,2.6,-9.44,-15.37,-2.91,141.25,14.63
2023-05-05 12-49-13-359654,0,160,1551,1449.0,-89.868,-110.093,-0.48,2.58,-9.43,-15.51,-3.07,141.44,14.49
2023-05-05 12-49-13-535398,0,160,1551,1449.0,-89.78,-110.093,-0.5,2.63,-9.42,-15.67,-3.25,141.59,14.33
2023-05-05 12-49-13-718054,0,160,1551,1449.0,-89.868,-110.093,-0.57,2.63,-9.38,-15.88,-3.52,141.74,14.12
2023-05-05 12-49-13-884786,0,160,1550,1450.0,-89.78,-110.093,-0.6,2.7,-9.38,-16.07,-3.73,141.82,13.93
2023-05-05 12-49-14-066853,0,160,1550,1450.0,-89.868,-110.093,-0.64,2.69,-9.37,-16.25,-3.92,141.87,13.75
2023-05-05 12-49-14-247328,0,160,1550,1450.0,-89.78,-110.093,-0.64,2.75,-9.39,-16.32,-4.18,141.89,13.68
2023-05-05 12-49-14-424914,0,160,1550,1450.0,-89.78,-110.093,-0.75,2.75,-9.38,-16.44,-4.6,141.97,13.559999999999999
2023-05-05 12-49-14-605276,0,160,1549,1451.0,-89.868,-110.093,-0.81,2.78,-9.35,-16.69,-5.17,142.06,13.309999999999999
2023-05-05 12-49-14-788696,0,160,1549,1451.0,-89.78,-110.093,-0.92,2.84,-9.31,-16.96,-5.64,142.06,13.04
2023-05-05 12-49-14-969062,0,160,1549,1451.0,-89.868,-110.093,-0.93,2.85,-9.24,-17.13,-5.84,141.87,12.870000000000001
2023-05-05 12-49-15-149362,0,160,1549,1451.0,-89.868,-110.093,-0.94,2.84,-9.3,-17.11,-5.79,141.62,12.89
2023-05-05 12-49-15-326586,0,160,1549,1451.0,-89.78,-110.093,-0.92,2.81,-9.28,-16.98,-5.63,141.39,13.02
2023-05-05 12-49-15-501471,0,160,1549,1451.0,-89.868,-110.093,-0.87,2.79,-9.31,-16.77,-5.34,141.18,13.23
2023-05-05 12-49-15-678296,0,160,1550,1450.0,-89.78,-110.093,-0.78,2.75,-9.32,-16.46,-4.92,141.0,13.54
2023-05-05 12-49-15-852526,0,160,1550,1450.0,-89.78,-110.093,-0.71,2.66,-9.34,-16.07,-4.46,140.89,13.93
2023-05-05 12-49-16-041014,0,160,1551,1449.0,-89.868,-110.093,-0.62,2.61,-9.42,-15.72,-4.03,140.85,14.28
2023-05-05 12-49-16-209556,0,160,1551,1449.0,-89.868,-110.093,-0.6,2.58,-9.42,-15.48,-3.71,140.88,14.52
2023-05-05 12-49-16-400023,0,160,1552,1448.0,-89.78,-110.093,-0.5,2.52,-9.52,-15.32,-3.23,140.86,14.68
2023-05-05 12-49-16-576526,0,160,1552,1448.0,-89.78,-110.093,-0.48,2.54,-9.47,-15.33,-3.01,140.89,14.67
2023-05-05 12-49-16-766402,0,160,1551,1449.0,-89.78,-110.093,-0.47,2.6,-9.43,-15.47,-3.01,141.01,14.53
2023-05-05 12-49-16-937367,0,160,1551,1449.0,-89.868,-110.093,-0.5,2.63,-9.42,-15.66,-3.22,141.22,14.34
2023-05-05 12-49-17-099995,0,160,1551,1449.0,-89.868,-110.093,-0.55,2.62,-9.42,-15.86,-3.46,141.39,14.14
2023-05-05 12-49-17-288158,0,160,1550,1450.0,-89.868,-110.093,-0.59,2.66,-9.39,-16.15,-3.77,141.54,13.850000000000001
2023-05-05 12-49-17-471716,0,160,1550,1450.0,-89.868,-110.093,-0.65,2.74,-9.37,-16.44,-4.12,141.66,13.559999999999999
2023-05-05 12-49-17-659421,0,160,1549,1451.0,-89.868,-110.093,-1.02,2.7,-9.3,-16.66,-4.78,141.73,13.34
2023-05-05 12-49-17-834232,0,160,1549,1451.0,-89.78,-110.093,-0.85,2.82,-9.35,-16.92,-5.2,141.75,13.079999999999998
2023-05-05 12-49-18-012676,0,160,1549,1451.0,-89.78,-110.093,-0.93,2.84,-9.27,-17.14,-5.44,141.61,12.86
2023-05-05 12-49-18-198597,0,160,1549,1451.0,-89.78,-110.093,-0.92,2.84,-9.26,-17.16,-5.48,141.42,12.84
2023-05-05 12-49-18-380846,0,160,1549,1451.0,-89.868,-110.093,-0.86,2.83,-9.29,-16.96,-5.21,141.17,13.04
2023-05-05 12-49-18-563026,0,160,1550,1450.0,-89.78,-110.093,-0.74,2.77,-9.35,-16.57,-4.69,140.93,13.43
2023-05-05 12-49-18-743496,0,160,1550,1450.0,-89.78,-110.093,-0.65,2.71,-9.36,-16.13,-4.12,140.78,13.870000000000001
2023-05-05 12-49-18-927244,0,160,1551,1449.0,-89.78,-110.093,-0.6,2.63,-9.45,-15.74,-3.72,140.82,14.26
2023-05-05 12-49-19-108225,0,160,1551,1449.0,-89.868,-110.093,-0.58,2.58,-9.46,-15.53,-3.66,140.98,14.47
2023-05-05 12-49-19-292893,0,160,1551,1449.0,-89.868,-110.093,-0.55,2.59,-9.43,-15.44,-3.58,141.12,14.56
2023-05-05 12-49-19-481311,0,160,1551,1449.0,-89.868,-110.093,-0.56,2.58,-9.44,-15.5,-3.43,141.15,14.5
2023-05-05 12-49-19-667566,0,160,1551,1449.0,-89.868,-110.093,-0.62,2.55,-9.46,-15.66,-3.35,141.13,14.34
2023-05-05 12-49-19-850807,0,160,1551,1449.0,-89.868,-110.093,-0.57,2.64,-9.41,-15.86,-3.61,141.3,14.14
2023-05-05 12-49-20-036740,0,160,1550,1450.0,-89.868,-110.093,-0.6,2.72,-9.38,-16.09,-3.88,141.44,13.91
2023-05-05 12-49-20-211971,0,160,1550,1450.0,-89.78,-110.093,-0.67,2.73,-9.38,-16.33,-4.16,141.53,13.670000000000002
2023-05-05 12-49-20-392937,0,160,1550,1450.0,-89.78,-110.093,-0.72,2.74,-9.34,-16.5,-4.52,141.56,13.5
2023-05-05 12-49-20-583048,0,160,1550,1450.0,-89.868,-110.093,-0.75,2.75,-9.33,-16.63,-4.77,141.51,13.370000000000001
2023-05-05 12-49-20-765654,0,160,1549,1451.0,-89.868,-110.093,-0.8,2.79,-9.36,-16.73,-4.95,141.47,13.27
2023-05-05 12-49-20-956108,0,160,1549,1451.0,-89.868,-110.093,-0.86,2.8,-9.31,-16.94,-5.21,141.42,13.059999999999999
2023-05-05 12-49-21-129419,0,160,1549,1451.0,-89.868,-110.093,-0.88,2.82,-9.27,-17.0,-5.31,141.29,13.0
2023-05-05 12-49-21-317829,0,160,1549,1451.0,-89.868,-110.093,-0.85,2.79,-9.3,-16.85,-5.15,141.11,13.149999999999999
2023-05-05 12-49-21-507777,0,160,1550,1450.0,-89.868,-110.093,-0.78,2.76,-9.29,-16.55,-4.78,140.92,13.45
2023-05-05 12-49-21-688550,0,160,1550,1450.0,-89.78,-110.093,-0.69,2.68,-9.38,-16.14,-4.25,140.78,13.86
