Timestamp_log,left_angle,right_angle,left_thrust,right_thrust,read_left_angle,read_right_angle,accel_x,accel_y,accel_z,roll,pitch,yaw,error
2023-04-21 01-37-38-910267,-90,-110,1570,1430,-89.868,-110.005,0.33,-0.38,-9.76,2.18,1.75,170.76,32.18
2023-04-21 01-37-38-987830,-90,-110,1570,1430,-89.868,-110.093,0.33,-0.39,-9.77,2.18,1.75,170.77,32.18
2023-04-21 01-37-39-078550,-90,-110,1570,1430,-89.868,-110.005,0.32,-0.38,-9.76,2.19,1.75,170.78,32.19
2023-04-21 01-37-39-139725,-90,-110,1570,1430,-89.868,-110.005,0.33,-0.43,-9.82,2.18,1.76,170.77,32.18
2023-04-21 01-37-39-219816,-90,-110,1570,1430,-89.868,-110.005,0.31,-0.49,-10.28,2.16,1.75,170.78,32.16
2023-04-21 01-37-39-297929,-90,-110,1570,1430,-89.868,-110.005,0.28,-0.37,-10.2,1.86,1.7,170.78,31.86
2023-04-21 01-37-39-373252,-90,-110,1570,1430,-89.868,-110.005,0.28,-0.25,-10.34,1.1,1.59,170.75,31.1
2023-04-21 01-37-39-447660,-90,-110,1570,1430,-89.868,-110.005,0.32,-0.01,-10.16,-0.13,1.42,170.68,29.87
2023-04-21 01-37-39-525211,-90,-110,1570,1430,-89.868,-110.005,0.23,0.2,-9.99,-1.69,1.25,170.52,28.31
2023-04-21 01-37-39-603551,-90,-110,1570,1430,-89.78,-110.005,0.24,0.45,-9.98,-3.27,1.19,170.31,26.73
2023-04-21 01-37-39-689955,-90,-110,1570,1430,-89.868,-110.005,0.26,0.82,-9.97,-5.29,1.2,169.95,24.71
2023-04-21 01-37-39-765528,-90,-110,1570,1430,-89.868,-110.005,0.22,1.1,-9.84,-7.22,1.18,169.55,22.78
2023-04-21 01-37-39-824190,-90,-110,1566,1430,-89.868,-110.005,0.23,1.49,-9.76,-9.27,1.16,169.03,20.73
2023-04-21 01-37-39-895751,-90,-110,1561,1434,-89.868,-110.005,0.21,1.75,-9.65,-11.41,1.2,168.41,18.59
2023-04-21 01-37-39-966717,-90,-110,1556,1439,-89.868,-110.005,0.22,2.24,-9.45,-13.93,1.33,167.53,16.07
2023-04-21 01-37-40-043771,-90,-110,1552,1443,-89.868,-110.005,0.23,2.59,-9.24,-16.16,1.64,166.59,13.84
2023-04-21 01-37-40-123962,-90,-110,1547,1448,-89.868,-110.005,0.41,3.05,-9.06,-18.68,2.26,165.3,11.32
2023-04-21 01-37-40-203141,-90,-110,1542,1453,-89.868,-110.093,0.53,3.39,-8.86,-21.09,3.0,163.78,8.91
2023-04-21 01-37-40-263821,-90,-110,1538,1457,-89.868,-110.005,0.62,3.78,-8.77,-23.1,3.7,162.32,6.899999999999999
2023-04-21 01-37-40-338791,-90,-110,1534,1461,-89.868,-110.093,0.76,4.05,-8.61,-24.96,4.47,160.72,5.039999999999999
2023-04-21 01-37-40-418204,-90,-110,1530,1465,-89.868,-110.005,0.91,4.37,-8.41,-26.91,5.39,158.84,3.09
2023-04-21 01-37-40-493837,-90,-110,1530,1465,-89.868,-110.005,1.03,4.59,-8.25,-28.44,6.2,157.17,1.5599999999999987
2023-04-21 01-37-40-564811,-90,-110,1530,1465,-89.868,-110.005,1.24,4.95,-8.18,-30.01,7.09,155.22,-0.010000000000001563
2023-04-21 01-37-40-660659,-90,-110,1530,1465,-89.868,-110.005,1.32,4.92,-8.15,-30.98,7.71,153.86,-0.9800000000000004
2023-04-21 01-37-40-734101,-90,-110,1521,1474,-89.868,-110.005,1.44,5.07,-8.1,-32.15,8.39,152.16,-2.1499999999999986
2023-04-21 01-37-40-805801,-90,-110,1519,1476,-89.868,-110.093,1.55,5.25,-8.02,-33.17,8.88,150.64,-3.1700000000000017
2023-04-21 01-37-40-866638,-90,-110,1517,1478,-89.868,-110.093,1.6,5.39,-7.91,-34.05,9.16,149.3,-4.049999999999997
2023-04-21 01-37-40-955337,-90,-110,1516,1479,-89.868,-110.093,1.62,5.49,-7.82,-34.72,9.24,148.28,-4.719999999999999
2023-04-21 01-37-41-048890,-90,-110,1515,1480,-89.868,-110.005,1.61,5.53,-7.8,-35.18,9.22,147.49,-5.18
2023-04-21 01-37-41-117397,-90,-110,1514,1481,-89.868,-110.093,1.57,5.63,-7.75,-35.69,9.08,146.56,-5.689999999999998
2023-04-21 01-37-41-173954,-90,-110,1513,1482,-89.868,-110.093,1.52,5.7,-7.7,-36.07,8.88,145.72,-6.07
2023-04-21 01-37-41-233556,-90,-110,1513,1482,-89.868,-110.093,1.48,5.72,-7.67,-36.35,8.74,145.01,-6.350000000000001
2023-04-21 01-37-41-312857,-90,-110,1512,1483,-89.868,-110.093,1.47,5.75,-7.67,-36.61,8.68,144.17,-6.609999999999999
2023-04-21 01-37-41-389037,-90,-110,1512,1483,-89.868,-110.093,1.49,5.78,-7.65,-36.8,8.71,143.35,-6.799999999999997
2023-04-21 01-37-41-465774,-90,-110,1512,1483,-89.78,-110.093,1.52,5.8,-7.64,-36.92,8.78,142.58,-6.920000000000002
2023-04-21 01-37-41-543914,-90,-110,1512,1483,-89.868,-110.093,1.52,5.79,-7.66,-36.97,8.87,141.94,-6.969999999999999
2023-04-21 01-37-41-613913,-90,-110,1512,1483,-89.868,-110.093,1.55,5.81,-7.66,-36.98,8.98,141.25,-6.979999999999997
2023-04-21 01-37-41-690648,-90,-110,1512,1483,-89.868,-110.005,1.59,5.8,-7.69,-36.94,9.08,140.71,-6.939999999999998
2023-04-21 01-37-41-768008,-90,-110,1512,1483,-89.868,-110.093,1.6,5.78,-7.7,-36.87,9.15,140.13,-6.869999999999997
2023-04-21 01-37-41-843776,-90,-110,1512,1483,-89.78,-110.005,1.6,5.77,-7.73,-36.78,9.19,139.68,-6.780000000000001
2023-04-21 01-37-41-923530,-90,-110,1512,1483,-89.868,-110.005,1.61,5.75,-7.73,-36.66,9.19,139.22,-6.659999999999997
2023-04-21 01-37-41-998400,-90,-110,1512,1483,-89.868,-110.093,1.6,5.74,-7.76,-36.52,9.1,138.84,-6.520000000000003
2023-04-21 01-37-42-077596,-90,-110,1513,1482,-89.868,-110.005,1.56,5.72,-7.75,-36.34,8.91,138.55,-6.340000000000003
2023-04-21 01-37-42-153971,-90,-110,1513,1482,-89.78,-110.093,1.51,5.69,-7.77,-36.16,8.71,138.33,-6.159999999999997
2023-04-21 01-37-42-242730,-90,-110,1514,1481,-89.868,-110.005,1.48,5.67,-7.78,-35.92,8.49,138.09,-5.920000000000002
2023-04-21 01-37-42-308231,-90,-110,1514,1481,-89.868,-110.093,1.41,5.62,-7.82,-35.66,8.32,137.84,-5.659999999999997
2023-04-21 01-37-42-377411,-90,-110,1515,1480,-89.868,-110.093,1.41,5.59,-7.83,-35.44,8.29,137.55,-5.439999999999998
2023-04-21 01-37-42-454127,-90,-110,1515,1480,-89.868,-110.093,1.45,5.56,-7.87,-35.22,8.36,137.21,-5.219999999999999
2023-04-21 01-37-42-533367,-90,-110,1516,1479,-89.868,-110.093,1.49,5.52,-7.91,-34.94,8.54,136.83,-4.939999999999998
2023-04-21 01-37-42-610291,-90,-110,1516,1479,-89.868,-110.093,1.53,5.49,-7.95,-34.65,8.73,136.47,-4.649999999999999
2023-04-21 01-37-42-688110,-90,-110,1517,1478,-89.868,-110.093,1.58,5.44,-7.98,-34.36,8.9,136.15,-4.359999999999999
2023-04-21 01-37-42-764409,-90,-110,1517,1478,-89.868,-110.093,1.59,5.39,-8.01,-34.1,8.98,135.93,-4.100000000000001
2023-04-21 01-37-42-834493,-90,-110,1518,1477,-89.868,-110.005,1.6,5.35,-8.05,-33.79,8.99,135.73,-3.789999999999999
2023-04-21 01-37-42-906233,-90,-110,1519,1476,-89.868,-110.005,1.58,5.32,-8.07,-33.52,8.93,135.6,-3.520000000000003
2023-04-21 01-37-42-984805,-90,-110,1519,1476,-89.868,-110.093,1.55,5.26,-8.1,-33.25,8.83,135.5,-3.25
2023-04-21 01-37-43-062213,-90,-110,1520,1475,-89.868,-110.005,1.52,5.23,-8.12,-32.94,8.7,135.39,-2.9399999999999977
2023-04-21 01-37-43-131205,-90,-110,1520,1475,-89.868,-110.005,1.49,5.2,-8.13,-32.61,8.5,135.32,-2.6099999999999994
2023-04-21 01-37-43-210774,-90,-110,1521,1474,-89.868,-110.093,1.45,5.15,-8.15,-32.31,8.3,135.3,-2.3100000000000023
2023-04-21 01-37-43-294264,-90,-110,1521,1474,-89.868,-110.093,1.42,5.08,-8.34,-31.93,8.07,135.28,-1.9299999999999997
2023-04-21 01-37-43-367152,-90,-110,1521,1474,-89.868,-110.093,1.36,5.05,-8.39,-31.54,7.82,135.27,-1.5399999999999991
2023-04-21 01-37-43-446185,-90,-110,1521,1474,-89.78,-110.005,1.32,5.0,-8.35,-31.23,7.55,135.33,-1.2300000000000004
2023-04-21 01-37-43-527403,-90,-110,1521,1474,-89.868,-110.093,1.26,4.97,-8.33,-30.94,7.21,135.41,-0.9400000000000013
2023-04-21 01-37-43-590528,-90,-110,1521,1474,-89.868,-110.093,1.21,4.94,-8.38,-30.74,6.94,135.47,-0.7399999999999984
2023-04-21 01-37-43-664486,-90,-110,1521,1474,-89.868,-110.093,1.15,4.9,-8.39,-30.49,6.58,135.58,-0.48999999999999844
2023-04-21 01-37-43-749296,-90,-110,1521,1474,-89.868,-110.093,1.09,4.88,-8.38,-30.26,6.19,135.7,-0.26000000000000156
2023-04-21 01-37-43-823417,-90,-110,1521,1474,-89.868,-110.093,1.01,4.83,-8.28,-30.03,5.89,135.75,-0.030000000000001137
2023-04-21 01-37-43-899011,-90,-110,1521,1474,-89.868,-110.093,0.99,4.79,-8.35,-29.73,5.81,135.69,0.2699999999999996
2023-04-21 01-37-43-976403,-90,-110,1521,1474,-89.868,-110.005,1.02,4.75,-8.39,-29.4,5.89,135.55,0.6000000000000014
2023-04-21 01-37-44-055931,-90,-110,1521,1474,-89.868,-110.093,1.05,4.71,-8.44,-29.06,6.07,135.4,0.9400000000000013
2023-04-21 01-37-44-144122,-90,-110,1521,1474,-89.868,-110.005,1.14,4.62,-8.67,-28.65,6.27,135.28,1.3500000000000014
2023-04-21 01-37-44-198018,-90,-110,1521,1474,-89.868,-110.005,1.12,4.59,-8.62,-28.26,6.22,135.32,1.7399999999999984
2023-04-21 01-37-44-276190,-90,-110,1529,1466,-89.868,-110.093,1.09,4.53,-8.63,-27.93,6.04,135.43,2.0700000000000003
2023-04-21 01-37-44-354030,-90,-110,1529,1466,-89.868,-110.093,1.03,4.47,-8.64,-27.6,5.79,135.57,2.3999999999999986
2023-04-21 01-37-44-427316,-90,-110,1530,1465,-89.868,-110.093,0.98,4.44,-8.67,-27.24,5.49,135.74,2.7600000000000016
2023-04-21 01-37-44-502758,-90,-110,1531,1464,-89.868,-110.005,0.94,4.38,-8.62,-26.95,5.29,135.84,3.0500000000000007
2023-04-21 01-37-44-576647,-90,-110,1531,1464,-89.868,-110.093,0.9,4.34,-8.57,-26.64,5.2,135.87,3.3599999999999994
2023-04-21 01-37-44-657069,-90,-110,1532,1463,-89.868,-110.005,0.93,4.31,-8.63,-26.26,5.38,135.76,3.7399999999999984
2023-04-21 01-37-44-739366,-90,-110,1533,1462,-89.868,-110.093,1.02,4.2,-8.68,-25.87,5.86,135.53,4.129999999999999
2023-04-21 01-37-44-812942,-90,-110,1534,1461,-89.868,-110.093,1.14,4.14,-8.74,-25.53,6.51,135.26,4.469999999999999
2023-04-21 01-37-44-893753,-90,-110,1534,1461,-89.868,-110.093,1.34,4.05,-8.83,-25.13,7.45,134.88,4.870000000000001
2023-04-21 01-37-44-973193,-90,-110,1535,1460,-89.868,-110.005,1.47,4.02,-8.86,-24.83,8.13,134.67,5.170000000000002
2023-04-21 01-37-45-075553,-90,-110,1535,1460,-89.868,-110.005,1.59,4.0,-8.9,-24.53,8.75,134.52,5.469999999999999
2023-04-21 01-37-45-137875,-90,-110,1536,1459,-89.868,-110.005,1.67,3.91,-8.95,-24.23,9.12,134.49,5.77
2023-04-21 01-37-45-208927,-90,-110,1537,1458,-89.78,-110.093,1.68,3.88,-8.96,-23.99,9.16,134.59,6.010000000000002
2023-04-21 01-37-45-286341,-90,-110,1537,1458,-89.868,-110.093,1.6,3.87,-8.91,-23.8,8.9,134.74,6.199999999999999
2023-04-21 01-37-45-353852,-90,-110,1537,1458,-89.868,-110.093,1.54,3.84,-8.9,-23.71,8.64,134.85,6.289999999999999
2023-04-21 01-37-45-439898,-90,-110,1537,1458,-89.868,-110.093,1.51,3.87,-8.88,-23.66,8.47,134.89,6.34
2023-04-21 01-37-45-507026,-90,-110,1537,1458,-89.868,-110.005,1.45,3.84,-8.85,-23.65,8.37,134.86,6.350000000000001
2023-04-21 01-37-45-585069,-90,-110,1537,1458,-89.868,-110.093,1.49,3.86,-8.89,-23.68,8.41,134.77,6.32
2023-04-21 01-37-45-663642,-90,-110,1537,1458,-89.868,-110.093,1.5,3.86,-8.89,-23.75,8.53,134.61,6.25
2023-04-21 01-37-45-741950,-90,-110,1537,1458,-89.868,-110.093,1.54,3.89,-8.89,-23.85,8.62,134.47,6.149999999999999
2023-04-21 01-37-45-824821,-90,-110,1537,1458,-89.868,-110.093,1.55,3.89,-8.92,-23.96,8.63,134.38,6.039999999999999
2023-04-21 01-37-45-902294,-90,-110,1536,1459,-89.78,-110.093,1.5,3.9,-8.87,-24.13,8.53,134.31,5.870000000000001
2023-04-21 01-37-45-963833,-90,-110,1536,1459,-89.868,-110.093,1.45,3.96,-8.82,-24.33,8.39,134.23,5.670000000000002
2023-04-21 01-37-46-032821,-90,-110,1535,1460,-89.868,-110.005,1.43,3.97,-8.81,-24.55,8.3,134.12,5.449999999999999
2023-04-21 01-37-46-115367,-90,-110,1535,1460,-89.868,-110.093,1.44,4.02,-8.79,-24.76,8.26,134.0,5.239999999999998
2023-04-21 01-37-46-192914,-90,-110,1534,1461,-89.868,-110.093,1.46,4.11,-8.78,-25.0,8.27,133.86,5.0
2023-04-21 01-37-46-270316,-90,-110,1534,1461,-89.868,-110.093,1.44,4.09,-8.74,-25.24,8.22,133.75,4.760000000000002
2023-04-21 01-37-46-339755,-90,-110,1534,1461,-89.868,-110.093,1.38,4.12,-8.7,-25.46,8.1,133.67,4.539999999999999
2023-04-21 01-37-46-419599,-90,-110,1533,1462,-89.868,-110.093,1.38,4.18,-8.67,-25.63,8.04,133.58,4.370000000000001
2023-04-21 01-37-46-498542,-90,-110,1533,1462,-89.868,-110.093,1.39,4.19,-8.67,-25.8,8.08,133.43,4.199999999999999
2023-04-21 01-37-46-576005,-90,-110,1533,1462,-89.868,-110.093,1.43,4.21,-8.67,-25.92,8.2,133.27,4.079999999999998
2023-04-21 01-37-46-652450,-90,-110,1532,1463,-89.78,-110.093,1.46,4.24,-8.63,-26.04,8.41,133.06,3.960000000000001
2023-04-21 01-37-46-720167,-90,-110,1532,1463,-89.868,-110.005,1.52,4.25,-8.65,-26.12,8.67,132.84,3.879999999999999
2023-04-21 01-37-46-797726,-90,-110,1532,1463,-89.868,-110.093,1.57,4.25,-8.66,-26.17,8.89,132.65,3.8299999999999983
2023-04-21 01-37-46-876944,-90,-110,1532,1463,-89.868,-110.005,1.6,4.22,-8.75,-26.18,9.07,132.47,3.8200000000000003
2023-04-21 01-37-46-949610,-90,-110,1532,1463,-89.868,-110.005,1.63,4.22,-8.75,-26.19,9.1,132.39,3.8099999999999987
2023-04-21 01-37-47-029890,-90,-110,1532,1463,-89.868,-110.005,1.59,4.23,-8.71,-26.22,8.96,132.38,3.780000000000001
2023-04-21 01-37-47-104967,-90,-110,1532,1463,-89.868,-110.093,1.53,4.27,-8.69,-26.26,8.71,132.4,3.7399999999999984
2023-04-21 01-37-47-184874,-90,-110,1532,1463,-89.868,-110.093,1.46,4.24,-8.66,-26.29,8.46,132.41,3.710000000000001
2023-04-21 01-37-47-262951,-90,-110,1532,1463,-89.868,-110.093,1.42,4.25,-8.64,-26.32,8.21,132.42,3.6799999999999997
2023-04-21 01-37-47-344162,-90,-110,1532,1463,-89.868,-110.005,1.38,4.27,-8.63,-26.35,8.01,132.41,3.6499999999999986
2023-04-21 01-37-47-425675,-90,-110,1532,1463,-89.868,-110.005,1.35,4.24,-8.63,-26.36,7.92,132.34,3.6400000000000006
2023-04-21 01-37-47-515679,-90,-110,1532,1463,-89.868,-110.093,1.36,4.28,-8.62,-26.36,7.98,132.22,3.6400000000000006
2023-04-21 01-37-47-588102,-90,-110,1532,1463,-89.868,-110.093,1.39,4.25,-8.59,-26.35,8.14,132.1,3.6499999999999986
2023-04-21 01-37-47-646362,-90,-110,1532,1463,-89.868,-110.093,1.47,4.27,-8.64,-26.31,8.5,131.86,3.6900000000000013
2023-04-21 01-37-47-728444,-90,-110,1532,1463,-89.78,-110.005,1.55,4.27,-8.58,-26.26,8.89,131.63,3.7399999999999984
2023-04-21 01-37-47-801609,-90,-110,1532,1463,-89.868,-110.093,1.63,4.22,-8.76,-26.18,9.21,131.47,3.8200000000000003
2023-04-21 01-37-47-880791,-90,-110,1532,1463,-89.868,-110.093,1.65,4.22,-8.79,-26.11,9.24,131.43,3.8900000000000006
2023-04-21 01-37-47-959520,-90,-110,1532,1463,-89.78,-110.093,1.59,4.22,-8.72,-26.06,8.98,131.52,3.9400000000000013
2023-04-21 01-37-48-039775,-90,-110,1532,1463,-89.868,-110.005,1.51,4.23,-8.68,-26.03,8.61,131.65,3.969999999999999
2023-04-21 01-37-48-126187,-90,-110,1532,1463,-89.868,-110.093,1.42,4.26,-8.67,-26.01,8.28,131.74,3.9899999999999984
2023-04-21 01-37-48-195735,-90,-110,1533,1462,-89.868,-110.093,1.4,4.23,-8.67,-25.99,8.08,131.77,4.010000000000002
2023-04-21 01-37-48-273848,-90,-110,1533,1462,-89.868,-110.005,1.35,4.21,-8.66,-25.95,7.91,131.78,4.050000000000001
2023-04-21 01-37-48-354360,-90,-110,1533,1462,-89.868,-110.093,1.34,4.21,-8.69,-25.9,7.84,131.74,4.100000000000001
2023-04-21 01-37-48-432444,-90,-110,1533,1462,-89.78,-110.093,1.35,4.19,-8.69,-25.84,7.88,131.68,4.16
2023-04-21 01-37-48-511950,-90,-110,1533,1462,-89.868,-110.093,1.38,4.2,-8.71,-25.79,8.0,131.6,4.210000000000001
2023-04-21 01-37-48-589718,-90,-110,1533,1462,-89.868,-110.093,1.43,4.17,-8.71,-25.72,8.18,131.5,4.280000000000001
2023-04-21 01-37-48-667105,-90,-110,1533,1462,-89.868,-110.005,1.47,4.14,-8.73,-25.65,8.38,131.41,4.350000000000001
2023-04-21 01-37-48-737845,-90,-110,1533,1462,-89.868,-110.005,1.51,4.15,-8.78,-25.6,8.55,131.35,4.399999999999999
2023-04-21 01-37-48-818017,-90,-110,1533,1462,-89.868,-110.093,1.5,4.15,-8.75,-25.56,8.61,131.34,4.440000000000001
2023-04-21 01-37-48-895393,-90,-110,1533,1462,-89.868,-110.093,1.53,4.14,-8.75,-25.51,8.61,131.36,4.489999999999998
2023-04-21 01-37-48-975741,-90,-110,1534,1461,-89.868,-110.093,1.5,4.13,-8.74,-25.46,8.54,131.43,4.539999999999999
2023-04-21 01-37-49-053800,-90,-110,1534,1461,-89.868,-110.093,1.47,4.14,-8.74,-25.44,8.42,131.49,4.559999999999999
2023-04-21 01-37-49-125265,-90,-110,1534,1461,-89.78,-110.005,1.44,4.12,-8.73,-25.41,8.3,131.54,4.59
2023-04-21 01-37-49-206749,-90,-110,1534,1461,-89.868,-110.093,1.43,4.15,-8.73,-25.37,8.21,131.59,4.629999999999999
2023-04-21 01-37-49-290367,-90,-110,1534,1461,-89.868,-110.093,1.42,4.11,-8.75,-25.33,8.14,131.62,4.670000000000002
2023-04-21 01-37-49-364934,-90,-110,1534,1461,-89.868,-110.005,1.4,4.08,-8.72,-25.3,8.13,131.62,4.699999999999999
2023-04-21 01-37-49-434244,-90,-110,1534,1461,-89.868,-110.093,1.45,4.11,-8.78,-25.27,8.19,131.59,4.73
2023-04-21 01-37-49-515236,-90,-110,1534,1461,-89.868,-110.093,1.43,4.11,-8.74,-25.23,8.25,131.57,4.77
2023-04-21 01-37-49-594572,-90,-110,1534,1461,-89.78,-110.093,1.43,4.08,-8.71,-25.2,8.31,131.56,4.800000000000001
2023-04-21 01-37-49-674231,-90,-110,1534,1461,-89.868,-110.093,1.47,4.08,-8.71,-25.17,8.47,131.51,4.829999999999998
2023-04-21 01-37-49-753619,-90,-110,1534,1461,-89.868,-110.093,1.49,4.06,-8.74,-25.11,8.67,131.44,4.890000000000001
2023-04-21 01-37-49-815694,-90,-110,1534,1461,-89.868,-110.093,1.55,4.06,-8.76,-25.05,8.84,131.39,4.949999999999999
2023-04-21 01-37-49-905576,-90,-110,1535,1460,-89.868,-110.005,1.58,4.08,-8.83,-24.98,8.95,131.37,5.02
2023-04-21 01-37-49-974846,-90,-110,1535,1460,-89.78,-110.093,1.58,4.04,-8.83,-24.93,8.92,131.41,5.07
2023-04-21 01-37-50-050516,-90,-110,1535,1460,-89.868,-110.093,1.56,4.07,-8.83,-24.89,8.72,131.5,5.109999999999999
2023-04-21 01-37-50-129703,-90,-110,1535,1460,-89.868,-110.005,1.49,4.04,-8.87,-24.86,8.36,131.66,5.140000000000001
2023-04-21 01-37-50-208973,-90,-110,1535,1460,-89.78,-110.005,1.36,4.05,-8.8,-24.9,7.89,131.85,5.100000000000001
2023-04-21 01-37-50-288536,-90,-110,1535,1460,-89.868,-110.093,1.28,4.06,-8.76,-24.95,7.5,131.98,5.050000000000001
2023-04-21 01-37-50-356941,-90,-110,1535,1460,-89.868,-110.093,1.25,4.07,-8.78,-24.98,7.25,132.07,5.02
2023-04-21 01-37-50-435587,-90,-110,1534,1461,-89.868,-110.093,1.2,4.12,-8.78,-25.04,7.05,132.13,4.960000000000001
2023-04-21 01-37-50-515839,-90,-110,1534,1461,-89.78,-110.005,1.19,4.09,-8.75,-25.1,6.93,132.15,4.899999999999999
2023-04-21 01-37-50-594842,-90,-110,1534,1461,-89.868,-110.093,1.19,4.07,-8.72,-25.17,6.96,132.12,4.829999999999998
2023-04-21 01-37-50-677516,-90,-110,1534,1461,-89.868,-110.093,1.2,4.11,-8.69,-25.23,7.15,132.01,4.77
2023-04-21 01-37-50-743904,-90,-110,1534,1461,-89.868,-110.093,1.3,4.13,-8.72,-25.27,7.51,131.84,4.73
2023-04-21 01-37-50-843748,-90,-110,1534,1461,-89.868,-110.093,1.39,4.11,-8.72,-25.28,7.92,131.69,4.719999999999999
2023-04-21 01-37-50-912854,-90,-110,1534,1461,-89.78,-110.093,1.48,4.12,-8.77,-25.29,8.38,131.52,4.710000000000001
2023-04-21 01-37-50-983379,-90,-110,1534,1461,-89.868,-110.093,1.55,4.12,-8.78,-25.29,8.75,131.41,4.710000000000001
2023-04-21 01-37-51-050285,-90,-110,1534,1461,-89.868,-110.005,1.59,4.13,-8.78,-25.3,8.98,131.37,4.699999999999999
2023-04-21 01-37-51-131055,-90,-110,1534,1461,-89.868,-110.093,1.62,4.13,-8.78,-25.3,9.06,131.37,4.699999999999999
2023-04-21 01-37-51-198375,-90,-110,1534,1461,-89.78,-110.093,1.61,4.12,-8.76,-25.32,9.01,131.45,4.68
2023-04-21 01-37-51-276819,-90,-110,1534,1461,-89.868,-110.093,1.54,4.11,-8.75,-25.33,8.8,131.57,4.670000000000002
2023-04-21 01-37-51-359580,-90,-110,1534,1461,-89.868,-110.093,1.49,4.12,-8.72,-25.33,8.54,131.7,4.670000000000002
2023-04-21 01-37-51-437760,-90,-110,1534,1461,-89.868,-110.093,1.44,4.12,-8.72,-25.33,8.29,131.79,4.670000000000002
2023-04-21 01-37-51-516351,-90,-110,1534,1461,-89.868,-110.005,1.39,4.1,-8.74,-25.33,8.1,131.84,4.670000000000002
2023-04-21 01-37-51-609526,-90,-110,1534,1461,-89.868,-110.093,1.38,4.11,-8.73,-25.33,8.0,131.85,4.670000000000002
2023-04-21 01-37-51-676807,-90,-110,1534,1461,-89.868,-110.093,1.37,4.15,-8.7,-25.33,7.93,131.83,4.670000000000002
2023-04-21 01-37-51-774090,-90,-110,1534,1461,-89.868,-110.093,1.38,4.12,-8.73,-25.31,8.0,131.76,4.690000000000001
2023-04-21 01-37-51-852763,-90,-110,1534,1461,-89.868,-110.093,1.39,4.11,-8.73,-25.29,8.13,131.68,4.710000000000001
2023-04-21 01-37-51-944423,-90,-110,1534,1461,-89.868,-110.093,1.46,4.13,-8.7,-25.26,8.35,131.57,4.739999999999998
2023-04-21 01-37-52-006850,-90,-110,1534,1461,-89.868,-110.093,1.5,4.1,-8.73,-25.21,8.65,131.42,4.789999999999999
2023-04-21 01-37-52-060336,-90,-110,1534,1461,-89.868,-110.093,1.55,4.07,-8.74,-25.16,8.91,131.3,4.84
2023-04-21 01-37-52-134664,-90,-110,1534,1461,-89.868,-110.093,1.62,4.05,-8.85,-25.08,9.1,131.21,4.920000000000002
2023-04-21 01-37-52-212963,-90,-110,1535,1460,-89.868,-110.093,1.6,4.05,-8.83,-25.0,9.02,131.25,5.0
2023-04-21 01-37-52-289826,-90,-110,1535,1460,-89.868,-110.093,1.54,4.07,-8.79,-24.94,8.74,131.37,5.059999999999999
2023-04-21 01-37-52-369480,-90,-110,1535,1460,-89.868,-110.093,1.49,4.03,-8.83,-24.91,8.4,131.49,5.09
2023-04-21 01-37-52-449873,-90,-110,1535,1460,-89.868,-110.005,1.41,4.05,-8.79,-24.91,8.04,131.6,5.09
2023-04-21 01-37-52-533199,-90,-110,1535,1460,-89.868,-110.093,1.33,4.06,-8.79,-24.94,7.67,131.72,5.059999999999999
2023-04-21 01-37-52-612833,-90,-110,1535,1460,-89.78,-110.093,1.28,4.07,-8.77,-24.98,7.41,131.78,5.02
2023-04-21 01-37-52-685883,-90,-110,1534,1461,-89.868,-110.005,1.24,4.08,-8.76,-25.02,7.24,131.81,4.98
2023-04-21 01-37-52-758293,-90,-110,1534,1461,-89.868,-110.093,1.23,4.08,-8.78,-25.06,7.19,131.8,4.940000000000001
2023-04-21 01-37-52-836198,-90,-110,1534,1461,-89.868,-110.093,1.23,4.09,-8.74,-25.12,7.22,131.77,4.879999999999999
2023-04-21 01-37-52-912798,-90,-110,1534,1461,-89.868,-110.093,1.27,4.09,-8.69,-25.17,7.41,131.66,4.829999999999998
2023-04-21 01-37-52-996330,-90,-110,1534,1461,-89.868,-110.005,1.34,4.11,-8.73,-25.19,7.73,131.51,4.809999999999999
2023-04-21 01-37-53-072695,-90,-110,1534,1461,-89.868,-110.093,1.43,4.1,-8.78,-25.19,8.13,131.36,4.809999999999999
2023-04-21 01-37-53-153354,-90,-110,1534,1461,-89.868,-110.093,1.5,4.11,-8.79,-25.18,8.48,131.25,4.82
2023-04-21 01-37-53-233694,-90,-110,1534,1461,-89.868,-110.093,1.54,4.09,-8.8,-25.18,8.71,131.18,4.82
2023-04-21 01-37-53-313906,-90,-110,1534,1461,-89.868,-110.093,1.54,4.11,-8.79,-25.18,8.8,131.19,4.82
2023-04-21 01-37-53-392863,-90,-110,1534,1461,-89.868,-110.093,1.55,4.09,-8.78,-25.17,8.76,131.25,4.829999999999998
2023-04-21 01-37-53-473857,-90,-110,1534,1461,-89.868,-110.093,1.51,4.11,-8.76,-25.16,8.59,131.34,4.84
2023-04-21 01-37-53-553095,-90,-110,1534,1461,-89.78,-110.005,1.47,4.09,-8.75,-25.16,8.4,131.43,4.84
2023-04-21 01-37-53-622300,-90,-110,1534,1461,-89.868,-110.093,1.44,4.08,-8.74,-25.16,8.22,131.5,4.84
2023-04-21 01-37-53-700950,-90,-110,1534,1461,-89.868,-110.093,1.4,4.08,-8.74,-25.17,8.1,131.54,4.829999999999998
2023-04-21 01-37-53-782801,-90,-110,1534,1461,-89.868,-110.093,1.39,4.1,-8.72,-25.16,8.02,131.56,4.84
2023-04-21 01-37-53-861386,-90,-110,1534,1461,-89.78,-110.093,1.4,4.1,-8.71,-25.16,8.05,131.53,4.84
2023-04-21 01-37-53-931276,-90,-110,1534,1461,-89.868,-110.093,1.43,4.08,-8.71,-25.12,8.27,131.43,4.879999999999999
2023-04-21 01-37-54-010930,-90,-110,1534,1461,-89.868,-110.093,1.47,4.07,-8.72,-25.07,8.54,131.31,4.93
2023-04-21 01-37-54-091177,-90,-110,1535,1460,-89.868,-110.093,1.57,4.06,-8.79,-25.0,8.86,131.18,5.0
2023-04-21 01-37-54-175624,-90,-110,1535,1460,-89.78,-110.093,1.6,4.05,-8.84,-24.93,9.07,131.12,5.07
2023-04-21 01-37-54-254355,-90,-110,1535,1460,-89.868,-110.093,1.64,4.04,-8.94,-24.87,9.06,131.15,5.129999999999999
2023-04-21 01-37-54-326320,-90,-110,1535,1460,-89.868,-110.005,1.57,4.02,-8.87,-24.86,8.75,131.31,5.140000000000001
2023-04-21 01-37-54-407143,-90,-110,1535,1460,-89.78,-110.093,1.46,4.08,-8.82,-24.89,8.33,131.49,5.109999999999999
2023-04-21 01-37-54-489347,-90,-110,1535,1460,-89.868,-110.005,1.32,4.05,-8.74,-24.95,7.74,131.72,5.050000000000001
2023-04-21 01-37-54-557921,-90,-110,1534,1461,-89.868,-110.093,1.29,4.08,-8.75,-25.03,7.42,131.83,4.969999999999999
2023-04-21 01-37-54-637240,-90,-110,1534,1461,-89.868,-110.093,1.24,4.1,-8.75,-25.1,7.18,131.91,4.899999999999999
2023-04-21 01-37-54-716824,-90,-110,1534,1461,-89.868,-110.093,1.2,4.11,-8.71,-25.17,6.99,131.96,4.829999999999998
2023-04-21 01-37-54-796648,-90,-110,1534,1461,-89.868,-110.005,1.19,4.13,-8.67,-25.23,7.0,131.93,4.77
2023-04-21 01-37-54-878045,-90,-110,1534,1461,-89.868,-110.093,1.27,4.11,-8.71,-25.27,7.29,131.78,4.73
2023-04-21 01-37-54-961434,-90,-110,1534,1461,-89.868,-110.093,1.32,4.13,-8.74,-25.3,7.62,131.63,4.699999999999999
2023-04-21 01-37-55-051766,-90,-110,1534,1461,-89.868,-110.093,1.42,4.11,-8.74,-25.3,8.09,131.44,4.699999999999999
2023-04-21 01-37-55-130081,-90,-110,1534,1461,-89.78,-110.093,1.5,4.13,-8.76,-25.3,8.52,131.3,4.699999999999999
2023-04-21 01-37-55-203995,-90,-110,1534,1461,-89.868,-110.005,1.58,4.14,-8.79,-25.31,8.86,131.2,4.690000000000001
2023-04-21 01-37-55-275972,-90,-110,1534,1461,-89.868,-110.093,1.6,4.12,-8.75,-25.31,9.05,131.17,4.690000000000001
2023-04-21 01-37-55-354210,-90,-110,1534,1461,-89.868,-110.093,1.61,4.11,-8.74,-25.31,9.13,131.18,4.690000000000001
2023-04-21 01-37-55-430479,-90,-110,1534,1461,-89.868,-110.093,1.62,4.14,-8.74,-25.3,9.13,131.2,4.699999999999999
2023-04-21 01-37-55-510940,-90,-110,1534,1461,-89.868,-110.005,1.6,4.1,-8.78,-25.27,9.06,131.23,4.73
2023-04-21 01-37-55-579984,-90,-110,1534,1461,-89.868,-110.093,1.56,4.09,-8.8,-25.24,8.89,131.31,4.760000000000002
2023-04-21 01-37-55-661669,-90,-110,1534,1461,-89.868,-110.093,1.51,4.12,-8.76,-25.23,8.61,131.41,4.77
2023-04-21 01-37-55-744973,-90,-110,1534,1461,-89.868,-110.093,1.44,4.12,-8.74,-25.24,8.32,131.51,4.760000000000002
2023-04-21 01-37-55-821714,-90,-110,1534,1461,-89.868,-110.093,1.39,4.11,-8.74,-25.26,8.06,131.59,4.739999999999998
2023-04-21 01-37-55-888315,-90,-110,1534,1461,-89.868,-110.093,1.34,4.11,-8.71,-25.28,7.88,131.62,4.719999999999999
2023-04-21 01-37-55-972832,-90,-110,1534,1461,-89.868,-110.005,1.34,4.11,-8.7,-25.3,7.83,131.6,4.699999999999999
2023-04-21 01-37-56-051080,-90,-110,1534,1461,-89.868,-110.093,1.35,4.11,-8.72,-25.29,7.92,131.52,4.710000000000001
2023-04-21 01-37-56-132661,-90,-110,1534,1461,-89.868,-110.093,1.41,4.11,-8.74,-25.28,8.15,131.4,4.719999999999999
2023-04-21 01-37-56-214163,-90,-110,1534,1461,-89.868,-110.093,1.46,4.11,-8.69,-25.26,8.4,131.27,4.739999999999998
2023-04-21 01-37-56-294185,-90,-110,1534,1461,-89.868,-110.093,1.54,4.12,-8.75,-25.24,8.72,131.13,4.760000000000002
2023-04-21 01-37-56-374963,-90,-110,1534,1461,-89.868,-110.093,1.59,4.09,-8.76,-25.2,9.01,131.01,4.800000000000001
2023-04-21 01-37-56-442691,-90,-110,1534,1461,-89.868,-110.093,1.66,4.08,-8.85,-25.14,9.17,130.96,4.859999999999999
2023-04-21 01-37-56-523210,-90,-110,1534,1461,-89.868,-110.093,1.62,4.07,-8.85,-25.09,9.07,131.02,4.91
2023-04-21 01-37-56-604321,-90,-110,1534,1461,-89.78,-110.093,1.52,4.05,-8.79,-25.07,8.74,131.16,4.93
2023-04-21 01-37-56-684350,-90,-110,1534,1461,-89.78,-110.093,1.46,4.08,-8.76,-25.07,8.4,131.28,4.93
2023-04-21 01-37-56-756204,-90,-110,1534,1461,-89.868,-110.093,1.39,4.11,-8.73,-25.07,8.09,131.37,4.93
2023-04-21 01-37-56-837177,-90,-110,1534,1461,-89.868,-110.093,1.35,4.08,-8.71,-25.07,7.92,131.4,4.93
2023-04-21 01-37-56-917365,-90,-110,1534,1461,-89.868,-110.093,1.34,4.08,-8.74,-25.08,7.84,131.38,4.920000000000002
2023-04-21 01-37-56-999289,-90,-110,1534,1461,-89.868,-110.093,1.35,4.1,-8.76,-25.07,7.87,131.34,4.93
2023-04-21 01-37-57-084299,-90,-110,1534,1461,-89.868,-110.093,1.4,4.08,-8.77,-25.06,7.98,131.27,4.940000000000001
2023-04-21 01-37-57-174029,-90,-110,1534,1461,-89.868,-110.005,1.42,4.05,-8.76,-25.05,8.08,131.22,4.949999999999999
2023-04-21 01-37-57-254667,-90,-110,1534,1461,-89.78,-110.005,1.45,4.09,-8.78,-25.03,8.22,131.16,4.969999999999999
2023-04-21 01-37-57-316500,-90,-110,1534,1461,-89.868,-110.093,1.46,4.05,-8.77,-25.01,8.33,131.13,4.989999999999998
2023-04-21 01-37-57-397803,-90,-110,1535,1460,-89.868,-110.093,1.47,4.07,-8.78,-25.0,8.4,131.12,5.0
2023-04-21 01-37-57-473812,-90,-110,1535,1460,-89.868,-110.093,1.47,4.07,-8.81,-24.99,8.43,131.13,5.010000000000002
2023-04-21 01-37-57-551772,-90,-110,1535,1460,-89.868,-110.093,1.47,4.04,-8.84,-24.99,8.38,131.16,5.010000000000002
2023-04-21 01-37-57-632457,-90,-110,1534,1461,-89.868,-110.093,1.45,4.06,-8.81,-25.02,8.22,131.26,4.98
2023-04-21 01-37-57-712344,-90,-110,1534,1461,-89.78,-110.005,1.39,4.07,-8.8,-25.07,8.0,131.35,4.93
2023-04-21 01-37-57-793797,-90,-110,1534,1461,-89.868,-110.005,1.34,4.1,-8.7,-25.14,7.8,131.45,4.859999999999999
2023-04-21 01-37-57-877337,-90,-110,1534,1461,-89.868,-110.093,1.32,4.12,-8.72,-25.21,7.73,131.47,4.789999999999999
2023-04-21 01-37-57-959230,-90,-110,1534,1461,-89.868,-110.093,1.35,4.11,-8.74,-25.25,7.81,131.43,4.75
2023-04-21 01-37-58-041048,-90,-110,1534,1461,-89.868,-110.093,1.39,4.08,-8.74,-25.3,7.95,131.38,4.699999999999999
2023-04-21 01-37-58-127430,-90,-110,1534,1461,-89.868,-110.093,1.41,4.14,-8.68,-25.34,8.17,131.29,4.66
2023-04-21 01-37-58-205457,-90,-110,1534,1461,-89.868,-110.093,1.48,4.09,-8.72,-25.36,8.48,131.19,4.640000000000001
2023-04-21 01-37-58-297919,-90,-110,1534,1461,-89.868,-110.093,1.55,4.12,-8.73,-25.36,8.83,131.07,4.640000000000001
2023-04-21 01-37-58-370980,-90,-110,1534,1461,-89.868,-110.093,1.63,4.15,-8.8,-25.35,9.15,130.98,4.649999999999999
2023-04-21 01-37-58-463231,-90,-110,1534,1461,-89.868,-110.005,1.65,4.11,-8.82,-25.34,9.25,130.98,4.66
2023-04-21 01-37-58-534700,-90,-110,1534,1461,-89.868,-110.093,1.62,4.09,-8.81,-25.34,9.1,131.08,4.66
2023-04-21 01-37-58-617327,-90,-110,1534,1461,-89.868,-110.093,1.53,4.12,-8.73,-25.36,8.73,131.25,4.640000000000001
2023-04-21 01-37-58-685627,-90,-110,1534,1461,-89.78,-110.093,1.46,4.12,-8.71,-25.37,8.39,131.37,4.629999999999999
2023-04-21 01-37-58-768517,-90,-110,1534,1461,-89.868,-110.093,1.38,4.12,-8.71,-25.38,8.06,131.47,4.620000000000001
2023-04-21 01-37-58-854074,-90,-110,1534,1461,-89.868,-110.093,1.36,4.13,-8.71,-25.39,7.87,131.5,4.609999999999999
2023-04-21 01-37-58-936001,-90,-110,1534,1461,-89.868,-110.093,1.34,4.16,-8.72,-25.39,7.79,131.48,4.609999999999999
2023-04-21 01-37-59-020679,-90,-110,1534,1461,-89.868,-110.093,1.34,4.13,-8.73,-25.39,7.82,131.42,4.609999999999999
2023-04-21 01-37-59-106758,-90,-110,1534,1461,-89.868,-110.093,1.38,4.16,-8.73,-25.39,7.95,131.34,4.609999999999999
2023-04-21 01-37-59-196704,-90,-110,1534,1461,-89.868,-110.093,1.41,4.14,-8.74,-25.39,8.12,131.26,4.609999999999999
2023-04-21 01-37-59-268186,-90,-110,1534,1461,-89.868,-110.005,1.46,4.14,-8.74,-25.38,8.32,131.19,4.620000000000001
2023-04-21 01-37-59-349206,-90,-110,1534,1461,-89.868,-110.005,1.49,4.14,-8.7,-25.37,8.49,131.13,4.629999999999999
2023-04-21 01-37-59-430262,-90,-110,1534,1461,-89.868,-110.093,1.52,4.1,-8.72,-25.35,8.67,131.09,4.649999999999999
2023-04-21 01-37-59-513614,-90,-110,1534,1461,-89.868,-110.005,1.55,4.12,-8.73,-25.32,8.87,131.03,4.68
2023-04-21 01-37-59-599378,-90,-110,1534,1461,-89.868,-110.093,1.6,4.09,-8.84,-25.27,9.02,131.0,4.73
2023-04-21 01-37-59-678968,-90,-110,1534,1461,-89.868,-110.093,1.58,4.09,-8.82,-25.24,8.92,131.08,4.760000000000002
2023-04-21 01-37-59-759150,-90,-110,1534,1461,-89.868,-110.093,1.53,4.12,-8.78,-25.25,8.64,131.22,4.75
2023-04-21 01-37-59-838834,-90,-110,1534,1461,-89.868,-110.005,1.44,4.12,-8.71,-25.28,8.32,131.37,4.719999999999999
2023-04-21 01-37-59-908518,-90,-110,1534,1461,-89.868,-110.093,1.4,4.12,-8.72,-25.3,8.07,131.47,4.699999999999999
2023-04-21 01-37-59-976848,-90,-110,1534,1461,-89.868,-110.005,1.37,4.08,-8.73,-25.31,7.94,131.5,4.690000000000001
2023-04-21 01-38-00-066839,-90,-110,1534,1461,-89.868,-110.093,1.37,4.12,-8.75,-25.35,7.91,131.49,4.649999999999999
2023-04-21 01-38-00-152582,-90,-110,1534,1461,-89.78,-110.093,1.37,4.17,-8.72,-25.37,7.9,131.49,4.629999999999999
2023-04-21 01-38-00-224598,-90,-110,1534,1461,-89.868,-110.093,1.39,4.12,-8.73,-25.4,7.96,131.47,4.600000000000001
2023-04-21 01-38-00-303218,-90,-110,1534,1461,-89.78,-110.093,1.39,4.16,-8.69,-25.43,8.11,131.41,4.57
2023-04-21 01-38-00-385218,-90,-110,1534,1461,-89.868,-110.005,1.45,4.13,-8.67,-25.45,8.4,131.3,4.550000000000001
2023-04-21 01-38-00-469026,-90,-110,1534,1461,-89.868,-110.093,1.54,4.15,-8.72,-25.44,8.77,131.17,4.559999999999999
2023-04-21 01-38-00-553802,-90,-110,1534,1461,-89.868,-110.093,1.6,4.09,-8.74,-25.41,9.06,131.09,4.59
2023-04-21 01-38-00-636876,-90,-110,1534,1461,-89.868,-110.093,1.63,4.13,-8.81,-25.38,9.21,131.06,4.620000000000001
2023-04-21 01-38-00-718316,-90,-110,1534,1461,-89.868,-110.093,1.63,4.11,-8.8,-25.36,9.12,131.13,4.640000000000001
2023-04-21 01-38-00-803372,-90,-110,1534,1461,-89.868,-110.093,1.55,4.12,-8.77,-25.37,8.78,131.29,4.629999999999999
2023-04-21 01-38-00-887092,-90,-110,1534,1461,-89.868,-110.093,1.44,4.14,-8.72,-25.39,8.36,131.44,4.609999999999999
2023-04-21 01-38-00-955582,-90,-110,1534,1461,-89.868,-110.005,1.4,4.13,-8.72,-25.41,8.07,131.55,4.59
2023-04-21 01-38-01-039613,-90,-110,1534,1461,-89.868,-110.093,1.37,4.14,-8.72,-25.43,7.9,131.59,4.57
2023-04-21 01-38-01-121502,-90,-110,1534,1461,-89.868,-110.093,1.34,4.14,-8.71,-25.45,7.82,131.6,4.550000000000001
2023-04-21 01-38-01-205771,-90,-110,1534,1461,-89.868,-110.005,1.36,4.12,-8.71,-25.45,7.86,131.57,4.550000000000001
2023-04-21 01-38-01-280878,-90,-110,1534,1461,-89.868,-110.093,1.38,4.15,-8.72,-25.47,8.01,131.49,4.530000000000001
2023-04-21 01-38-01-364296,-90,-110,1534,1461,-89.78,-110.093,1.44,4.15,-8.74,-25.48,8.2,131.41,4.52
2023-04-21 01-38-01-448189,-90,-110,1534,1461,-89.868,-110.005,1.48,4.13,-8.75,-25.48,8.4,131.34,4.52
2023-04-21 01-38-01-530425,-90,-110,1534,1461,-89.78,-110.093,1.5,4.17,-8.75,-25.49,8.52,131.33,4.510000000000002
2023-04-21 01-38-01-594411,-90,-110,1533,1462,-89.868,-110.093,1.51,4.14,-8.75,-25.51,8.54,131.35,4.489999999999998
2023-04-21 01-38-01-672844,-90,-110,1533,1462,-89.868,-110.093,1.51,4.15,-8.75,-25.53,8.51,131.4,4.469999999999999
2023-04-21 01-38-01-751139,-90,-110,1533,1462,-89.868,-110.005,1.48,4.17,-8.71,-25.55,8.45,131.44,4.449999999999999
2023-04-21 01-38-01-833494,-90,-110,1533,1462,-89.868,-110.093,1.47,4.17,-8.69,-25.58,8.41,131.46,4.420000000000002
2023-04-21 01-38-01-899725,-90,-110,1533,1462,-89.868,-110.093,1.47,4.17,-8.67,-25.6,8.45,131.43,4.399999999999999
2023-04-21 01-38-01-984111,-90,-110,1533,1462,-89.868,-110.093,1.5,4.15,-8.71,-25.58,8.6,131.38,4.420000000000002
2023-04-21 01-38-02-069575,-90,-110,1533,1462,-89.868,-110.093,1.52,4.15,-8.74,-25.54,8.71,131.32,4.460000000000001
2023-04-21 01-38-02-153095,-90,-110,1534,1461,-89.868,-110.005,1.55,4.11,-8.83,-25.48,8.7,131.32,4.52
