Timestamp_log,left_angle,right_angle,left_thrust,right_thrust,read_left_angle,read_right_angle,accel_x,accel_y,accel_z,roll,pitch,yaw,error
2023-04-21 02-48-38-114565,0,160,1555,1445,-0.264,160.039,-0.09,-0.03,-9.78,0.08,-0.69,-156.57,36.56999999999999
2023-04-21 02-48-38-187146,0,160,1555,1445,-0.264,160.039,-0.09,-0.03,-9.78,0.09,-0.69,-156.57,36.56999999999999
2023-04-21 02-48-38-261908,0,160,1555,1445,-0.264,160.039,-0.09,-0.03,-9.78,0.09,-0.69,-156.57,36.56999999999999
2023-04-21 02-48-38-337038,0,160,1555,1445,-0.264,160.039,-0.08,-0.06,-9.78,0.1,-0.69,-156.57,36.56999999999999
2023-04-21 02-48-38-413510,0,160,1555,1445,-0.264,160.039,-0.34,-0.08,-9.74,0.09,-0.68,-156.49,36.49000000000001
2023-04-21 02-48-38-488721,0,160,1555,1445,-0.264,160.039,-0.21,-0.06,-9.75,0.07,-0.65,-156.19,36.19
2023-04-21 02-48-38-564115,0,160,1555,1445,-0.264,160.039,-0.24,0.01,-9.76,0.06,-0.6,-155.83,35.83000000000001
2023-04-21 02-48-38-642068,0,160,1555,1445,-0.352,160.039,-0.17,-0.01,-9.75,0.05,-0.53,-155.32,35.31999999999999
2023-04-21 02-48-38-720863,0,160,1555,1445,-0.264,160.039,-0.13,-0.06,-9.77,0.05,-0.43,-154.69,34.69
2023-04-21 02-48-38-797477,0,160,1555,1445,-0.264,160.039,-0.11,-0.08,-9.79,0.04,-0.35,-153.96,33.96000000000001
2023-04-21 02-48-38-874021,0,160,1555,1445,-0.264,160.039,-0.09,-0.04,-9.8,0.02,-0.31,-153.26,33.25999999999999
2023-04-21 02-48-38-957525,0,160,1555,1445,-0.264,160.039,-0.05,-0.05,-9.78,0.02,-0.32,-152.43,32.43000000000001
2023-04-21 02-48-39-025999,0,160,1555,1445,-0.264,160.039,-0.06,-0.04,-9.79,0.01,-0.36,-151.55,31.55000000000001
2023-04-21 02-48-39-104404,0,160,1555,1445,-0.264,160.039,-0.02,-0.04,-9.81,-0.0,-0.45,-150.79,30.789999999999992
2023-04-21 02-48-39-178742,0,160,1555,1445,-0.352,160.039,-0.09,-0.05,-9.74,-0.03,-0.56,-149.9,29.900000000000006
2023-04-21 02-48-39-242496,0,160,1555,1445,-0.264,160.039,-0.08,-0.01,-9.76,-0.04,-0.64,-149.1,29.099999999999994
2023-04-21 02-48-39-335147,0,160,1555,1445,-0.264,160.039,-0.1,-0.01,-9.8,-0.04,-0.68,-148.28,28.28
2023-04-21 02-48-39-399305,0,160,1555,1445,-0.264,160.039,-0.07,-0.04,-9.82,-0.01,-0.69,-147.47,27.47
2023-04-21 02-48-39-471490,0,160,1555,1445,-0.264,160.039,0.02,-0.04,-9.83,-0.0,-0.72,-146.58,26.580000000000013
2023-04-21 02-48-39-546456,0,160,1555,1445,-0.264,160.039,0.06,-0.05,-9.86,-0.03,-0.82,-145.77,25.77000000000001
2023-04-21 02-48-39-625604,0,160,1555,1445,-0.264,160.039,0.05,0.06,-9.85,-0.1,-0.96,-145.18,25.180000000000007
2023-04-21 02-48-39-691955,0,160,1555,1445,-0.264,159.951,-0.02,-0.01,-9.88,-0.2,-1.14,-144.72,24.72
2023-04-21 02-48-39-768706,0,160,1555,1445,-0.264,159.951,-0.06,0.08,-9.81,-0.36,-1.38,-144.31,24.310000000000002
2023-04-21 02-48-39-836566,0,160,1555,1445,-0.264,159.951,-0.11,0.12,-9.79,-0.54,-1.59,-144.06,24.060000000000002
2023-04-21 02-48-39-922303,0,160,1555,1445,-0.264,159.951,-0.17,0.15,-9.77,-0.72,-1.77,-143.89,23.889999999999986
2023-04-21 02-48-39-997645,0,160,1555,1445,-0.264,159.951,-0.18,0.17,-9.76,-0.95,-1.92,-143.81,23.810000000000002
2023-04-21 02-48-40-071449,0,160,1555,1445,-0.264,159.951,-0.23,0.24,-9.77,-1.2,-1.98,-143.81,23.810000000000002
2023-04-21 02-48-40-149902,0,160,1555,1445,-0.264,159.951,-0.21,0.22,-9.73,-1.42,-1.92,-143.89,23.889999999999986
2023-04-21 02-48-40-229871,0,160,1555,1445,-0.264,159.951,-0.21,0.24,-9.77,-1.65,-1.8,-144.04,24.039999999999992
2023-04-21 02-48-40-304257,0,160,1555,1445,-0.264,160.039,-0.23,0.28,-9.74,-1.83,-1.66,-144.22,24.22
2023-04-21 02-48-40-382698,0,160,1555,1445,-0.264,160.039,-0.18,0.35,-9.76,-2.02,-1.47,-144.48,24.47999999999999
2023-04-21 02-48-40-459271,0,160,1555,1445,-0.264,160.039,-0.14,0.35,-9.74,-2.2,-1.3,-144.76,24.75999999999999
2023-04-21 02-48-40-537513,0,160,1555,1445,-0.264,159.951,-0.13,0.42,-9.77,-2.37,-1.17,-145.07,25.069999999999993
2023-04-21 02-48-40-619561,0,160,1555,1445,-0.264,160.039,-0.18,0.4,-9.73,-2.49,-1.09,-145.4,25.400000000000006
2023-04-21 02-48-40-708326,0,160,1555,1445,-0.264,160.039,-0.17,0.42,-9.74,-2.58,-1.03,-145.68,25.680000000000007
2023-04-21 02-48-40-782422,0,160,1555,1445,-0.264,160.039,-0.16,0.42,-9.73,-2.66,-0.96,-146.02,26.02000000000001
2023-04-21 02-48-40-857358,0,160,1555,1445,-0.264,159.951,-0.16,0.44,-9.74,-2.69,-0.92,-146.27,26.27000000000001
2023-04-21 02-48-40-923802,0,160,1555,1445,-0.264,159.951,-0.16,0.43,-9.79,-2.71,-0.91,-146.5,26.5
2023-04-21 02-48-41-000510,0,160,1555,1445,-0.264,160.039,-0.12,0.44,-9.76,-2.72,-0.93,-146.75,26.75
2023-04-21 02-48-41-083401,0,160,1555,1445,-0.264,160.039,-0.14,0.44,-9.78,-2.72,-0.98,-147.01,27.00999999999999
2023-04-21 02-48-41-152172,0,160,1555,1445,-0.264,160.039,-0.14,0.43,-9.75,-2.72,-1.04,-147.22,27.22
2023-04-21 02-48-41-229675,0,160,1555,1445,-0.264,159.951,-0.14,0.44,-9.74,-2.71,-1.11,-147.48,27.47999999999999
2023-04-21 02-48-41-308078,0,160,1555,1445,-0.352,160.039,-0.16,0.47,-9.74,-2.7,-1.17,-147.73,27.72999999999999
2023-04-21 02-48-41-387650,0,160,1555,1445,-0.264,160.039,-0.17,0.45,-9.79,-2.67,-1.19,-148.0,28.0
2023-04-21 02-48-41-452480,0,160,1555,1445,-0.264,159.951,-0.2,0.4,-9.78,-2.65,-1.21,-148.24,28.24000000000001
2023-04-21 02-48-41-530108,0,160,1555,1445,-0.264,159.951,-0.16,0.44,-9.76,-2.65,-1.22,-148.43,28.430000000000007
2023-04-21 02-48-41-597037,0,160,1555,1445,-0.264,160.039,-0.17,0.45,-9.76,-2.62,-1.25,-148.7,28.69999999999999
2023-04-21 02-48-41-679711,0,160,1555,1445,-0.264,160.039,-0.17,0.43,-9.76,-2.6,-1.25,-148.93,28.930000000000007
2023-04-21 02-48-41-751965,0,160,1555,1445,-0.264,159.951,-0.21,0.46,-9.8,-2.59,-1.26,-149.19,29.189999999999998
2023-04-21 02-48-41-829204,0,160,1555,1445,-0.264,159.951,-0.22,0.39,-9.77,-2.58,-1.29,-149.42,29.419999999999987
2023-04-21 02-48-41-905078,0,160,1555,1445,-0.264,159.951,-0.18,0.39,-9.75,-2.58,-1.3,-149.62,29.620000000000005
2023-04-21 02-48-41-974733,0,160,1555,1445,-0.352,159.951,-0.18,0.45,-9.78,-2.57,-1.31,-149.8,29.80000000000001
2023-04-21 02-48-42-044849,0,160,1555,1445,-0.264,160.039,-0.2,0.4,-9.76,-2.56,-1.32,-150.0,30.0
2023-04-21 02-48-42-129949,0,160,1555,1445,-0.352,160.039,-0.21,0.38,-9.79,-2.55,-1.31,-150.24,30.24000000000001
2023-04-21 02-48-42-208063,0,160,1555,1445,-0.264,159.951,-0.19,0.4,-9.76,-2.55,-1.31,-150.44,30.439999999999998
2023-04-21 02-48-42-282027,0,160,1555,1445,-0.264,160.039,-0.18,0.44,-9.78,-2.55,-1.28,-150.62,30.620000000000005
2023-04-21 02-48-42-353421,0,160,1555,1445,-0.352,160.039,-0.18,0.43,-9.8,-2.56,-1.26,-150.79,30.789999999999992
2023-04-21 02-48-42-426742,0,160,1555,1445,-0.264,160.039,-0.17,0.41,-9.76,-2.57,-1.27,-150.99,30.99000000000001
2023-04-21 02-48-42-506061,0,160,1555,1445,-0.264,160.039,-0.17,0.38,-9.77,-2.58,-1.27,-151.17,31.169999999999987
2023-04-21 02-48-42-585223,0,160,1555,1445,-0.264,159.951,-0.19,0.41,-9.75,-2.57,-1.28,-151.36,31.360000000000014
2023-04-21 02-48-42-661241,0,160,1555,1445,-0.264,159.951,-0.18,0.41,-9.76,-2.56,-1.28,-151.55,31.55000000000001
2023-04-21 02-48-42-739418,0,160,1555,1445,-0.264,160.039,-0.19,0.37,-9.74,-2.55,-1.27,-151.72,31.72
2023-04-21 02-48-42-819097,0,160,1555,1445,-0.264,160.039,-0.17,0.45,-9.8,-2.54,-1.26,-151.89,31.889999999999986
2023-04-21 02-48-42-896495,0,160,1555,1445,-0.352,160.039,-0.18,0.4,-9.76,-2.55,-1.26,-152.04,32.03999999999999
2023-04-21 02-48-42-975739,0,160,1555,1445,-0.352,160.039,-0.2,0.42,-9.76,-2.54,-1.25,-152.18,32.18000000000001
2023-04-21 02-48-43-054409,0,160,1555,1445,-0.264,160.039,-0.17,0.42,-9.76,-2.55,-1.23,-152.32,32.31999999999999
2023-04-21 02-48-43-132281,0,160,1555,1445,-0.264,160.039,-0.17,0.42,-9.75,-2.56,-1.22,-152.46,32.46000000000001
2023-04-21 02-48-43-210213,0,160,1555,1445,-0.264,160.039,-0.15,0.46,-9.79,-2.56,-1.2,-152.59,32.59
2023-04-21 02-48-43-290308,0,160,1555,1445,-0.264,160.039,-0.15,0.44,-9.77,-2.56,-1.19,-152.75,32.75
2023-04-21 02-48-43-366646,0,160,1555,1445,-0.264,160.039,-0.18,0.38,-9.74,-2.55,-1.2,-152.89,32.889999999999986
2023-04-21 02-48-43-440612,0,160,1555,1445,-0.264,160.039,-0.2,0.44,-9.78,-2.56,-1.2,-153.03,33.03
2023-04-21 02-48-43-520021,0,160,1555,1445,-0.264,160.039,-0.17,0.4,-9.75,-2.54,-1.2,-153.15,33.150000000000006
2023-04-21 02-48-43-595895,0,160,1555,1445,-0.264,160.039,-0.17,0.38,-9.75,-2.54,-1.2,-153.27,33.27000000000001
2023-04-21 02-48-43-674504,0,160,1555,1445,-0.264,160.039,-0.16,0.4,-9.74,-2.53,-1.19,-153.37,33.370000000000005
2023-04-21 02-48-43-754608,0,160,1555,1445,-0.264,160.039,-0.15,0.41,-9.75,-2.52,-1.2,-153.5,33.5
2023-04-21 02-48-43-818693,0,160,1555,1445,-0.264,160.039,-0.19,0.41,-9.76,-2.51,-1.21,-153.61,33.610000000000014
2023-04-21 02-48-43-894962,0,160,1555,1445,-0.264,159.951,-0.2,0.43,-9.78,-2.51,-1.23,-153.73,33.72999999999999
2023-04-21 02-48-43-971963,0,160,1555,1445,-0.264,159.951,-0.19,0.43,-9.76,-2.51,-1.25,-153.85,33.849999999999994
2023-04-21 02-48-44-049040,0,160,1555,1445,-0.264,160.039,-0.2,0.4,-9.77,-2.5,-1.25,-153.96,33.96000000000001
2023-04-21 02-48-44-124275,0,160,1555,1445,-0.264,160.039,-0.19,0.41,-9.79,-2.49,-1.26,-154.05,34.05000000000001
2023-04-21 02-48-44-201592,0,160,1555,1445,-0.264,160.039,-0.19,0.38,-9.77,-2.48,-1.26,-154.16,34.16
2023-04-21 02-48-44-278365,0,160,1555,1445,-0.264,159.951,-0.2,0.41,-9.78,-2.47,-1.27,-154.27,34.27000000000001
2023-04-21 02-48-44-350734,0,160,1555,1445,-0.264,160.039,-0.2,0.41,-9.77,-2.47,-1.28,-154.37,34.370000000000005
2023-04-21 02-48-44-429646,0,160,1555,1445,-0.264,159.951,-0.17,0.38,-9.76,-2.48,-1.28,-154.46,34.46000000000001
2023-04-21 02-48-44-507715,0,160,1555,1445,-0.264,160.039,-0.21,0.41,-9.75,-2.48,-1.27,-154.57,34.56999999999999
2023-04-21 02-48-44-586337,0,160,1555,1445,-0.264,159.951,-0.2,0.42,-9.8,-2.49,-1.25,-154.66,34.66
2023-04-21 02-48-44-664997,0,160,1555,1445,-0.264,159.951,-0.2,0.39,-9.77,-2.5,-1.23,-154.75,34.75
2023-04-21 02-48-44-735676,0,160,1555,1445,-0.264,160.039,-0.18,0.4,-9.77,-2.51,-1.2,-154.84,34.84
2023-04-21 02-48-44-814647,0,160,1555,1445,-0.264,160.039,-0.18,0.4,-9.77,-2.54,-1.16,-154.92,34.91999999999999
2023-04-21 02-48-44-903970,0,160,1555,1445,-0.264,160.039,-0.17,0.45,-9.76,-2.56,-1.13,-155.01,35.00999999999999
2023-04-21 02-48-44-976747,0,160,1555,1445,-0.264,160.039,-0.16,0.41,-9.78,-2.59,-1.08,-155.09,35.09
2023-04-21 02-48-45-041514,0,160,1555,1445,-0.264,160.039,-0.19,0.4,-9.79,-2.62,-1.03,-155.15,35.150000000000006
2023-04-21 02-48-45-127091,0,160,1555,1445,-0.264,159.951,-0.14,0.4,-9.75,-2.64,-0.99,-155.22,35.22
2023-04-21 02-48-45-200419,0,160,1555,1445,-0.264,160.039,-0.11,0.44,-9.77,-2.67,-0.98,-155.29,35.28999999999999
2023-04-21 02-48-45-280887,0,160,1555,1445,-0.264,160.039,-0.14,0.45,-9.78,-2.67,-0.95,-155.37,35.370000000000005
2023-04-21 02-48-45-358242,0,160,1555,1445,-0.264,160.039,-0.1,0.4,-9.78,-2.69,-0.94,-155.46,35.46000000000001
2023-04-21 02-48-45-427949,0,160,1555,1445,-0.264,159.951,-0.12,0.41,-9.78,-2.69,-0.96,-155.54,35.53999999999999
2023-04-21 02-48-45-507959,0,160,1555,1445,-0.264,160.039,-0.14,0.4,-9.75,-2.68,-0.99,-155.63,35.629999999999995
2023-04-21 02-48-45-588740,0,160,1555,1445,-0.264,159.951,-0.15,0.44,-9.74,-2.67,-1.04,-155.71,35.71000000000001
2023-04-21 02-48-45-667221,0,160,1555,1445,-0.264,160.039,-0.17,0.4,-9.74,-2.63,-1.1,-155.79,35.78999999999999
2023-04-21 02-48-45-744029,0,160,1555,1445,-0.264,160.039,-0.14,0.4,-9.76,-2.58,-1.15,-155.85,35.849999999999994
2023-04-21 02-48-45-824706,0,160,1555,1445,-0.352,159.951,-0.17,0.42,-9.77,-2.53,-1.2,-155.91,35.91
2023-04-21 02-48-45-900102,0,160,1555,1445,-0.264,160.039,-0.18,0.38,-9.75,-2.49,-1.26,-155.99,35.99000000000001
2023-04-21 02-48-45-982470,0,160,1555,1445,-0.264,160.039,-0.18,0.38,-9.8,-2.45,-1.33,-156.06,36.06
2023-04-21 02-48-46-066605,0,160,1555,1445,-0.264,159.951,-0.23,0.35,-9.76,-2.42,-1.4,-156.13,36.129999999999995
2023-04-21 02-48-46-146423,0,160,1555,1445,-0.264,160.039,-0.23,0.41,-9.75,-2.4,-1.44,-156.18,36.18000000000001
2023-04-21 02-48-46-225160,0,160,1555,1445,-0.264,160.039,-0.21,0.4,-9.78,-2.37,-1.46,-156.22,36.22
2023-04-21 02-48-46-302602,0,160,1555,1445,-0.264,160.039,-0.22,0.4,-9.76,-2.35,-1.48,-156.27,36.27000000000001
2023-04-21 02-48-46-383696,0,160,1555,1445,-0.264,160.039,-0.2,0.41,-9.81,-2.34,-1.47,-156.3,36.30000000000001
2023-04-21 02-48-46-475244,0,160,1555,1445,-0.264,159.951,-0.2,0.34,-9.77,-2.34,-1.46,-156.34,36.34
2023-04-21 02-48-46-539776,0,160,1555,1445,-0.264,160.039,-0.23,0.38,-9.78,-2.35,-1.46,-156.38,36.379999999999995
2023-04-21 02-48-46-634087,0,160,1555,1445,-0.264,160.039,-0.23,0.4,-9.77,-2.35,-1.46,-156.42,36.41999999999999
2023-04-21 02-48-46-700273,0,160,1555,1445,-0.264,160.039,-0.19,0.36,-9.77,-2.36,-1.45,-156.46,36.46000000000001
2023-04-21 02-48-46-771170,0,160,1555,1445,-0.264,160.039,-0.24,0.4,-9.8,-2.35,-1.43,-156.49,36.49000000000001
2023-04-21 02-48-46-848819,0,160,1555,1445,-0.264,160.039,-0.22,0.37,-9.79,-2.36,-1.41,-156.54,36.53999999999999
2023-04-21 02-48-46-926213,0,160,1555,1445,-0.352,160.039,-0.22,0.42,-9.78,-2.37,-1.4,-156.58,36.58000000000001
2023-04-21 02-48-47-037082,0,160,1555,1445,-0.264,160.039,-0.21,0.37,-9.78,-2.38,-1.4,-156.62,36.620000000000005
2023-04-21 02-48-47-089907,0,160,1555,1445,-0.264,159.951,-0.21,0.37,-9.75,-2.38,-1.4,-156.67,36.66999999999999
2023-04-21 02-48-47-168167,0,160,1555,1445,-0.264,160.039,-0.23,0.38,-9.78,-2.38,-1.42,-156.71,36.71000000000001
2023-04-21 02-48-47-257983,0,160,1555,1445,-0.264,159.951,-0.21,0.38,-9.78,-2.36,-1.43,-156.73,36.72999999999999
2023-04-21 02-48-47-325802,0,160,1555,1445,-0.264,159.951,-0.22,0.35,-9.78,-2.34,-1.44,-156.75,36.75
2023-04-21 02-48-47-399268,0,160,1555,1445,-0.264,159.951,-0.22,0.39,-9.76,-2.32,-1.46,-156.79,36.78999999999999
2023-04-21 02-48-47-464273,0,160,1555,1445,-0.264,159.951,-0.24,0.38,-9.78,-2.31,-1.48,-156.82,36.81999999999999
2023-04-21 02-48-47-532505,0,160,1555,1445,-0.264,159.951,-0.23,0.39,-9.79,-2.3,-1.51,-156.86,36.860000000000014
2023-04-21 02-48-47-609644,0,160,1555,1445,-0.264,159.951,-0.22,0.35,-9.75,-2.28,-1.54,-156.89,36.889999999999986
2023-04-21 02-48-47-700933,0,160,1555,1445,-0.264,160.039,-0.27,0.37,-9.75,-2.26,-1.58,-156.92,36.91999999999999
2023-04-21 02-48-47-767486,0,160,1555,1445,-0.264,160.039,-0.25,0.36,-9.79,-2.24,-1.62,-156.94,36.94
2023-04-21 02-48-47-837746,0,160,1555,1445,-0.264,159.951,-0.24,0.35,-9.78,-2.21,-1.66,-156.96,36.96000000000001
2023-04-21 02-48-47-917133,0,160,1555,1445,-0.264,159.951,-0.24,0.36,-9.79,-2.19,-1.69,-156.97,36.97
2023-04-21 02-48-47-992955,0,160,1555,1445,-0.264,160.039,-0.26,0.35,-9.81,-2.17,-1.74,-156.98,36.97999999999999
2023-04-21 02-48-48-069838,0,160,1555,1445,-0.264,159.951,-0.27,0.34,-9.78,-2.15,-1.79,-157.0,37.0
2023-04-21 02-48-48-139728,0,160,1555,1445,-0.264,160.039,-0.31,0.35,-9.77,-2.13,-1.85,-157.03,37.03
2023-04-21 02-48-48-215547,0,160,1555,1445,-0.264,159.951,-0.3,0.31,-9.76,-2.1,-1.92,-157.04,37.03999999999999
2023-04-21 02-48-48-291407,0,160,1555,1445,-0.264,160.039,-0.34,0.32,-9.74,-2.06,-1.99,-157.06,37.06
2023-04-21 02-48-48-376323,0,160,1555,1445,-0.264,159.951,-0.33,0.33,-9.8,-2.02,-2.04,-157.06,37.06
2023-04-21 02-48-48-447249,0,160,1555,1445,-0.264,159.951,-0.33,0.31,-9.77,-1.99,-2.09,-157.07,37.06999999999999
2023-04-21 02-48-48-518111,0,160,1555,1445,-0.264,160.039,-0.32,0.33,-9.77,-1.98,-2.12,-157.07,37.06999999999999
2023-04-21 02-48-48-606386,0,160,1555,1445,-0.264,159.951,-0.35,0.31,-9.76,-1.96,-2.13,-157.08,37.08000000000001
2023-04-21 02-48-48-675568,0,160,1555,1445,-0.264,160.039,-0.34,0.3,-9.77,-1.96,-2.11,-157.09,37.09
2023-04-21 02-48-48-753688,0,160,1555,1445,-0.264,159.951,-0.34,0.34,-9.8,-1.97,-2.07,-157.1,37.099999999999994
2023-04-21 02-48-48-833287,0,160,1555,1445,-0.264,159.951,-0.32,0.31,-9.76,-2.01,-2.0,-157.09,37.09
2023-04-21 02-48-48-912022,0,160,1555,1445,-0.264,159.951,-0.32,0.32,-9.77,-2.04,-1.93,-157.07,37.06999999999999
2023-04-21 02-48-48-990795,0,160,1555,1445,-0.264,159.951,-0.27,0.32,-9.76,-2.06,-1.87,-157.06,37.06
2023-04-21 02-48-49-070202,0,160,1555,1445,-0.264,160.039,-0.27,0.38,-9.76,-2.08,-1.82,-157.07,37.06999999999999
2023-04-21 02-48-49-148529,0,160,1555,1445,-0.264,160.039,-0.27,0.32,-9.75,-2.1,-1.79,-157.09,37.09
2023-04-21 02-48-49-227345,0,160,1555,1445,-0.264,160.039,-0.29,0.34,-9.8,-2.11,-1.76,-157.12,37.120000000000005
2023-04-21 02-48-49-306386,0,160,1555,1445,-0.352,160.039,-0.27,0.35,-9.77,-2.12,-1.74,-157.13,37.129999999999995
2023-04-21 02-48-49-385813,0,160,1555,1445,-0.264,160.039,-0.28,0.34,-9.76,-2.14,-1.7,-157.13,37.129999999999995
2023-04-21 02-48-49-465313,0,160,1555,1445,-0.264,159.951,-0.28,0.32,-9.74,-2.15,-1.69,-157.13,37.129999999999995
2023-04-21 02-48-49-544909,0,160,1555,1445,-0.264,160.039,-0.27,0.37,-9.76,-2.15,-1.7,-157.11,37.110000000000014
2023-04-21 02-48-49-616785,0,160,1555,1445,-0.264,160.039,-0.23,0.37,-9.78,-2.15,-1.69,-157.12,37.120000000000005
2023-04-21 02-48-49-695490,0,160,1555,1445,-0.352,160.039,-0.25,0.37,-9.81,-2.15,-1.7,-157.14,37.139999999999986
2023-04-21 02-48-49-774666,0,160,1555,1445,-0.264,159.951,-0.26,0.33,-9.75,-2.15,-1.7,-157.16,37.16
2023-04-21 02-48-49-855130,0,160,1555,1445,-0.264,160.039,-0.28,0.35,-9.77,-2.15,-1.71,-157.17,37.16999999999999
2023-04-21 02-48-49-930381,0,160,1555,1445,-0.264,160.039,-0.27,0.31,-9.75,-2.15,-1.75,-157.18,37.18000000000001
2023-04-21 02-48-50-011438,0,160,1555,1445,-0.352,160.039,-0.3,0.34,-9.74,-2.13,-1.78,-157.19,37.19
2023-04-21 02-48-50-088058,0,160,1555,1445,-0.264,160.039,-0.26,0.33,-9.77,-2.11,-1.77,-157.18,37.18000000000001
2023-04-21 02-48-50-169302,0,160,1555,1445,-0.264,159.951,-0.23,0.3,-9.73,-2.11,-1.77,-157.18,37.18000000000001
2023-04-21 02-48-50-238308,0,160,1555,1445,-0.264,160.039,-0.29,0.32,-9.79,-2.11,-1.76,-157.2,37.19999999999999
2023-04-21 02-48-50-323123,0,160,1555,1445,-0.264,160.039,-0.28,0.33,-9.78,-2.11,-1.76,-157.22,37.22
2023-04-21 02-48-50-407044,0,160,1555,1445,-0.264,160.039,-0.31,0.35,-9.76,-2.12,-1.77,-157.24,37.24000000000001
2023-04-21 02-48-50-475378,0,160,1555,1445,-0.352,160.039,-0.25,0.35,-9.78,-2.12,-1.76,-157.24,37.24000000000001
2023-04-21 02-48-50-557378,0,160,1555,1445,-0.264,160.039,-0.28,0.36,-9.81,-2.12,-1.73,-157.24,37.24000000000001
2023-04-21 02-48-50-635515,0,160,1555,1445,-0.264,160.039,-0.24,0.34,-9.77,-2.13,-1.73,-157.25,37.25
2023-04-21 02-48-50-708427,0,160,1555,1445,-0.264,160.039,-0.25,0.32,-9.76,-2.13,-1.75,-157.26,37.25999999999999
2023-04-21 02-48-50-780664,0,160,1555,1445,-0.264,160.039,-0.28,0.3,-9.76,-2.12,-1.76,-157.28,37.28
2023-04-21 02-48-50-860421,0,160,1555,1445,-0.264,160.039,-0.29,0.33,-9.76,-2.09,-1.78,-157.29,37.28999999999999
2023-04-21 02-48-50-939810,0,160,1555,1445,-0.264,159.951,-0.28,0.34,-9.79,-2.08,-1.8,-157.31,37.31
2023-04-21 02-48-51-020485,0,160,1555,1445,-0.264,160.039,-0.26,0.33,-9.76,-2.07,-1.82,-157.32,37.31999999999999
2023-04-21 02-48-51-100451,0,160,1555,1445,-0.264,160.039,-0.25,0.34,-9.8,-2.08,-1.82,-157.32,37.31999999999999
2023-04-21 02-48-51-184843,0,160,1555,1445,-0.264,160.039,-0.29,0.35,-9.77,-2.08,-1.85,-157.34,37.34
2023-04-21 02-48-51-260964,0,160,1555,1445,-0.264,160.039,-0.31,0.33,-9.77,-2.08,-1.88,-157.36,37.360000000000014
2023-04-21 02-48-51-350719,0,160,1555,1445,-0.264,160.039,-0.3,0.32,-9.78,-2.06,-1.89,-157.36,37.360000000000014
2023-04-21 02-48-51-421121,0,160,1555,1445,-0.264,159.951,-0.29,0.28,-9.75,-2.06,-1.87,-157.36,37.360000000000014
2023-04-21 02-48-51-491343,0,160,1555,1445,-0.264,159.951,-0.32,0.35,-9.76,-2.06,-1.85,-157.35,37.349999999999994
2023-04-21 02-48-51-568621,0,160,1555,1445,-0.264,160.039,-0.27,0.32,-9.78,-2.07,-1.82,-157.34,37.34
2023-04-21 02-48-51-660615,0,160,1555,1445,-0.352,160.039,-0.24,0.34,-9.78,-2.1,-1.77,-157.33,37.33000000000001
2023-04-21 02-48-51-730364,0,160,1555,1445,-0.264,160.039,-0.28,0.35,-9.78,-2.12,-1.74,-157.34,37.34
2023-04-21 02-48-51-802472,0,160,1555,1445,-0.264,159.951,-0.26,0.33,-9.77,-2.13,-1.71,-157.35,37.349999999999994
2023-04-21 02-48-51-881561,0,160,1555,1445,-0.264,160.039,-0.25,0.36,-9.78,-2.14,-1.69,-157.35,37.349999999999994
2023-04-21 02-48-51-959843,0,160,1555,1445,-0.264,160.039,-0.23,0.34,-9.78,-2.15,-1.67,-157.36,37.360000000000014
2023-04-21 02-48-52-040436,0,160,1555,1445,-0.264,159.951,-0.24,0.35,-9.76,-2.15,-1.65,-157.35,37.349999999999994
2023-04-21 02-48-52-124929,0,160,1555,1445,-0.264,160.039,-0.24,0.34,-9.77,-2.14,-1.64,-157.35,37.349999999999994
2023-04-21 02-48-52-215390,0,160,1555,1445,-0.264,159.951,-0.25,0.34,-9.76,-2.14,-1.63,-157.36,37.360000000000014
2023-04-21 02-48-52-294442,0,160,1555,1445,-0.264,159.951,-0.23,0.34,-9.74,-2.14,-1.63,-157.36,37.360000000000014
2023-04-21 02-48-52-374274,0,160,1555,1445,-0.264,159.951,-0.22,0.35,-9.73,-2.14,-1.64,-157.37,37.370000000000005
2023-04-21 02-48-52-445844,0,160,1555,1445,-0.264,160.039,-0.26,0.33,-9.79,-2.13,-1.64,-157.39,37.389999999999986
2023-04-21 02-48-52-496460,0,160,1555,1445,-0.264,160.039,-0.24,0.36,-9.83,-2.14,-1.64,-157.4,37.400000000000006
2023-04-21 02-48-52-574199,0,160,1555,1445,-0.264,160.039,-0.26,0.34,-9.75,-2.14,-1.64,-157.41,37.41
2023-04-21 02-48-52-660422,0,160,1555,1445,-0.264,160.039,-0.23,0.36,-9.77,-2.13,-1.64,-157.41,37.41
2023-04-21 02-48-52-730135,0,160,1555,1445,-0.264,160.039,-0.25,0.35,-9.76,-2.12,-1.63,-157.4,37.400000000000006
2023-04-21 02-48-52-801025,0,160,1555,1445,-0.264,160.039,-0.24,0.36,-9.8,-2.11,-1.64,-157.41,37.41
2023-04-21 02-48-52-878430,0,160,1555,1445,-0.264,160.039,-0.23,0.31,-9.76,-2.11,-1.65,-157.42,37.41999999999999
2023-04-21 02-48-52-959899,0,160,1555,1445,-0.264,159.951,-0.29,0.37,-9.78,-2.11,-1.66,-157.43,37.43000000000001
2023-04-21 02-48-53-051546,0,160,1555,1445,-0.264,160.039,-0.24,0.31,-9.78,-2.11,-1.64,-157.44,37.44
2023-04-21 02-48-53-142847,0,160,1555,1445,-0.264,159.951,-0.25,0.32,-9.78,-2.11,-1.61,-157.44,37.44
2023-04-21 02-48-53-210649,0,160,1555,1445,-0.264,160.039,-0.21,0.34,-9.78,-2.13,-1.59,-157.44,37.44
2023-04-21 02-48-53-281430,0,160,1555,1445,-0.264,160.039,-0.22,0.34,-9.75,-2.15,-1.57,-157.44,37.44
2023-04-21 02-48-53-354945,0,160,1555,1445,-0.352,160.039,-0.22,0.37,-9.75,-2.15,-1.58,-157.46,37.46000000000001
2023-04-21 02-48-53-451159,0,160,1555,1445,-0.264,160.039,-0.23,0.33,-9.78,-2.14,-1.58,-157.47,37.47
2023-04-21 02-48-53-519344,0,160,1555,1445,-0.264,159.951,-0.24,0.34,-9.77,-2.15,-1.58,-157.48,37.47999999999999
2023-04-21 02-48-53-613657,0,160,1555,1445,-0.264,160.039,-0.26,0.34,-9.76,-2.15,-1.57,-157.5,37.5
2023-04-21 02-48-53-685992,0,160,1555,1445,-0.264,160.039,-0.24,0.34,-9.78,-2.15,-1.56,-157.5,37.5
2023-04-21 02-48-53-765119,0,160,1555,1445,-0.264,160.039,-0.23,0.29,-9.77,-2.15,-1.55,-157.5,37.5
2023-04-21 02-48-53-840663,0,160,1555,1445,-0.264,160.039,-0.22,0.33,-9.75,-2.15,-1.55,-157.5,37.5
2023-04-21 02-48-53-926883,0,160,1555,1445,-0.264,159.951,-0.24,0.36,-9.79,-2.17,-1.54,-157.51,37.50999999999999
2023-04-21 02-48-53-996664,0,160,1555,1445,-0.264,160.039,-0.23,0.32,-9.77,-2.17,-1.53,-157.51,37.50999999999999
2023-04-21 02-48-54-073332,0,160,1555,1445,-0.264,160.039,-0.2,0.33,-9.76,-2.16,-1.53,-157.52,37.52000000000001
2023-04-21 02-48-54-152118,0,160,1555,1445,-0.264,160.039,-0.24,0.35,-9.76,-2.15,-1.56,-157.53,37.53
2023-04-21 02-48-54-231791,0,160,1555,1445,-0.264,160.039,-0.23,0.31,-9.77,-2.13,-1.6,-157.55,37.55000000000001
2023-04-21 02-48-54-312762,0,160,1555,1445,-0.352,160.039,-0.27,0.37,-9.79,-2.12,-1.64,-157.55,37.55000000000001
2023-04-21 02-48-54-397103,0,160,1555,1445,-0.352,160.039,-0.26,0.35,-9.78,-2.11,-1.66,-157.56,37.56
2023-04-21 02-48-54-478510,0,160,1555,1445,-0.264,160.039,-0.23,0.34,-9.81,-2.1,-1.67,-157.57,37.56999999999999
2023-04-21 02-48-54-556531,0,160,1555,1445,-0.352,159.951,-0.27,0.33,-9.75,-2.1,-1.66,-157.58,37.58000000000001
2023-04-21 02-48-54-638295,0,160,1555,1445,-0.264,159.951,-0.24,0.32,-9.79,-2.09,-1.64,-157.59,37.59
2023-04-21 02-48-54-702375,0,160,1555,1445,-0.264,160.039,-0.26,0.35,-9.74,-2.09,-1.62,-157.59,37.59
2023-04-21 02-48-54-785368,0,160,1555,1445,-0.264,160.039,-0.24,0.34,-9.74,-2.1,-1.62,-157.58,37.58000000000001
2023-04-21 02-48-54-864812,0,160,1555,1445,-0.352,160.039,-0.25,0.37,-9.78,-2.09,-1.63,-157.58,37.58000000000001
2023-04-21 02-48-54-931355,0,160,1555,1445,-0.264,160.039,-0.25,0.35,-9.82,-2.07,-1.64,-157.59,37.59
2023-04-21 02-48-55-014599,0,160,1555,1445,-0.264,160.039,-0.26,0.35,-9.77,-2.06,-1.66,-157.59,37.59
2023-04-21 02-48-55-094609,0,160,1555,1445,-0.264,160.039,-0.27,0.35,-9.78,-2.04,-1.69,-157.59,37.59
2023-04-21 02-48-55-174257,0,160,1555,1445,-0.352,160.039,-0.27,0.32,-9.75,-2.04,-1.73,-157.61,37.610000000000014
2023-04-21 02-48-55-264892,0,160,1555,1445,-0.264,160.039,-0.28,0.32,-9.75,-2.03,-1.78,-157.62,37.620000000000005
2023-04-21 02-48-55-333975,0,160,1555,1445,-0.352,160.039,-0.27,0.37,-9.82,-2.01,-1.81,-157.63,37.629999999999995
2023-04-21 02-48-55-414001,0,160,1555,1445,-0.264,159.951,-0.28,0.32,-9.78,-2.01,-1.83,-157.62,37.620000000000005
2023-04-21 02-48-55-484801,0,160,1555,1445,-0.264,160.039,-0.29,0.34,-9.78,-2.01,-1.83,-157.62,37.620000000000005
2023-04-21 02-48-55-562835,0,160,1555,1445,-0.264,160.039,-0.29,0.3,-9.76,-2.01,-1.82,-157.61,37.610000000000014
2023-04-21 02-48-55-644485,0,160,1555,1445,-0.264,160.039,-0.28,0.32,-9.73,-2.03,-1.79,-157.59,37.59
2023-04-21 02-48-55-730382,0,160,1555,1445,-0.352,160.039,-0.27,0.3,-9.75,-2.04,-1.71,-157.58,37.58000000000001
2023-04-21 02-48-55-805806,0,160,1555,1445,-0.264,160.039,-0.25,0.36,-9.79,-2.07,-1.63,-157.58,37.58000000000001
2023-04-21 02-48-55-871935,0,160,1555,1445,-0.264,160.039,-0.23,0.37,-9.77,-2.1,-1.57,-157.57,37.56999999999999
2023-04-21 02-48-55-963383,0,160,1555,1445,-0.264,160.039,-0.24,0.35,-9.76,-2.12,-1.55,-157.56,37.56
2023-04-21 02-48-56-035914,0,160,1555,1445,-0.264,160.039,-0.24,0.39,-9.77,-2.13,-1.52,-157.55,37.55000000000001
2023-04-21 02-48-56-104335,0,160,1555,1445,-0.264,160.039,-0.24,0.38,-9.77,-2.14,-1.52,-157.56,37.56
2023-04-21 02-48-56-185155,0,160,1555,1445,-0.264,159.951,-0.2,0.33,-9.78,-2.14,-1.52,-157.57,37.56999999999999
2023-04-21 02-48-56-276410,0,160,1555,1445,-0.264,159.951,-0.25,0.34,-9.73,-2.13,-1.54,-157.58,37.58000000000001
2023-04-21 02-48-56-351531,0,160,1555,1445,-0.264,160.039,-0.25,0.33,-9.78,-2.1,-1.59,-157.59,37.59
2023-04-21 02-48-56-430512,0,160,1555,1445,-0.264,160.039,-0.27,0.32,-9.79,-2.08,-1.63,-157.6,37.599999999999994
2023-04-21 02-48-56-513693,0,160,1555,1445,-0.264,159.951,-0.25,0.32,-9.79,-2.07,-1.64,-157.6,37.599999999999994
2023-04-21 02-48-56-593815,0,160,1555,1445,-0.264,160.039,-0.26,0.34,-9.79,-2.06,-1.63,-157.6,37.599999999999994
2023-04-21 02-48-56-681186,0,160,1555,1445,-0.264,159.951,-0.27,0.36,-9.75,-2.08,-1.63,-157.62,37.620000000000005
2023-04-21 02-48-56-756580,0,160,1555,1445,-0.352,159.951,-0.24,0.36,-9.74,-2.1,-1.62,-157.63,37.629999999999995
2023-04-21 02-48-56-839853,0,160,1555,1445,-0.264,160.039,-0.25,0.36,-9.79,-2.1,-1.61,-157.63,37.629999999999995
2023-04-21 02-48-56-923864,0,160,1555,1445,-0.264,160.039,-0.24,0.34,-9.74,-2.1,-1.59,-157.63,37.629999999999995
2023-04-21 02-48-56-997541,0,160,1555,1445,-0.352,160.039,-0.23,0.35,-9.79,-2.09,-1.56,-157.62,37.620000000000005
2023-04-21 02-48-57-080081,0,160,1555,1445,-0.264,160.039,-0.25,0.34,-9.78,-2.1,-1.55,-157.62,37.620000000000005
2023-04-21 02-48-57-161075,0,160,1555,1445,-0.264,160.039,-0.22,0.35,-9.78,-2.1,-1.55,-157.62,37.620000000000005
2023-04-21 02-48-57-241588,0,160,1555,1445,-0.352,159.951,-0.24,0.35,-9.77,-2.1,-1.54,-157.62,37.620000000000005
2023-04-21 02-48-57-322131,0,160,1555,1445,-0.264,160.039,-0.23,0.31,-9.76,-2.1,-1.54,-157.63,37.629999999999995
2023-04-21 02-48-57-400181,0,160,1555,1445,-0.264,160.039,-0.25,0.37,-9.76,-2.1,-1.56,-157.63,37.629999999999995
2023-04-21 02-48-57-485950,0,160,1555,1445,-0.352,160.039,-0.25,0.38,-9.78,-2.1,-1.59,-157.63,37.629999999999995
2023-04-21 02-48-57-562613,0,160,1555,1445,-0.264,160.039,-0.26,0.33,-9.77,-2.09,-1.61,-157.63,37.629999999999995
2023-04-21 02-48-57-645848,0,160,1555,1445,-0.264,160.039,-0.24,0.35,-9.79,-2.08,-1.62,-157.64,37.639999999999986
2023-04-21 02-48-57-712626,0,160,1555,1445,-0.264,160.039,-0.24,0.36,-9.76,-2.08,-1.64,-157.65,37.650000000000006
2023-04-21 02-48-57-794613,0,160,1555,1445,-0.264,160.039,-0.27,0.35,-9.79,-2.07,-1.67,-157.66,37.66
2023-04-21 02-48-57-880383,0,160,1555,1445,-0.264,160.039,-0.28,0.35,-9.77,-2.07,-1.67,-157.67,37.66999999999999
2023-04-21 02-48-57-954167,0,160,1555,1445,-0.264,160.039,-0.26,0.31,-9.74,-2.07,-1.66,-157.65,37.650000000000006
2023-04-21 02-48-58-035066,0,160,1555,1445,-0.264,160.039,-0.24,0.37,-9.8,-2.07,-1.64,-157.65,37.650000000000006
2023-04-21 02-48-58-117417,0,160,1555,1445,-0.264,160.039,-0.24,0.33,-9.77,-2.09,-1.6,-157.65,37.650000000000006
2023-04-21 02-48-58-212580,0,160,1555,1445,-0.264,160.039,-0.25,0.33,-9.76,-2.11,-1.57,-157.65,37.650000000000006
2023-04-21 02-48-58-280891,0,160,1555,1445,-0.264,159.951,-0.25,0.41,-9.77,-2.13,-1.55,-157.65,37.650000000000006
2023-04-21 02-48-58-360230,0,160,1555,1445,-0.264,160.039,-0.22,0.33,-9.74,-2.14,-1.53,-157.64,37.639999999999986
2023-04-21 02-48-58-440741,0,160,1555,1445,-0.264,160.039,-0.25,0.34,-9.76,-2.14,-1.51,-157.63,37.629999999999995
2023-04-21 02-48-58-523407,0,160,1555,1445,-0.264,160.039,-0.21,0.35,-9.78,-2.14,-1.48,-157.63,37.629999999999995
2023-04-21 02-48-58-604498,0,160,1555,1445,-0.264,159.951,-0.23,0.34,-9.77,-2.15,-1.46,-157.62,37.620000000000005
2023-04-21 02-48-58-687847,0,160,1555,1445,-0.264,160.039,-0.23,0.34,-9.75,-2.16,-1.46,-157.62,37.620000000000005
2023-04-21 02-48-58-770249,0,160,1555,1445,-0.264,160.039,-0.2,0.34,-9.79,-2.16,-1.45,-157.64,37.639999999999986
2023-04-21 02-48-58-851693,0,160,1555,1445,-0.264,160.039,-0.26,0.35,-9.74,-2.15,-1.46,-157.66,37.66
2023-04-21 02-48-58-935112,0,160,1555,1445,-0.352,159.951,-0.25,0.38,-9.78,-2.14,-1.5,-157.68,37.68000000000001
2023-04-21 02-48-59-018207,0,160,1555,1445,-0.264,160.039,-0.24,0.33,-9.75,-2.12,-1.53,-157.69,37.69
2023-04-21 02-48-59-099204,0,160,1555,1445,-0.264,160.039,-0.22,0.34,-9.77,-2.09,-1.55,-157.69,37.69
2023-04-21 02-48-59-183142,0,160,1555,1445,-0.264,160.039,-0.24,0.39,-9.82,-2.09,-1.57,-157.69,37.69
2023-04-21 02-48-59-261049,0,160,1555,1445,-0.264,160.039,-0.23,0.29,-9.76,-2.08,-1.6,-157.7,37.69999999999999
2023-04-21 02-48-59-354384,0,160,1555,1445,-0.264,160.039,-0.29,0.35,-9.77,-2.08,-1.62,-157.71,37.71000000000001
2023-04-21 02-48-59-424932,0,160,1555,1445,-0.264,160.039,-0.27,0.34,-9.79,-2.09,-1.62,-157.7,37.69999999999999
2023-04-21 02-48-59-513536,0,160,1555,1445,-0.264,160.039,-0.23,0.33,-9.77,-2.1,-1.61,-157.69,37.69
2023-04-21 02-48-59-584263,0,160,1555,1445,-0.264,160.039,-0.22,0.33,-9.74,-2.1,-1.58,-157.69,37.69
2023-04-21 02-48-59-658972,0,160,1555,1445,-0.264,159.951,-0.21,0.36,-9.79,-2.12,-1.55,-157.69,37.69
2023-04-21 02-48-59-726768,0,160,1555,1445,-0.264,160.039,-0.25,0.3,-9.75,-2.11,-1.53,-157.69,37.69
2023-04-21 02-48-59-812191,0,160,1555,1445,-0.264,160.039,-0.24,0.31,-9.78,-2.11,-1.54,-157.69,37.69
2023-04-21 02-48-59-894068,0,160,1555,1445,-0.264,160.039,-0.26,0.36,-9.76,-2.11,-1.55,-157.69,37.69
2023-04-21 02-48-59-972466,0,160,1555,1445,-0.264,160.039,-0.22,0.36,-9.77,-2.09,-1.58,-157.69,37.69
2023-04-21 02-49-00-056636,0,160,1555,1445,-0.264,160.039,-0.25,0.35,-9.78,-2.09,-1.59,-157.69,37.69
2023-04-21 02-49-00-141550,0,160,1555,1445,-0.264,160.039,-0.22,0.35,-9.79,-2.09,-1.58,-157.69,37.69
2023-04-21 02-49-00-223871,0,160,1555,1445,-0.264,160.039,-0.23,0.32,-9.77,-2.09,-1.57,-157.68,37.68000000000001
2023-04-21 02-49-00-307814,0,160,1555,1445,-0.264,160.039,-0.26,0.36,-9.8,-2.1,-1.55,-157.69,37.69
2023-04-21 02-49-00-389088,0,160,1555,1445,-0.264,160.039,-0.21,0.34,-9.76,-2.12,-1.53,-157.69,37.69
2023-04-21 02-49-00-471464,0,160,1555,1445,-0.264,160.039,-0.25,0.31,-9.76,-2.13,-1.5,-157.69,37.69
2023-04-21 02-49-00-551515,0,160,1555,1445,-0.264,160.039,-0.22,0.33,-9.78,-2.13,-1.5,-157.68,37.68000000000001
2023-04-21 02-49-00-635204,0,160,1555,1445,-0.264,160.039,-0.22,0.35,-9.76,-2.13,-1.5,-157.68,37.68000000000001
2023-04-21 02-49-00-718471,0,160,1555,1445,-0.264,159.951,-0.2,0.35,-9.74,-2.12,-1.5,-157.68,37.68000000000001
2023-04-21 02-49-00-801988,0,160,1555,1445,-0.264,160.039,-0.27,0.35,-9.74,-2.12,-1.52,-157.69,37.69
2023-04-21 02-49-00-884211,0,160,1555,1445,-0.264,160.039,-0.22,0.32,-9.74,-2.12,-1.52,-157.69,37.69
2023-04-21 02-49-00-966007,0,160,1555,1445,-0.264,160.039,-0.24,0.31,-9.79,-2.11,-1.52,-157.71,37.71000000000001
2023-04-21 02-49-01-050458,0,160,1555,1445,-0.264,160.039,-0.22,0.34,-9.8,-2.12,-1.54,-157.71,37.71000000000001
2023-04-21 02-49-01-128312,0,160,1555,1445,-0.264,160.039,-0.26,0.36,-9.76,-2.12,-1.57,-157.71,37.71000000000001
2023-04-21 02-49-01-205001,0,160,1555,1445,-0.264,159.951,-0.25,0.33,-9.76,-2.11,-1.58,-157.71,37.71000000000001
2023-04-21 02-49-01-287956,0,160,1555,1445,-0.264,160.039,-0.22,0.36,-9.79,-2.1,-1.57,-157.72,37.72
2023-04-21 02-49-01-370370,0,160,1555,1445,-0.264,160.039,-0.22,0.33,-9.79,-2.1,-1.56,-157.72,37.72
2023-04-21 02-49-01-458674,0,160,1555,1445,-0.264,160.039,-0.23,0.37,-9.78,-2.1,-1.57,-157.72,37.72
