Timestamp_log,left_angle,right_angle,left_thrust,right_thrust,read_left_angle,read_right_angle,accel_x,accel_y,accel_z,roll,pitch,yaw,error
2023-04-21 01-34-53-491685,-90,-110,1565,1435,-89.868,-110.005,0.16,-0.55,-9.77,3.11,0.84,173.4,33.11
2023-04-21 01-34-53-564504,-90,-110,1565,1435,-89.868,-110.005,0.16,-0.55,-9.77,3.11,0.85,173.41,33.11
2023-04-21 01-34-53-635236,-90,-110,1565,1435,-89.868,-110.005,0.16,-0.56,-9.76,3.12,0.86,173.41,33.12
2023-04-21 01-34-53-705649,-90,-110,1565,1435,-89.868,-110.005,0.16,-0.55,-9.76,3.12,0.85,173.41,33.12
2023-04-21 01-34-53-785177,-90,-110,1565,1435,-89.868,-110.005,0.18,-0.6,-10.27,3.13,0.86,173.41,33.13
2023-04-21 01-34-53-848483,-90,-110,1565,1435,-89.868,-110.005,0.16,-0.57,-10.33,2.86,0.69,173.4,32.86
2023-04-21 01-34-53-929398,-90,-110,1565,1435,-89.868,-110.005,0.1,-0.43,-10.19,2.3,0.35,173.35,32.3
2023-04-21 01-34-53-994445,-90,-110,1565,1435,-89.868,-110.005,-0.0,-0.35,-10.07,1.41,-0.03,173.25,31.41
2023-04-21 01-34-54-066024,-90,-110,1565,1435,-89.868,-110.005,-0.05,-0.11,-10.0,0.31,-0.42,173.12,30.31
2023-04-21 01-34-54-135193,-90,-110,1565,1435,-89.868,-110.005,-0.16,0.09,-9.94,-0.96,-0.77,172.93,29.04
2023-04-21 01-34-54-208846,-90,-110,1565,1435,-89.868,-110.005,-0.2,0.39,-9.85,-2.6,-0.99,172.63,27.4
2023-04-21 01-34-54-280974,-90,-110,1565,1435,-89.868,-110.005,-0.21,0.64,-9.87,-4.17,-1.0,172.27,25.83
2023-04-21 01-34-54-352023,-90,-110,1565,1435,-89.868,-110.005,-0.19,0.9,-9.81,-5.84,-0.92,171.82,24.16
2023-04-21 01-34-54-423121,-90,-110,1565,1435,-89.868,-110.005,-0.13,1.18,-9.78,-7.6,-0.69,171.25,22.4
2023-04-21 01-34-54-494692,-90,-110,1565,1435,-89.868,-110.005,-0.03,1.5,-9.74,-9.43,-0.37,170.56,20.57
2023-04-21 01-34-54-559944,-90,-110,1562,1435,-89.868,-110.005,-0.02,1.85,-9.62,-11.3,-0.08,169.78,18.7
2023-04-21 01-34-54-634244,-90,-110,1558,1437,-89.868,-110.005,0.07,2.16,-9.58,-13.24,0.19,168.88,16.759999999999998
2023-04-21 01-34-54-705144,-90,-110,1554,1441,-89.868,-110.005,0.06,2.46,-9.34,-15.23,0.41,167.91,14.77
2023-04-21 01-34-54-776364,-90,-110,1550,1445,-89.868,-110.093,0.1,2.76,-9.18,-17.24,0.72,166.78,12.760000000000002
2023-04-21 01-34-54-845536,-90,-110,1546,1449,-89.868,-110.005,0.18,3.16,-9.01,-19.21,1.22,165.48,10.79
2023-04-21 01-34-54-917264,-90,-110,1542,1453,-89.78,-110.093,0.35,3.44,-8.91,-21.07,1.91,164.01,8.93
2023-04-21 01-34-54-989613,-90,-110,1538,1457,-89.868,-110.093,0.43,3.77,-8.79,-23.08,2.73,162.24,6.920000000000002
2023-04-21 01-34-55-063486,-90,-110,1535,1460,-89.868,-110.005,0.59,4.08,-8.59,-24.75,3.52,160.6,5.25
2023-04-21 01-34-55-138277,-90,-110,1532,1463,-89.78,-110.005,0.75,4.31,-8.53,-26.31,4.44,158.85,3.6900000000000013
2023-04-21 01-34-55-209791,-90,-110,1529,1466,-89.868,-110.005,0.94,4.48,-8.38,-27.76,5.35,157.02,2.2399999999999984
2023-04-21 01-34-55-270940,-90,-110,1529,1466,-89.868,-110.093,1.14,4.67,-8.31,-29.22,6.43,154.95,0.7800000000000011
2023-04-21 01-34-55-344438,-90,-110,1529,1466,-89.868,-110.005,1.26,4.85,-8.26,-30.19,7.17,153.47,-0.19000000000000128
2023-04-21 01-34-55-415265,-90,-110,1529,1466,-89.868,-110.005,1.4,5.02,-8.17,-31.2,7.86,151.88,-1.1999999999999993
2023-04-21 01-34-55-495830,-90,-110,1521,1474,-89.868,-110.093,1.48,5.16,-8.07,-32.08,8.34,150.44,-2.0799999999999983
2023-04-21 01-34-55-559077,-90,-110,1519,1476,-89.868,-110.005,1.52,5.27,-8.02,-32.93,8.7,148.97,-2.9299999999999997
2023-04-21 01-34-55-637119,-90,-110,1518,1477,-89.868,-110.005,1.56,5.38,-8.02,-33.57,8.87,147.83,-3.5700000000000003
2023-04-21 01-34-55-711067,-90,-110,1517,1478,-89.868,-110.005,1.55,5.44,-7.98,-34.18,8.83,146.75,-4.18
2023-04-21 01-34-55-797010,-90,-110,1516,1479,-89.868,-110.093,1.5,5.5,-7.92,-34.62,8.55,146.03,-4.619999999999997
2023-04-21 01-34-55-869784,-90,-110,1515,1480,-89.868,-110.005,1.4,5.55,-7.86,-34.99,8.13,145.42,-4.990000000000002
2023-04-21 01-34-55-929430,-90,-110,1515,1480,-89.868,-110.093,1.3,5.59,-7.82,-35.31,7.67,144.87,-5.310000000000002
2023-04-21 01-34-55-999022,-90,-110,1514,1481,-89.868,-110.093,1.2,5.65,-7.77,-35.64,7.24,144.24,-5.640000000000001
2023-04-21 01-34-56-074001,-90,-110,1514,1481,-89.868,-110.093,1.17,5.68,-7.76,-35.9,7.01,143.65,-5.899999999999999
2023-04-21 01-34-56-143754,-90,-110,1513,1482,-89.868,-110.005,1.16,5.71,-7.74,-36.12,6.9,143.04,-6.119999999999997
2023-04-21 01-34-56-217975,-90,-110,1513,1482,-89.78,-110.093,1.17,5.74,-7.73,-36.3,6.87,142.43,-6.299999999999997
2023-04-21 01-34-56-294982,-90,-110,1513,1482,-89.868,-110.005,1.19,5.75,-7.73,-36.45,6.93,141.73,-6.450000000000003
2023-04-21 01-34-56-369422,-90,-110,1512,1483,-89.868,-110.005,1.21,5.77,-7.67,-36.54,7.07,141.06,-6.539999999999999
2023-04-21 01-34-56-461059,-90,-110,1512,1483,-89.868,-110.093,1.25,5.76,-7.71,-36.58,7.31,140.43,-6.579999999999998
2023-04-21 01-34-56-531544,-90,-110,1512,1483,-89.868,-110.093,1.33,5.72,-7.71,-36.58,7.62,139.88,-6.579999999999998
2023-04-21 01-34-56-585281,-90,-110,1512,1483,-89.868,-110.093,1.42,5.74,-7.75,-36.56,8.03,139.23,-6.560000000000002
2023-04-21 01-34-56-651574,-90,-110,1513,1482,-89.868,-110.093,1.51,5.74,-7.77,-36.5,8.51,138.56,-6.5
2023-04-21 01-34-56-729125,-90,-110,1513,1482,-89.868,-110.005,1.58,5.71,-7.8,-36.42,8.82,138.06,-6.420000000000002
2023-04-21 01-34-56-799865,-90,-110,1513,1482,-89.868,-110.093,1.61,5.7,-7.82,-36.27,8.96,137.67,-6.270000000000003
2023-04-21 01-34-56-883939,-90,-110,1513,1482,-89.868,-110.093,1.59,5.68,-7.83,-36.1,8.91,137.44,-6.100000000000001
2023-04-21 01-34-56-947614,-90,-110,1514,1481,-89.78,-110.093,1.55,5.66,-7.83,-35.9,8.71,137.27,-5.899999999999999
2023-04-21 01-34-57-028266,-90,-110,1514,1481,-89.868,-110.093,1.47,5.62,-7.82,-35.7,8.46,137.14,-5.700000000000003
2023-04-21 01-34-57-106550,-90,-110,1515,1480,-89.868,-110.093,1.43,5.59,-7.84,-35.49,8.27,136.92,-5.490000000000002
2023-04-21 01-34-57-176596,-90,-110,1515,1480,-89.78,-110.093,1.4,5.54,-7.86,-35.29,8.18,136.66,-5.289999999999999
2023-04-21 01-34-57-249117,-90,-110,1515,1480,-89.868,-110.093,1.42,5.53,-7.88,-35.09,8.17,136.38,-5.090000000000003
2023-04-21 01-34-57-324638,-90,-110,1516,1479,-89.78,-110.093,1.41,5.5,-7.92,-34.86,8.21,136.04,-4.859999999999999
2023-04-21 01-34-57-397383,-90,-110,1516,1479,-89.868,-110.093,1.42,5.47,-7.96,-34.63,8.23,135.77,-4.630000000000003
2023-04-21 01-34-57-460978,-90,-110,1517,1478,-89.868,-110.093,1.42,5.44,-7.98,-34.38,8.24,135.53,-4.380000000000003
2023-04-21 01-34-57-537204,-90,-110,1517,1478,-89.868,-110.093,1.44,5.38,-8.01,-34.12,8.26,135.32,-4.119999999999997
2023-04-21 01-34-57-613548,-90,-110,1518,1477,-89.868,-110.005,1.44,5.37,-8.04,-33.82,8.25,135.1,-3.8200000000000003
2023-04-21 01-34-57-687082,-90,-110,1518,1477,-89.868,-110.093,1.44,5.32,-8.05,-33.54,8.24,134.93,-3.539999999999999
2023-04-21 01-34-57-762476,-90,-110,1519,1476,-89.868,-110.093,1.44,5.28,-8.09,-33.21,8.22,134.75,-3.210000000000001
2023-04-21 01-34-57-820764,-90,-110,1520,1475,-89.868,-110.005,1.43,5.23,-8.12,-32.91,8.18,134.61,-2.9099999999999966
2023-04-21 01-34-57-905004,-90,-110,1520,1475,-89.78,-110.093,1.41,5.21,-8.15,-32.64,8.1,134.53,-2.6400000000000006
2023-04-21 01-34-57-976560,-90,-110,1521,1474,-89.868,-110.093,1.38,5.14,-8.18,-32.25,7.94,134.45,-2.25
2023-04-21 01-34-58-047924,-90,-110,1521,1474,-89.868,-110.093,1.33,5.1,-8.2,-31.89,7.79,134.4,-1.8900000000000006
2023-04-21 01-34-58-121467,-90,-110,1521,1474,-89.868,-110.093,1.33,5.04,-8.29,-31.47,7.69,134.31,-1.4699999999999989
2023-04-21 01-34-58-194688,-90,-110,1521,1474,-89.868,-110.093,1.32,4.96,-8.34,-31.11,7.64,134.23,-1.1099999999999994
2023-04-21 01-34-58-274162,-90,-110,1521,1474,-89.78,-110.093,1.31,4.93,-8.33,-30.77,7.55,134.18,-0.7699999999999996
2023-04-21 01-34-58-357267,-90,-110,1521,1474,-89.868,-110.093,1.29,4.88,-8.35,-30.39,7.45,134.12,-0.39000000000000057
2023-04-21 01-34-58-414811,-90,-110,1521,1474,-89.868,-110.005,1.28,4.82,-8.37,-30.03,7.38,134.06,-0.030000000000001137
2023-04-21 01-34-58-496664,-90,-110,1521,1474,-89.868,-110.093,1.27,4.78,-8.42,-29.62,7.35,133.98,0.379999999999999
2023-04-21 01-34-58-554987,-90,-110,1521,1474,-89.868,-110.093,1.28,4.72,-8.46,-29.26,7.34,133.9,0.7399999999999984
2023-04-21 01-34-58-644879,-90,-110,1521,1474,-89.868,-110.093,1.27,4.65,-8.51,-28.88,7.32,133.86,1.120000000000001
2023-04-21 01-34-58-715479,-90,-110,1521,1474,-89.868,-110.093,1.27,4.59,-8.53,-28.51,7.28,133.83,1.4899999999999984
2023-04-21 01-34-58-786261,-90,-110,1521,1474,-89.868,-110.093,1.25,4.54,-8.56,-28.08,7.22,133.82,1.9200000000000017
2023-04-21 01-34-58-854474,-90,-110,1529,1466,-89.868,-110.005,1.25,4.47,-8.57,-27.69,7.15,133.82,2.3099999999999987
2023-04-21 01-34-58-928319,-90,-110,1530,1465,-89.868,-110.093,1.24,4.42,-8.57,-27.22,7.07,133.83,2.780000000000001
2023-04-21 01-34-59-006786,-90,-110,1531,1464,-89.868,-110.093,1.24,4.33,-8.61,-26.78,7.04,133.83,3.219999999999999
2023-04-21 01-34-59-087659,-90,-110,1532,1463,-89.868,-110.093,1.22,4.26,-8.65,-26.32,7.03,133.82,3.6799999999999997
2023-04-21 01-34-59-159423,-90,-110,1533,1462,-89.868,-110.093,1.25,4.18,-8.88,-25.75,7.17,133.74,4.25
2023-04-21 01-34-59-229493,-90,-110,1534,1461,-89.868,-110.005,1.28,4.08,-8.93,-25.25,7.3,133.7,4.75
2023-04-21 01-34-59-303184,-90,-110,1535,1460,-89.868,-110.093,1.29,4.05,-8.88,-24.92,7.3,133.72,5.079999999999998
2023-04-21 01-34-59-378899,-90,-110,1535,1460,-89.78,-110.093,1.28,4.0,-8.9,-24.66,7.22,133.76,5.34
2023-04-21 01-34-59-453536,-90,-110,1536,1459,-89.78,-110.005,1.24,3.94,-8.93,-24.42,7.09,133.82,5.579999999999998
2023-04-21 01-34-59-530207,-90,-110,1536,1459,-89.868,-110.093,1.22,3.96,-8.88,-24.23,6.9,133.91,5.77
2023-04-21 01-34-59-604699,-90,-110,1536,1459,-89.868,-110.093,1.15,3.98,-8.78,-24.1,6.73,133.95,5.899999999999999
2023-04-21 01-34-59-682631,-90,-110,1537,1458,-89.78,-110.005,1.2,3.92,-8.88,-23.97,6.81,133.88,6.030000000000001
2023-04-21 01-34-59-765501,-90,-110,1537,1458,-89.868,-110.093,1.24,3.9,-8.91,-23.88,6.98,133.78,6.120000000000001
2023-04-21 01-34-59-835012,-90,-110,1537,1458,-89.868,-110.093,1.27,3.88,-8.9,-23.82,7.24,133.63,6.18
2023-04-21 01-34-59-909724,-90,-110,1537,1458,-89.868,-110.005,1.31,3.85,-8.96,-23.81,7.49,133.5,6.190000000000001
2023-04-21 01-34-59-975859,-90,-110,1537,1458,-89.868,-110.093,1.35,3.88,-8.94,-23.83,7.65,133.4,6.170000000000002
2023-04-21 01-35-00-048430,-90,-110,1537,1458,-89.868,-110.005,1.39,3.9,-8.92,-23.89,7.74,133.33,6.109999999999999
2023-04-21 01-35-00-121186,-90,-110,1536,1459,-89.868,-110.093,1.38,3.89,-8.9,-24.0,7.76,133.27,6.0
2023-04-21 01-35-00-195590,-90,-110,1536,1459,-89.868,-110.093,1.36,3.93,-8.9,-24.11,7.72,133.23,5.890000000000001
2023-04-21 01-35-00-274867,-90,-110,1536,1459,-89.868,-110.093,1.34,3.95,-8.84,-24.27,7.64,133.2,5.73
2023-04-21 01-35-00-343327,-90,-110,1536,1459,-89.868,-110.093,1.32,3.97,-8.85,-24.44,7.58,133.15,5.559999999999999
2023-04-21 01-35-00-423722,-90,-110,1535,1460,-89.868,-110.093,1.32,4.02,-8.83,-24.61,7.54,133.09,5.390000000000001
2023-04-21 01-35-00-494010,-90,-110,1535,1460,-89.868,-110.093,1.32,4.04,-8.83,-24.82,7.49,133.01,5.18
2023-04-21 01-35-00-573228,-90,-110,1534,1461,-89.868,-110.093,1.3,4.05,-8.81,-25.05,7.45,132.93,4.949999999999999
2023-04-21 01-35-00-646365,-90,-110,1534,1461,-89.868,-110.093,1.29,4.1,-8.75,-25.27,7.39,132.86,4.73
2023-04-21 01-35-00-722237,-90,-110,1533,1462,-89.868,-110.093,1.26,4.15,-8.7,-25.51,7.27,132.81,4.489999999999998
2023-04-21 01-35-00-816268,-90,-110,1533,1462,-89.868,-110.005,1.25,4.21,-8.67,-25.7,7.22,132.73,4.300000000000001
2023-04-21 01-35-00-897245,-90,-110,1533,1462,-89.868,-110.005,1.26,4.2,-8.68,-25.9,7.32,132.58,4.100000000000001
2023-04-21 01-35-00-980421,-90,-110,1532,1463,-89.868,-110.093,1.28,4.24,-8.67,-26.06,7.49,132.41,3.9400000000000013
2023-04-21 01-35-01-037825,-90,-110,1532,1463,-89.868,-110.093,1.35,4.23,-8.71,-26.19,7.69,132.25,3.8099999999999987
2023-04-21 01-35-01-110707,-90,-110,1532,1463,-89.868,-110.005,1.38,4.27,-8.71,-26.33,7.88,132.1,3.6700000000000017
2023-04-21 01-35-01-186368,-90,-110,1532,1463,-89.868,-110.093,1.41,4.29,-8.7,-26.46,7.95,132.02,3.539999999999999
2023-04-21 01-35-01-263378,-90,-110,1531,1464,-89.868,-110.093,1.39,4.32,-8.67,-26.6,7.92,131.99,3.3999999999999986
2023-04-21 01-35-01-336833,-90,-110,1531,1464,-89.868,-110.093,1.39,4.36,-8.65,-26.71,7.89,131.96,3.289999999999999
2023-04-21 01-35-01-409644,-90,-110,1531,1464,-89.868,-110.093,1.39,4.35,-8.65,-26.85,7.89,131.9,3.1499999999999986
2023-04-21 01-35-01-490786,-90,-110,1531,1464,-89.868,-110.093,1.36,4.39,-8.63,-26.95,7.84,131.87,3.0500000000000007
2023-04-21 01-35-01-562099,-90,-110,1530,1465,-89.868,-110.093,1.36,4.38,-8.59,-27.06,7.8,131.83,2.9400000000000013
2023-04-21 01-35-01-643744,-90,-110,1530,1465,-89.868,-110.005,1.37,4.41,-8.55,-27.14,7.83,131.75,2.8599999999999994
2023-04-21 01-35-01-714203,-90,-110,1530,1465,-89.868,-110.093,1.41,4.39,-8.59,-27.2,8.0,131.58,2.8000000000000007
2023-04-21 01-35-01-793601,-90,-110,1530,1465,-89.78,-110.093,1.45,4.4,-8.61,-27.21,8.12,131.47,2.789999999999999
2023-04-21 01-35-01-889469,-90,-110,1530,1465,-89.868,-110.005,1.45,4.39,-8.67,-27.19,8.11,131.41,2.8099999999999987
2023-04-21 01-35-01-954009,-90,-110,1530,1465,-89.868,-110.093,1.41,4.39,-8.65,-27.16,7.92,131.44,2.84
2023-04-21 01-35-02-010987,-90,-110,1530,1465,-89.868,-110.005,1.34,4.39,-8.62,-27.12,7.61,131.52,2.879999999999999
2023-04-21 01-35-02-103770,-90,-110,1530,1465,-89.868,-110.093,1.27,4.41,-8.59,-27.07,7.3,131.59,2.9299999999999997
2023-04-21 01-35-02-170642,-90,-110,1530,1465,-89.868,-110.093,1.22,4.37,-8.61,-27.01,7.04,131.63,2.9899999999999984
2023-04-21 01-35-02-237656,-90,-110,1531,1464,-89.868,-110.005,1.17,4.35,-8.59,-26.92,6.79,131.66,3.0799999999999983
2023-04-21 01-35-02-308591,-90,-110,1531,1464,-89.868,-110.093,1.13,4.36,-8.6,-26.8,6.66,131.66,3.1999999999999993
2023-04-21 01-35-02-384173,-90,-110,1531,1464,-89.868,-110.093,1.13,4.31,-8.63,-26.64,6.64,131.61,3.3599999999999994
2023-04-21 01-35-02-461510,-90,-110,1532,1463,-89.868,-110.005,1.18,4.28,-8.67,-26.48,6.81,131.47,3.5199999999999996
2023-04-21 01-35-02-540155,-90,-110,1532,1463,-89.868,-110.093,1.24,4.28,-8.71,-26.34,7.08,131.3,3.66
2023-04-21 01-35-02-617859,-90,-110,1532,1463,-89.868,-110.093,1.32,4.25,-8.75,-26.2,7.43,131.13,3.8000000000000007
2023-04-21 01-35-02-683708,-90,-110,1532,1463,-89.868,-110.093,1.36,4.19,-8.74,-26.08,7.68,131.01,3.9200000000000017
2023-04-21 01-35-02-760546,-90,-110,1533,1462,-89.868,-110.093,1.4,4.18,-8.77,-25.95,7.92,130.91,4.050000000000001
2023-04-21 01-35-02-835831,-90,-110,1533,1462,-89.868,-110.093,1.43,4.18,-8.77,-25.85,8.04,130.87,4.149999999999999
2023-04-21 01-35-02-914898,-90,-110,1533,1462,-89.868,-110.093,1.41,4.19,-8.77,-25.75,8.05,130.9,4.25
2023-04-21 01-35-02-997085,-90,-110,1533,1462,-89.868,-110.005,1.4,4.16,-8.75,-25.67,7.96,130.95,4.329999999999998
2023-04-21 01-35-03-071711,-90,-110,1533,1462,-89.868,-110.093,1.36,4.14,-8.74,-25.59,7.82,131.01,4.41
2023-04-21 01-35-03-149068,-90,-110,1533,1462,-89.868,-110.093,1.35,4.14,-8.77,-25.54,7.7,131.07,4.460000000000001
2023-04-21 01-35-03-226906,-90,-110,1534,1461,-89.868,-110.093,1.31,4.17,-8.73,-25.48,7.56,131.11,4.52
2023-04-21 01-35-03-303348,-90,-110,1534,1461,-89.78,-110.093,1.3,4.12,-8.73,-25.44,7.5,131.13,4.559999999999999
2023-04-21 01-35-03-382702,-90,-110,1534,1461,-89.78,-110.005,1.3,4.11,-8.77,-25.39,7.48,131.12,4.609999999999999
2023-04-21 01-35-03-459690,-90,-110,1534,1461,-89.868,-110.093,1.33,4.12,-8.77,-25.35,7.5,131.1,4.649999999999999
2023-04-21 01-35-03-535180,-90,-110,1534,1461,-89.868,-110.093,1.32,4.12,-8.77,-25.32,7.56,131.06,4.68
2023-04-21 01-35-03-612176,-90,-110,1534,1461,-89.868,-110.005,1.35,4.12,-8.77,-25.3,7.64,131.0,4.699999999999999
2023-04-21 01-35-03-690054,-90,-110,1534,1461,-89.868,-110.093,1.36,4.11,-8.71,-25.28,7.75,130.94,4.719999999999999
2023-04-21 01-35-03-763664,-90,-110,1534,1461,-89.868,-110.093,1.38,4.1,-8.75,-25.27,7.93,130.83,4.73
2023-04-21 01-35-03-853595,-90,-110,1534,1461,-89.868,-110.005,1.44,4.1,-8.76,-25.24,8.09,130.73,4.760000000000002
2023-04-21 01-35-03-922233,-90,-110,1534,1461,-89.868,-110.093,1.47,4.09,-8.81,-25.19,8.21,130.63,4.809999999999999
2023-04-21 01-35-03-989831,-90,-110,1534,1461,-89.868,-110.005,1.46,4.09,-8.84,-25.15,8.2,130.61,4.850000000000001
2023-04-21 01-35-04-062586,-90,-110,1534,1461,-89.868,-110.093,1.4,4.07,-8.8,-25.12,7.97,130.66,4.879999999999999
2023-04-21 01-35-04-137861,-90,-110,1534,1461,-89.868,-110.093,1.34,4.09,-8.8,-25.11,7.71,130.73,4.890000000000001
2023-04-21 01-35-04-213905,-90,-110,1534,1461,-89.868,-110.093,1.29,4.08,-8.77,-25.1,7.41,130.79,4.899999999999999
2023-04-21 01-35-04-292193,-90,-110,1534,1461,-89.868,-110.093,1.25,4.1,-8.77,-25.11,7.19,130.81,4.890000000000001
2023-04-21 01-35-04-377356,-90,-110,1534,1461,-89.868,-110.005,1.23,4.09,-8.75,-25.12,7.11,130.79,4.879999999999999
2023-04-21 01-35-04-442454,-90,-110,1534,1461,-89.868,-110.093,1.21,4.1,-8.77,-25.12,7.12,130.72,4.879999999999999
2023-04-21 01-35-04-521210,-90,-110,1534,1461,-89.868,-110.093,1.26,4.1,-8.77,-25.13,7.23,130.63,4.870000000000001
2023-04-21 01-35-04-595353,-90,-110,1534,1461,-89.868,-110.093,1.28,4.08,-8.77,-25.14,7.39,130.54,4.859999999999999
2023-04-21 01-35-04-676348,-90,-110,1534,1461,-89.868,-110.093,1.32,4.08,-8.8,-25.12,7.58,130.46,4.879999999999999
2023-04-21 01-35-04-756320,-90,-110,1534,1461,-89.868,-110.093,1.36,4.08,-8.8,-25.1,7.71,130.42,4.899999999999999
2023-04-21 01-35-04-833975,-90,-110,1534,1461,-89.868,-110.093,1.37,4.09,-8.82,-25.08,7.78,130.42,4.920000000000002
2023-04-21 01-35-04-922177,-90,-110,1534,1461,-89.868,-110.005,1.38,4.08,-8.81,-25.07,7.78,130.44,4.93
2023-04-21 01-35-04-997907,-90,-110,1534,1461,-89.868,-110.093,1.37,4.05,-8.78,-25.07,7.71,130.51,4.93
2023-04-21 01-35-05-070543,-90,-110,1534,1461,-89.868,-110.093,1.33,4.11,-8.75,-25.08,7.59,130.59,4.920000000000002
2023-04-21 01-35-05-146342,-90,-110,1534,1461,-89.868,-110.005,1.31,4.06,-8.73,-25.1,7.49,130.65,4.899999999999999
2023-04-21 01-35-05-225189,-90,-110,1534,1461,-89.868,-110.093,1.32,4.08,-8.76,-25.1,7.46,130.67,4.899999999999999
2023-04-21 01-35-05-302025,-90,-110,1534,1461,-89.868,-110.005,1.31,4.09,-8.74,-25.1,7.46,130.67,4.899999999999999
2023-04-21 01-35-05-373931,-90,-110,1534,1461,-89.868,-110.093,1.33,4.1,-8.77,-25.09,7.51,130.65,4.91
2023-04-21 01-35-05-448872,-90,-110,1534,1461,-89.868,-110.005,1.35,4.09,-8.8,-25.09,7.56,130.62,4.91
2023-04-21 01-35-05-526076,-90,-110,1534,1461,-89.868,-110.093,1.33,4.11,-8.8,-25.09,7.56,130.61,4.91
2023-04-21 01-35-05-602055,-90,-110,1534,1461,-89.868,-110.093,1.33,4.09,-8.78,-25.1,7.54,130.6,4.899999999999999
2023-04-21 01-35-05-679134,-90,-110,1534,1461,-89.868,-110.093,1.3,4.11,-8.75,-25.12,7.5,130.6,4.879999999999999
2023-04-21 01-35-05-756179,-90,-110,1534,1461,-89.868,-110.093,1.31,4.07,-8.76,-25.12,7.51,130.57,4.879999999999999
2023-04-21 01-35-05-831970,-90,-110,1534,1461,-89.868,-110.093,1.33,4.1,-8.77,-25.12,7.58,130.54,4.879999999999999
2023-04-21 01-35-05-912616,-90,-110,1534,1461,-89.868,-110.093,1.34,4.09,-8.71,-25.13,7.65,130.5,4.870000000000001
2023-04-21 01-35-05-987768,-90,-110,1534,1461,-89.78,-110.093,1.36,4.08,-8.75,-25.12,7.77,130.45,4.879999999999999
2023-04-21 01-35-06-064628,-90,-110,1534,1461,-89.868,-110.093,1.41,4.1,-8.78,-25.1,7.95,130.38,4.899999999999999
2023-04-21 01-35-06-133095,-90,-110,1534,1461,-89.868,-110.093,1.43,4.09,-8.82,-25.07,8.08,130.34,4.93
2023-04-21 01-35-06-209538,-90,-110,1534,1461,-89.868,-110.093,1.45,4.06,-8.86,-25.04,8.08,130.36,4.960000000000001
2023-04-21 01-35-06-286360,-90,-110,1534,1461,-89.868,-110.093,1.39,4.07,-8.79,-25.02,7.91,130.47,4.98
2023-04-21 01-35-06-364030,-90,-110,1534,1461,-89.868,-110.093,1.32,4.1,-8.77,-25.01,7.67,130.59,4.989999999999998
2023-04-21 01-35-06-445866,-90,-110,1534,1461,-89.868,-110.093,1.3,4.07,-8.75,-25.02,7.48,130.68,4.98
2023-04-21 01-35-06-549387,-90,-110,1534,1461,-89.868,-110.093,1.28,4.09,-8.76,-25.02,7.35,130.74,4.98
2023-04-21 01-35-06-634755,-90,-110,1534,1461,-89.78,-110.093,1.26,4.07,-8.77,-25.02,7.26,130.79,4.98
2023-04-21 01-35-06-695415,-90,-110,1534,1461,-89.78,-110.093,1.25,4.08,-8.77,-25.02,7.26,130.79,4.98
2023-04-21 01-35-06-756642,-90,-110,1534,1461,-89.868,-110.093,1.29,4.04,-8.79,-25.02,7.38,130.78,4.98
2023-04-21 01-35-06-818739,-90,-110,1534,1461,-89.868,-110.093,1.32,4.07,-8.79,-25.01,7.5,130.75,4.989999999999998
2023-04-21 01-35-06-887745,-90,-110,1534,1461,-89.868,-110.093,1.34,4.07,-8.79,-25.02,7.63,130.72,4.98
2023-04-21 01-35-06-962742,-90,-110,1534,1461,-89.868,-110.093,1.37,4.07,-8.79,-25.02,7.73,130.71,4.98
2023-04-21 01-35-07-040368,-90,-110,1534,1461,-89.868,-110.093,1.37,4.08,-8.76,-25.02,7.76,130.73,4.98
2023-04-21 01-35-07-124783,-90,-110,1535,1460,-89.868,-110.093,1.36,4.09,-8.75,-25.0,7.81,130.73,5.0
2023-04-21 01-35-07-195184,-90,-110,1535,1460,-89.78,-110.093,1.38,4.07,-8.77,-24.96,7.87,130.73,5.039999999999999
2023-04-21 01-35-07-275682,-90,-110,1535,1460,-89.78,-110.093,1.38,4.08,-8.9,-24.89,7.93,130.71,5.109999999999999
2023-04-21 01-35-07-358337,-90,-110,1535,1460,-89.868,-110.093,1.41,4.04,-8.95,-24.84,7.84,130.76,5.16
2023-04-21 01-35-07-433226,-90,-110,1535,1460,-89.78,-110.093,1.31,4.05,-8.83,-24.86,7.57,130.88,5.140000000000001
2023-04-21 01-35-07-515513,-90,-110,1535,1460,-89.868,-110.093,1.24,4.07,-8.79,-24.92,7.19,131.04,5.079999999999998
2023-04-21 01-35-07-589336,-90,-110,1535,1460,-89.868,-110.005,1.2,4.07,-8.77,-24.98,6.91,131.14,5.02
2023-04-21 01-35-07-669106,-90,-110,1534,1461,-89.868,-110.005,1.15,4.08,-8.78,-25.05,6.67,131.23,4.949999999999999
2023-04-21 01-35-07-743730,-90,-110,1534,1461,-89.868,-110.093,1.13,4.11,-8.79,-25.13,6.57,131.26,4.870000000000001
2023-04-21 01-35-07-813525,-90,-110,1534,1461,-89.868,-110.093,1.14,4.08,-8.73,-25.21,6.57,131.26,4.789999999999999
2023-04-21 01-35-07-887176,-90,-110,1534,1461,-89.868,-110.093,1.15,4.12,-8.7,-25.28,6.69,131.2,4.719999999999999
2023-04-21 01-35-07-963366,-90,-110,1534,1461,-89.868,-110.093,1.22,4.13,-8.71,-25.34,7.0,131.08,4.66
2023-04-21 01-35-08-041766,-90,-110,1534,1461,-89.868,-110.093,1.29,4.12,-8.69,-25.37,7.43,130.91,4.629999999999999
2023-04-21 01-35-08-118262,-90,-110,1534,1461,-89.868,-110.093,1.39,4.12,-8.74,-25.38,7.89,130.74,4.620000000000001
2023-04-21 01-35-08-200608,-90,-110,1534,1461,-89.868,-110.093,1.5,4.14,-8.77,-25.36,8.38,130.59,4.640000000000001
2023-04-21 01-35-08-276416,-90,-110,1534,1461,-89.868,-110.093,1.55,4.09,-8.82,-25.34,8.73,130.5,4.66
2023-04-21 01-35-08-353905,-90,-110,1534,1461,-89.868,-110.093,1.56,4.08,-8.81,-25.31,8.85,130.52,4.690000000000001
2023-04-21 01-35-08-433754,-90,-110,1534,1461,-89.868,-110.005,1.56,4.1,-8.82,-25.31,8.77,130.63,4.690000000000001
2023-04-21 01-35-08-514519,-90,-110,1534,1461,-89.868,-110.093,1.5,4.1,-8.76,-25.31,8.5,130.79,4.690000000000001
2023-04-21 01-35-08-589384,-90,-110,1534,1461,-89.868,-110.093,1.44,4.1,-8.75,-25.33,8.22,130.93,4.670000000000002
2023-04-21 01-35-08-670047,-90,-110,1534,1461,-89.868,-110.093,1.37,4.12,-8.71,-25.33,7.92,131.06,4.670000000000002
2023-04-21 01-35-08-746938,-90,-110,1534,1461,-89.868,-110.093,1.34,4.13,-8.7,-25.33,7.71,131.13,4.670000000000002
2023-04-21 01-35-08-824636,-90,-110,1534,1461,-89.78,-110.093,1.32,4.11,-8.73,-25.32,7.64,131.15,4.68
2023-04-21 01-35-08-910684,-90,-110,1534,1461,-89.868,-110.093,1.32,4.11,-8.71,-25.29,7.65,131.13,4.710000000000001
2023-04-21 01-35-08-985767,-90,-110,1534,1461,-89.868,-110.093,1.34,4.11,-8.74,-25.27,7.73,131.1,4.73
2023-04-21 01-35-09-059375,-90,-110,1534,1461,-89.78,-110.093,1.35,4.08,-8.74,-25.24,7.87,131.04,4.760000000000002
2023-04-21 01-35-09-128249,-90,-110,1534,1461,-89.868,-110.005,1.41,4.1,-8.71,-25.21,8.08,130.97,4.789999999999999
2023-04-21 01-35-09-209182,-90,-110,1534,1461,-89.868,-110.093,1.45,4.1,-8.74,-25.18,8.26,130.9,4.82
2023-04-21 01-35-09-276078,-90,-110,1534,1461,-89.78,-110.093,1.49,4.06,-8.76,-25.11,8.51,130.82,4.890000000000001
2023-04-21 01-35-09-355072,-90,-110,1534,1461,-89.868,-110.093,1.55,4.08,-8.87,-25.03,8.71,130.77,4.969999999999999
2023-04-21 01-35-09-435571,-90,-110,1535,1460,-89.78,-110.093,1.57,4.08,-8.87,-24.96,8.73,130.8,5.039999999999999
2023-04-21 01-35-09-514349,-90,-110,1535,1460,-89.78,-110.093,1.52,4.04,-8.82,-24.92,8.56,130.9,5.079999999999998
2023-04-21 01-35-09-591301,-90,-110,1535,1460,-89.868,-110.093,1.44,4.05,-8.85,-24.91,8.28,131.03,5.09
2023-04-21 01-35-09-670799,-90,-110,1535,1460,-89.868,-110.005,1.39,4.05,-8.83,-24.93,7.96,131.16,5.07
2023-04-21 01-35-09-738128,-90,-110,1535,1460,-89.868,-110.005,1.29,4.06,-8.78,-24.96,7.56,131.3,5.039999999999999
2023-04-21 01-35-09-817843,-90,-110,1534,1461,-89.78,-110.093,1.23,4.07,-8.74,-25.01,7.27,131.4,4.989999999999998
2023-04-21 01-35-09-901603,-90,-110,1534,1461,-89.868,-110.093,1.21,4.08,-8.78,-25.09,7.08,131.45,4.91
2023-04-21 01-35-09-976297,-90,-110,1534,1461,-89.868,-110.093,1.2,4.13,-8.71,-25.18,7.01,131.45,4.82
2023-04-21 01-35-10-055740,-90,-110,1534,1461,-89.868,-110.093,1.22,4.11,-8.7,-25.25,7.16,131.38,4.75
2023-04-21 01-35-10-133160,-90,-110,1534,1461,-89.868,-110.093,1.3,4.14,-8.73,-25.31,7.47,131.26,4.690000000000001
2023-04-21 01-35-10-224094,-90,-110,1534,1461,-89.868,-110.005,1.36,4.13,-8.68,-25.34,7.85,131.12,4.66
2023-04-21 01-35-10-284637,-90,-110,1534,1461,-89.868,-110.093,1.47,4.09,-8.72,-25.34,8.37,130.95,4.66
2023-04-21 01-35-10-363738,-90,-110,1534,1461,-89.868,-110.093,1.57,4.12,-8.72,-25.32,8.87,130.81,4.68
2023-04-21 01-35-10-442973,-90,-110,1534,1461,-89.78,-110.005,1.67,4.08,-8.84,-25.28,9.16,130.75,4.719999999999999
2023-04-21 01-35-10-508784,-90,-110,1534,1461,-89.868,-110.093,1.64,4.08,-8.82,-25.25,9.2,130.81,4.75
2023-04-21 01-35-10-592767,-90,-110,1534,1461,-89.868,-110.093,1.61,4.09,-8.79,-25.25,9.06,130.93,4.75
2023-04-21 01-35-10-665875,-90,-110,1534,1461,-89.868,-110.093,1.55,4.12,-8.76,-25.26,8.79,131.08,4.739999999999998
2023-04-21 01-35-10-745343,-90,-110,1534,1461,-89.868,-110.005,1.49,4.11,-8.72,-25.29,8.51,131.21,4.710000000000001
2023-04-21 01-35-10-822505,-90,-110,1534,1461,-89.868,-110.005,1.44,4.12,-8.71,-25.32,8.27,131.28,4.68
2023-04-21 01-35-10-896975,-90,-110,1534,1461,-89.868,-110.093,1.41,4.12,-8.71,-25.33,8.13,131.32,4.670000000000002
2023-04-21 01-35-10-969168,-90,-110,1534,1461,-89.868,-110.093,1.38,4.11,-8.73,-25.34,8.04,131.31,4.66
2023-04-21 01-35-11-046757,-90,-110,1534,1461,-89.78,-110.093,1.39,4.11,-8.73,-25.35,8.03,131.28,4.649999999999999
2023-04-21 01-35-11-126146,-90,-110,1534,1461,-89.868,-110.005,1.38,4.11,-8.72,-25.33,8.09,131.23,4.670000000000002
2023-04-21 01-35-11-204347,-90,-110,1534,1461,-89.868,-110.093,1.42,4.1,-8.71,-25.3,8.24,131.16,4.699999999999999
2023-04-21 01-35-11-284149,-90,-110,1534,1461,-89.868,-110.093,1.46,4.1,-8.71,-25.27,8.45,131.07,4.73
2023-04-21 01-35-11-363986,-90,-110,1534,1461,-89.868,-110.093,1.52,4.1,-8.76,-25.22,8.7,130.99,4.780000000000001
2023-04-21 01-35-11-444297,-90,-110,1534,1461,-89.868,-110.093,1.58,4.06,-8.77,-25.15,8.92,130.93,4.850000000000001
2023-04-21 01-35-11-519372,-90,-110,1534,1461,-89.868,-110.093,1.6,4.04,-8.86,-25.07,9.02,130.93,4.93
2023-04-21 01-35-11-597891,-90,-110,1534,1461,-89.868,-110.093,1.57,4.07,-8.82,-25.03,8.93,131.01,4.969999999999999
2023-04-21 01-35-11-676451,-90,-110,1534,1461,-89.868,-110.005,1.52,4.03,-8.79,-25.02,8.68,131.16,4.98
2023-04-21 01-35-11-757587,-90,-110,1534,1461,-89.78,-110.093,1.45,4.05,-8.76,-25.03,8.38,131.3,4.969999999999999
2023-04-21 01-35-11-831425,-90,-110,1534,1461,-89.868,-110.093,1.39,4.07,-8.74,-25.05,8.13,131.4,4.949999999999999
2023-04-21 01-35-11-911336,-90,-110,1534,1461,-89.78,-110.093,1.37,4.08,-8.72,-25.07,8.02,131.45,4.93
2023-04-21 01-35-11-993745,-90,-110,1534,1461,-89.868,-110.093,1.39,4.07,-8.75,-25.08,8.01,131.44,4.920000000000002
2023-04-21 01-35-12-070395,-90,-110,1534,1461,-89.868,-110.005,1.4,4.09,-8.77,-25.08,8.05,131.42,4.920000000000002
2023-04-21 01-35-12-150753,-90,-110,1534,1461,-89.868,-110.093,1.4,4.08,-8.73,-25.09,8.14,131.4,4.91
2023-04-21 01-35-12-228580,-90,-110,1534,1461,-89.868,-110.005,1.43,4.09,-8.72,-25.09,8.31,131.33,4.91
2023-04-21 01-35-12-306211,-90,-110,1534,1461,-89.868,-110.093,1.5,4.08,-8.74,-25.09,8.57,131.24,4.91
2023-04-21 01-35-12-382695,-90,-110,1534,1461,-89.868,-110.093,1.56,4.1,-8.76,-25.06,8.83,131.14,4.940000000000001
2023-04-21 01-35-12-463616,-90,-110,1534,1461,-89.868,-110.093,1.61,4.04,-8.84,-25.03,9.07,131.05,4.969999999999999
2023-04-21 01-35-12-543699,-90,-110,1535,1460,-89.78,-110.005,1.61,4.04,-8.84,-24.99,9.12,131.05,5.010000000000002
2023-04-21 01-35-12-608444,-90,-110,1535,1460,-89.868,-110.093,1.59,4.04,-8.84,-24.98,8.96,131.12,5.02
2023-04-21 01-35-12-687655,-90,-110,1535,1460,-89.868,-110.093,1.53,4.04,-8.83,-24.97,8.67,131.23,5.030000000000001
2023-04-21 01-35-12-767931,-90,-110,1534,1461,-89.868,-110.093,1.42,4.04,-8.79,-25.0,8.22,131.4,5.0
2023-04-21 01-35-12-845925,-90,-110,1534,1461,-89.78,-110.093,1.34,4.07,-8.8,-25.06,7.8,131.54,4.940000000000001
2023-04-21 01-35-12-914702,-90,-110,1534,1461,-89.868,-110.093,1.28,4.03,-8.75,-25.12,7.49,131.63,4.879999999999999
2023-04-21 01-35-12-994851,-90,-110,1534,1461,-89.868,-110.005,1.23,4.1,-8.7,-25.2,7.29,131.67,4.800000000000001
2023-04-21 01-35-13-071911,-90,-110,1534,1461,-89.868,-110.093,1.23,4.11,-8.71,-25.26,7.28,131.64,4.739999999999998
2023-04-21 01-35-13-150335,-90,-110,1534,1461,-89.78,-110.093,1.28,4.12,-8.74,-25.29,7.43,131.54,4.710000000000001
2023-04-21 01-35-13-249447,-90,-110,1534,1461,-89.868,-110.093,1.34,4.1,-8.74,-25.3,7.71,131.43,4.699999999999999
2023-04-21 01-35-13-311902,-90,-110,1534,1461,-89.868,-110.093,1.42,4.11,-8.77,-25.31,8.05,131.31,4.690000000000001
2023-04-21 01-35-13-389527,-90,-110,1534,1461,-89.868,-110.093,1.48,4.11,-8.78,-25.32,8.37,131.24,4.68
2023-04-21 01-35-13-470233,-90,-110,1534,1461,-89.868,-110.093,1.51,4.08,-8.76,-25.33,8.6,131.2,4.670000000000002
2023-04-21 01-35-13-556780,-90,-110,1534,1461,-89.78,-110.093,1.56,4.1,-8.77,-25.37,8.76,131.2,4.629999999999999
2023-04-21 01-35-13-637322,-90,-110,1534,1461,-89.868,-110.093,1.55,4.12,-8.74,-25.4,8.79,131.25,4.600000000000001
2023-04-21 01-35-13-710881,-90,-110,1534,1461,-89.868,-110.093,1.53,4.12,-8.72,-25.42,8.72,131.33,4.579999999999998
2023-04-21 01-35-13-792786,-90,-110,1534,1461,-89.868,-110.093,1.52,4.15,-8.72,-25.44,8.62,131.4,4.559999999999999
2023-04-21 01-35-13-870623,-90,-110,1534,1461,-89.868,-110.005,1.5,4.11,-8.74,-25.45,8.5,131.45,4.550000000000001
2023-04-21 01-35-13-949943,-90,-110,1534,1461,-89.868,-110.093,1.45,4.13,-8.73,-25.46,8.35,131.5,4.539999999999999
2023-04-21 01-35-14-028467,-90,-110,1534,1461,-89.868,-110.093,1.44,4.14,-8.7,-25.47,8.24,131.51,4.530000000000001
2023-04-21 01-35-14-105583,-90,-110,1534,1461,-89.868,-110.093,1.43,4.12,-8.74,-25.49,8.19,131.5,4.510000000000002
2023-04-21 01-35-14-185635,-90,-110,1533,1462,-89.868,-110.093,1.44,4.15,-8.72,-25.5,8.19,131.47,4.5
2023-04-21 01-35-14-264990,-90,-110,1533,1462,-89.78,-110.093,1.43,4.14,-8.7,-25.52,8.23,131.41,4.48
2023-04-21 01-35-14-330670,-90,-110,1533,1462,-89.868,-110.093,1.45,4.18,-8.72,-25.52,8.31,131.34,4.48
2023-04-21 01-35-14-426289,-90,-110,1533,1462,-89.78,-110.093,1.48,4.13,-8.71,-25.52,8.45,131.26,4.48
2023-04-21 01-35-14-494324,-90,-110,1534,1461,-89.868,-110.093,1.52,4.1,-8.72,-25.5,8.64,131.16,4.5
2023-04-21 01-35-14-572724,-90,-110,1534,1461,-89.78,-110.093,1.55,4.12,-8.72,-25.48,8.84,131.06,4.52
2023-04-21 01-35-14-645368,-90,-110,1534,1461,-89.868,-110.093,1.6,4.13,-8.79,-25.45,8.99,130.98,4.550000000000001
2023-04-21 01-35-14-726942,-90,-110,1534,1461,-89.868,-110.093,1.61,4.1,-8.84,-25.41,8.99,130.98,4.59
2023-04-21 01-35-14-805049,-90,-110,1534,1461,-89.868,-110.093,1.53,4.12,-8.78,-25.4,8.73,131.09,4.600000000000001
2023-04-21 01-35-14-879005,-90,-110,1534,1461,-89.78,-110.093,1.46,4.1,-8.74,-25.4,8.46,131.18,4.600000000000001
2023-04-21 01-35-14-959707,-90,-110,1534,1461,-89.868,-110.093,1.41,4.13,-8.72,-25.43,8.19,131.26,4.57
2023-04-21 01-35-15-035169,-90,-110,1534,1461,-89.868,-110.093,1.37,4.17,-8.72,-25.45,8.01,131.3,4.550000000000001
2023-04-21 01-35-15-104704,-90,-110,1534,1461,-89.868,-110.093,1.37,4.13,-8.73,-25.45,7.91,131.31,4.550000000000001
2023-04-21 01-35-15-184421,-90,-110,1534,1461,-89.868,-110.093,1.36,4.13,-8.73,-25.45,7.88,131.31,4.550000000000001
2023-04-21 01-35-15-263670,-90,-110,1534,1461,-89.868,-110.093,1.38,4.13,-8.72,-25.45,7.92,131.27,4.550000000000001
2023-04-21 01-35-15-332163,-90,-110,1534,1461,-89.868,-110.093,1.4,4.12,-8.74,-25.43,8.01,131.25,4.57
2023-04-21 01-35-15-410593,-90,-110,1534,1461,-89.868,-110.093,1.42,4.09,-8.74,-25.42,8.14,131.21,4.579999999999998
2023-04-21 01-35-15-490400,-90,-110,1534,1461,-89.868,-110.093,1.46,4.13,-8.76,-25.4,8.34,131.16,4.600000000000001
2023-04-21 01-35-15-569123,-90,-110,1534,1461,-89.868,-110.093,1.5,4.13,-8.77,-25.38,8.5,131.13,4.620000000000001
2023-04-21 01-35-15-647729,-90,-110,1534,1461,-89.868,-110.093,1.51,4.11,-8.77,-25.37,8.58,131.14,4.629999999999999
2023-04-21 01-35-15-728036,-90,-110,1534,1461,-89.868,-110.093,1.52,4.11,-8.77,-25.37,8.58,131.17,4.629999999999999
2023-04-21 01-35-15-809813,-90,-110,1534,1461,-89.868,-110.093,1.52,4.12,-8.76,-25.39,8.55,131.22,4.609999999999999
2023-04-21 01-35-15-874257,-90,-110,1534,1461,-89.868,-110.093,1.49,4.12,-8.75,-25.42,8.48,131.26,4.579999999999998
2023-04-21 01-35-15-953904,-90,-110,1534,1461,-89.78,-110.093,1.47,4.15,-8.75,-25.45,8.4,131.3,4.550000000000001
2023-04-21 01-35-16-033362,-90,-110,1534,1461,-89.868,-110.093,1.45,4.12,-8.72,-25.46,8.29,131.34,4.539999999999999
2023-04-21 01-35-16-114462,-90,-110,1534,1461,-89.868,-110.093,1.43,4.1,-8.71,-25.47,8.21,131.35,4.530000000000001
