Timestamp_log,left_angle,right_angle,left_thrust,right_thrust,read_left_angle,read_right_angle,accel_x,accel_y,accel_z,roll,pitch,yaw,error
2023-05-05 10-54-59-599751,0,160,1547,1453,-89.78,-110.093,0.58,-0.08,-9.76,0.39,3.21,-175.28,30.39
2023-05-05 10-54-59-840248,0,160,1547,1453,-89.78,-110.093,0.57,-0.09,-9.77,0.39,3.22,-175.28,30.39
2023-05-05 10-55-00-095021,0,160,1547,1453,-89.78,-110.093,0.6,0.03,-9.82,-0.19,3.37,-175.32,29.81
2023-05-05 10-55-00-348811,0,160,1547,1453,-89.78,-110.093,0.68,0.22,-9.76,-1.59,3.94,-175.57,28.41
2023-05-05 10-55-00-593279,0,160,1547,1453,-89.78,-110.093,0.81,0.48,-9.68,-2.96,4.83,-175.91,27.04
2023-05-05 10-55-00-845533,0,160,1547,1453,-89.78,-110.093,1.07,0.69,-9.65,-4.12,6.11,-176.31,25.88
2023-05-05 10-55-01-094782,0,160,1547,1453,-89.78,-110.093,1.39,0.85,-9.64,-5.21,8.03,-176.83,24.79
2023-05-05 10-55-01-343759,0,160,1547,1453,-89.78,-110.093,1.67,0.98,-9.52,-6.12,9.77,-177.3,23.88
2023-05-05 10-55-01-593920,0,160,1547,1453,-89.78,-110.093,2.09,1.11,-9.39,-6.89,12.38,-177.87,23.11
2023-05-05 10-55-01-841845,0,160,1547,1453,-89.78,-110.093,2.65,1.21,-9.33,-7.49,15.55,-178.42,22.509999999999998
2023-05-05 10-55-02-094101,0,160,1547,1453,-89.78,-110.093,3.11,1.23,-9.19,-8.04,18.39,-178.85,21.96
2023-05-05 10-55-02-356188,0,160,1547,1453,-89.78,-110.093,3.46,1.34,-9.06,-8.6,20.39,-179.16,21.4
2023-05-05 10-55-02-608038,0,160,1547,1453,-89.78,-110.093,3.66,1.42,-9.01,-9.18,21.49,-179.4,20.82
2023-05-05 10-55-02-859121,0,160,1547,1453,-89.78,-110.093,3.71,1.52,-8.91,-10.03,22.2,-179.78,19.97
2023-05-05 10-55-03-120169,0,160,1547,1453,-89.78,-110.093,3.83,1.68,-8.84,-10.94,22.96,179.77,19.060000000000002
2023-05-05 10-55-03-372951,0,160,1547,1453,-89.78,-110.093,3.97,1.79,-8.76,-11.9,23.82,179.31,18.1
2023-05-05 10-55-03-627116,0,160,1546,1454,-89.78,-110.093,4.15,1.93,-8.57,-12.93,25.13,178.73,17.07
2023-05-05 10-55-03-883522,0,160,1545,1455,-89.78,-110.093,4.52,2.04,-8.46,-14.0,27.38,177.93,16.0
2023-05-05 10-55-04-131734,0,160,1544,1456,-89.78,-110.093,4.86,2.17,-8.2,-15.12,29.57,177.16,14.88
2023-05-05 10-55-04-374182,0,160,1544,1456,-89.78,-110.093,5.02,2.26,-8.01,-15.78,30.59,176.82,14.22
2023-05-05 10-55-04-638672,0,160,1543,1457,-89.78,-110.093,5.25,2.25,-7.99,-16.09,31.96,176.5,13.91
2023-05-05 10-55-04-891328,0,160,1543,1457,-89.78,-110.093,5.19,2.31,-7.85,-16.36,32.09,176.25,13.64
2023-05-05 10-55-05-154163,0,160,1543,1457,-89.78,-110.093,5.24,2.29,-7.82,-16.47,32.43,175.95,13.530000000000001
2023-05-05 10-55-05-407962,0,160,1543,1457,-89.78,-110.093,5.34,2.32,-7.93,-16.44,32.45,175.67,13.559999999999999
2023-05-05 10-55-05-654853,0,160,1543,1457,-89.78,-110.093,5.29,2.32,-7.89,-16.42,32.42,175.25,13.579999999999998
2023-05-05 10-55-05-903695,0,160,1543,1457,-89.78,-110.093,5.29,2.32,-7.86,-16.52,32.52,174.58,13.48
2023-05-05 10-55-06-167547,0,160,1543,1457,-89.78,-110.093,5.41,2.33,-7.93,-16.79,32.83,173.56,13.21
2023-05-05 10-55-06-418948,0,160,1542,1458,-89.78,-110.093,5.41,2.37,-7.84,-17.1,33.15,172.49,12.899999999999999
2023-05-05 10-55-06-692173,0,160,1542,1458,-89.78,-110.093,5.42,2.4,-7.77,-17.36,33.41,171.49,12.64
2023-05-05 10-55-06-943505,0,160,1542,1458,-89.78,-110.093,5.43,2.4,-7.74,-17.53,33.58,170.61,12.469999999999999
2023-05-05 10-55-07-198633,0,160,1542,1458,-89.78,-110.093,5.46,2.43,-7.75,-17.66,33.71,169.79,12.34
2023-05-05 10-55-07-456812,0,160,1542,1458,-89.78,-110.093,5.45,2.43,-7.72,-17.68,33.72,169.12,12.32
2023-05-05 10-55-07-711513,0,160,1542,1458,-89.78,-110.093,5.43,2.41,-7.79,-17.51,33.55,168.54,12.489999999999998
2023-05-05 10-55-07-979206,0,160,1542,1458,-89.78,-110.093,5.39,2.4,-7.79,-17.4,33.45,168.05,12.600000000000001
2023-05-05 10-55-08-232059,0,160,1542,1458,-89.78,-110.093,5.39,2.4,-7.78,-17.35,33.4,167.59,12.649999999999999
2023-05-05 10-55-08-480485,0,160,1542,1458,-89.78,-110.093,5.39,2.39,-7.76,-17.32,33.36,167.19,12.68
2023-05-05 10-55-08-736050,0,160,1542,1458,-89.78,-110.093,5.39,2.38,-7.78,-17.28,33.3,166.8,12.719999999999999
2023-05-05 10-55-08-988845,0,160,1542,1458,-89.78,-110.093,5.36,2.38,-7.83,-17.2,33.24,166.51,12.8
2023-05-05 10-55-09-255010,0,160,1542,1458,-89.78,-110.093,5.35,2.38,-7.83,-17.12,33.18,166.23,12.879999999999999
2023-05-05 10-55-09-507604,0,160,1542,1458,-89.78,-110.093,5.37,2.36,-7.81,-17.04,33.08,165.99,12.96
2023-05-05 10-55-09-770366,0,160,1543,1457,-89.78,-110.093,5.37,2.35,-7.87,-16.87,32.9,165.81,13.129999999999999
2023-05-05 10-55-10-034059,0,160,1543,1457,-89.78,-110.093,5.33,2.33,-7.88,-16.77,32.77,165.61,13.23
2023-05-05 10-55-10-288302,0,160,1543,1457,-89.78,-110.093,5.3,2.36,-7.85,-16.75,32.75,165.41,13.25
2023-05-05 10-55-10-543516,0,160,1543,1457,-89.78,-110.093,5.31,2.33,-7.86,-16.77,32.76,165.23,13.23
2023-05-05 10-55-10-792498,0,160,1543,1457,-89.78,-110.093,5.33,2.33,-7.89,-16.73,32.7,165.08,13.27
2023-05-05 10-55-11-043279,0,160,1543,1457,-89.78,-110.093,5.29,2.33,-7.86,-16.67,32.62,164.99,13.329999999999998
2023-05-05 10-55-11-299526,0,160,1543,1457,-89.78,-110.093,5.28,2.31,-7.87,-16.62,32.51,164.9,13.379999999999999
2023-05-05 10-55-11-547776,0,160,1543,1457,-89.78,-110.093,5.31,2.33,-7.9,-16.56,32.48,164.77,13.440000000000001
2023-05-05 10-55-11-802729,0,160,1543,1457,-89.78,-110.093,5.26,2.32,-7.88,-16.46,32.33,164.72,13.54
2023-05-05 10-55-12-056343,0,160,1543,1457,-89.78,-110.093,5.27,2.26,-7.95,-16.34,32.21,164.66,13.66
2023-05-05 10-55-12-300796,0,160,1543,1457,-89.78,-110.093,5.26,2.3,-7.92,-16.31,32.24,164.58,13.690000000000001
2023-05-05 10-55-12-554312,0,160,1543,1457,-89.78,-110.093,5.25,2.3,-7.88,-16.38,32.3,164.49,13.620000000000001
2023-05-05 10-55-12-800538,0,160,1543,1457,-89.78,-110.093,5.26,2.29,-7.89,-16.43,32.39,164.39,13.57
2023-05-05 10-55-13-056293,0,160,1543,1457,-89.78,-110.093,5.27,2.31,-7.91,-16.45,32.43,164.32,13.55
2023-05-05 10-55-13-309693,0,160,1543,1457,-89.78,-110.093,5.26,2.29,-7.99,-16.47,32.46,164.24,13.530000000000001
2023-05-05 10-55-13-557657,0,160,1543,1457,-89.78,-110.093,5.28,2.31,-7.89,-16.5,32.47,164.17,13.5
2023-05-05 10-55-13-813047,0,160,1543,1457,-89.78,-110.093,5.3,2.3,-7.89,-16.56,32.5,164.09,13.440000000000001
2023-05-05 10-55-14-066043,0,160,1543,1457,-89.78,-110.093,5.27,2.3,-7.86,-16.45,32.39,164.09,13.55
2023-05-05 10-55-14-321854,0,160,1543,1457,-89.78,-110.093,5.27,2.28,-7.93,-16.39,32.35,164.07,13.61
2023-05-05 10-55-14-571980,0,160,1543,1457,-89.78,-110.093,5.27,2.3,-7.91,-16.43,32.38,164.02,13.57
2023-05-05 10-55-14-826149,0,160,1543,1457,-89.78,-110.093,5.29,2.31,-7.91,-16.44,32.4,163.98,13.559999999999999
2023-05-05 10-55-15-079551,0,160,1543,1457,-89.78,-110.093,5.27,2.29,-7.9,-16.44,32.43,163.95,13.559999999999999
2023-05-05 10-55-15-318899,0,160,1543,1457,-89.78,-110.093,5.28,2.31,-7.9,-16.48,32.45,163.91,13.52
2023-05-05 10-55-15-560535,0,160,1543,1457,-89.78,-110.093,5.26,2.31,-7.86,-16.52,32.48,163.87,13.48
2023-05-05 10-55-15-804398,0,160,1543,1457,-89.78,-110.093,5.29,2.34,-7.88,-16.52,32.48,163.83,13.48
