Timestamp_log,left_angle,right_angle,left_thrust,right_thrust,read_left_angle,read_right_angle,accel_x,accel_y,accel_z,roll,pitch,yaw,error
2023-04-21 00-39-40-196290,-90,-110,1559,1559,-90.132,-110.005,-0.36,1.05,-9.72,-6.16,-2.24,140.83,23.84
2023-04-21 00-39-40-303615,-90,-110,1548,1548,-90.132,-110.005,-0.35,1.04,-9.72,-6.15,-2.23,140.83,23.85
2023-04-21 00-39-40-409686,-90,-110,1548,1548,-90.132,-110.005,-0.35,1.04,-9.72,-6.15,-2.23,140.83,23.85
2023-04-21 00-39-40-523949,-90,-110,1548,1548,-90.132,-110.005,-0.36,1.1,-9.68,-6.14,-2.23,140.83,23.86
2023-04-21 00-39-40-639170,-90,-110,1548,1548,-90.22,-110.005,-0.35,1.08,-9.71,-6.14,-2.23,140.86,23.86
2023-04-21 00-39-40-761768,-90,-110,1548,1548,-90.132,-110.005,-0.34,0.92,-9.73,-6.14,-2.23,140.84,23.86
2023-04-21 00-39-40-869651,-90,-110,1548,1548,-90.132,-110.005,-0.38,1.17,-9.64,-6.15,-2.23,140.82,23.85
2023-04-21 00-39-40-989367,-90,-110,1548,1548,-90.132,-110.005,-0.34,0.99,-9.73,-6.16,-2.24,140.83,23.84
2023-04-21 00-39-41-096443,-90,-110,1548,1548,-90.132,-110.005,-0.36,1.11,-9.67,-6.18,-2.24,140.79,23.82
2023-04-21 00-39-41-221981,-90,-110,1548,1548,-90.132,-110.005,-0.36,1.14,-9.66,-6.17,-2.24,140.82,23.83
2023-04-21 00-39-41-347823,-90,-110,1548,1548,-90.132,-110.005,-0.35,1.05,-9.73,-6.17,-2.25,140.84,23.83
2023-04-21 00-39-41-471599,-90,-110,1548,1548,-90.132,-110.093,-0.37,1.01,-9.75,-6.16,-2.25,140.86,23.84
2023-04-21 00-39-41-589632,-90,-110,1548,1548,-90.132,-110.093,-0.37,1.13,-9.65,-6.18,-2.25,140.84,23.82
2023-04-21 00-39-41-697720,-90,-110,1548,1548,-90.132,-110.005,-0.36,0.99,-9.75,-6.17,-2.25,140.84,23.83
2023-04-21 00-39-41-809577,-90,-110,1548,1548,-90.132,-110.005,-0.36,1.16,-9.6,-6.17,-2.25,140.82,23.83
2023-04-21 00-39-41-926362,-90,-110,1548,1548,-90.132,-110.005,-0.37,0.99,-9.72,-6.17,-2.25,140.84,23.83
2023-04-21 00-39-42-038984,-90,-110,1548,1548,-90.132,-110.005,-0.36,1.13,-9.67,-6.2,-2.26,140.83,23.8
2023-04-21 00-39-42-153796,-90,-110,1548,1548,-90.132,-110.005,-0.38,1.01,-9.76,-6.19,-2.27,140.86,23.81
2023-04-21 00-39-42-264025,-90,-110,1548,1548,-90.132,-110.093,-0.39,1.13,-9.64,-6.21,-2.27,140.83,23.79
2023-04-21 00-39-42-377981,-90,-110,1548,1548,-90.132,-110.005,-0.38,1.01,-9.71,-6.22,-2.28,140.82,23.78
2023-04-21 00-39-42-504275,-90,-110,1548,1548,-90.22,-110.005,-0.38,1.0,-9.71,-6.21,-2.27,140.84,23.79
2023-04-21 00-39-42-619243,-90,-110,1548,1548,-90.132,-110.093,-0.34,1.01,-9.77,-6.21,-2.26,140.86,23.79
2023-04-21 00-39-42-738581,-90,-110,1548,1548,-90.132,-110.005,-0.37,1.06,-9.68,-6.22,-2.26,140.83,23.78
2023-04-21 00-39-42-865566,-90,-110,1548,1548,-90.132,-110.005,-0.37,1.05,-9.65,-6.23,-2.25,140.82,23.77
2023-04-21 00-39-42-991837,-90,-110,1548,1548,-90.132,-110.005,-0.36,0.92,-9.77,-6.25,-2.25,140.81,23.75
2023-04-21 00-39-43-117913,-90,-110,1548,1548,-90.132,-110.005,-0.34,0.95,-9.77,-6.24,-2.24,140.81,23.759999999999998
2023-04-21 00-39-43-242940,-90,-110,1548,1548,-90.132,-110.005,-0.34,1.12,-9.73,-6.24,-2.25,140.82,23.759999999999998
2023-04-21 00-39-43-368224,-90,-110,1548,1548,-90.132,-110.005,-0.34,0.99,-9.71,-6.24,-2.25,140.84,23.759999999999998
2023-04-21 00-39-43-482281,-90,-110,1548,1548,-90.132,-110.005,-0.35,1.08,-9.69,-6.24,-2.26,140.82,23.759999999999998
2023-04-21 00-39-43-599888,-90,-110,1548,1548,-90.132,-110.005,-0.36,1.25,-9.64,-6.24,-2.26,140.81,23.759999999999998
2023-04-21 00-39-43-714721,-90,-110,1548,1548,-90.132,-110.005,-0.36,0.94,-9.71,-6.23,-2.27,140.82,23.77
2023-04-21 00-39-43-837327,-90,-110,1548,1548,-90.132,-110.005,-0.32,1.06,-9.75,-6.22,-2.27,140.83,23.78
2023-04-21 00-39-43-943271,-90,-110,1548,1548,-90.132,-110.005,-0.36,1.01,-9.71,-6.22,-2.27,140.83,23.78
2023-04-21 00-39-44-056882,-90,-110,1548,1548,-90.132,-110.005,-0.36,1.15,-9.74,-6.21,-2.27,140.83,23.79
2023-04-21 00-39-44-157121,-90,-110,1548,1548,-90.132,-110.005,-0.39,1.05,-9.74,-6.21,-2.26,140.85,23.79
2023-04-21 00-39-44-271610,-90,-110,1548,1548,-90.132,-110.005,-0.36,1.11,-9.66,-6.22,-2.25,140.84,23.78
2023-04-21 00-39-44-398324,-90,-110,1548,1548,-90.132,-110.005,-0.34,1.06,-9.74,-6.21,-2.26,140.85,23.79
2023-04-21 00-39-44-522658,-90,-110,1548,1548,-90.132,-110.005,-0.33,1.05,-9.7,-6.2,-2.26,140.85,23.8
2023-04-21 00-39-44-644021,-90,-110,1548,1548,-90.132,-110.005,-0.36,1.11,-9.72,-6.2,-2.26,140.84,23.8
2023-04-21 00-39-44-760385,-90,-110,1548,1548,-90.132,-110.005,-0.34,1.01,-9.75,-6.2,-2.27,140.86,23.8
2023-04-21 00-39-44-872352,-90,-110,1548,1548,-90.132,-110.005,-0.35,0.96,-9.73,-6.21,-2.27,140.85,23.79
2023-04-21 00-39-44-989616,-90,-110,1548,1548,-90.132,-110.005,-0.34,0.95,-9.74,-6.22,-2.27,140.85,23.78
2023-04-21 00-39-45-114590,-90,-110,1548,1548,-90.132,-110.005,-0.35,0.99,-9.72,-6.22,-2.28,140.85,23.78
2023-04-21 00-39-45-219840,-90,-110,1548,1548,-90.132,-110.093,-0.39,1.01,-9.74,-6.25,-2.28,140.82,23.75
2023-04-21 00-39-45-346085,-90,-110,1548,1548,-90.132,-110.005,-0.37,1.06,-9.76,-6.25,-2.28,140.84,23.75
2023-04-21 00-39-45-462844,-90,-110,1548,1548,-90.132,-110.005,-0.33,0.93,-9.77,-6.26,-2.28,140.83,23.740000000000002
2023-04-21 00-39-45-576580,-90,-110,1548,1548,-90.132,-110.005,-0.34,1.08,-9.76,-6.24,-2.29,140.83,23.759999999999998
2023-04-21 00-39-45-694559,-90,-110,1548,1548,-90.132,-110.005,-0.38,1.14,-9.7,-6.23,-2.29,140.85,23.77
2023-04-21 00-39-45-806086,-90,-110,1548,1548,-90.132,-110.005,-0.36,0.97,-9.74,-6.24,-2.28,140.85,23.759999999999998
2023-04-21 00-39-45-928922,-90,-110,1548,1548,-90.132,-110.005,-0.35,1.17,-9.71,-6.23,-2.28,140.86,23.77
2023-04-21 00-39-46-040508,-90,-110,1548,1548,-90.132,-110.005,-0.35,0.98,-9.69,-6.23,-2.28,140.86,23.77
2023-04-21 00-39-46-168545,-90,-110,1548,1548,-90.132,-110.005,-0.37,1.13,-9.69,-6.23,-2.28,140.86,23.77
2023-04-21 00-39-46-286859,-90,-110,1548,1548,-90.132,-110.005,-0.34,0.97,-9.72,-6.25,-2.27,140.84,23.75
2023-04-21 00-39-46-409943,-90,-110,1548,1548,-90.132,-110.005,-0.33,1.06,-9.78,-6.24,-2.27,140.85,23.759999999999998
2023-04-21 00-39-46-520662,-90,-110,1548,1548,-90.132,-110.005,-0.35,1.11,-9.66,-6.25,-2.28,140.83,23.75
2023-04-21 00-39-46-630716,-90,-110,1548,1548,-90.132,-110.005,-0.34,1.05,-9.78,-6.24,-2.27,140.85,23.759999999999998
2023-04-21 00-39-46-755323,-90,-110,1548,1548,-90.132,-110.005,-0.34,1.04,-9.69,-6.25,-2.27,140.82,23.75
2023-04-21 00-39-46-873682,-90,-110,1548,1548,-90.132,-110.005,-0.36,1.11,-9.73,-6.23,-2.28,140.85,23.77
2023-04-21 00-39-47-003287,-90,-110,1548,1548,-90.132,-110.005,-0.36,0.97,-9.74,-6.21,-2.29,140.87,23.79
2023-04-21 00-39-47-113501,-90,-110,1548,1548,-90.132,-110.093,-0.39,0.94,-9.73,-6.21,-2.29,140.86,23.79
2023-04-21 00-39-47-239728,-90,-110,1548,1548,-90.132,-110.005,-0.36,0.99,-9.72,-6.22,-2.3,140.84,23.78
2023-04-21 00-39-47-357405,-90,-110,1548,1548,-90.132,-110.005,-0.36,1.05,-9.7,-6.22,-2.3,140.85,23.78
2023-04-21 00-39-47-481320,-90,-110,1548,1548,-90.132,-110.005,-0.37,1.1,-9.72,-6.24,-2.3,140.82,23.759999999999998
2023-04-21 00-39-47-600795,-90,-110,1548,1548,-90.132,-110.005,-0.37,0.92,-9.74,-6.25,-2.3,140.8,23.75
2023-04-21 00-39-47-719383,-90,-110,1548,1548,-90.132,-110.005,-0.38,1.07,-9.65,-6.27,-2.31,140.77,23.73
2023-04-21 00-39-47-838893,-90,-110,1548,1548,-90.132,-110.005,-0.36,1.03,-9.73,-6.26,-2.31,140.79,23.740000000000002
2023-04-21 00-39-47-962781,-90,-110,1548,1548,-90.132,-110.005,-0.36,1.13,-9.66,-6.28,-2.3,140.78,23.72
2023-04-21 00-39-48-085199,-90,-110,1548,1548,-90.132,-110.005,-0.36,0.99,-9.74,-6.27,-2.3,140.8,23.73
2023-04-21 00-39-48-196364,-90,-110,1548,1548,-90.132,-110.005,-0.36,1.1,-9.71,-6.26,-2.29,140.79,23.740000000000002
2023-04-21 00-39-48-317233,-90,-110,1548,1548,-90.132,-110.005,-0.38,1.12,-9.7,-6.26,-2.3,140.79,23.740000000000002
2023-04-21 00-39-48-433724,-90,-110,1548,1548,-90.132,-110.005,-0.35,1.11,-9.66,-6.26,-2.3,140.79,23.740000000000002
2023-04-21 00-39-48-559250,-90,-110,1548,1548,-90.132,-110.005,-0.33,1.06,-9.72,-6.26,-2.29,140.81,23.740000000000002
2023-04-21 00-39-48-673422,-90,-110,1548,1548,-90.132,-110.005,-0.37,1.11,-9.7,-6.26,-2.3,140.83,23.740000000000002
2023-04-21 00-39-48-800365,-90,-110,1548,1548,-90.132,-110.005,-0.35,1.02,-9.75,-6.26,-2.29,140.84,23.740000000000002
2023-04-21 00-39-48-918499,-90,-110,1548,1548,-90.132,-110.093,-0.36,0.99,-9.72,-6.27,-2.3,140.82,23.73
2023-04-21 00-39-49-038489,-90,-110,1548,1548,-90.132,-110.005,-0.35,0.95,-9.73,-6.27,-2.31,140.82,23.73
2023-04-21 00-39-49-153857,-90,-110,1548,1548,-90.132,-110.005,-0.36,1.04,-9.73,-6.27,-2.31,140.82,23.73
2023-04-21 00-39-49-277321,-90,-110,1548,1548,-90.132,-110.005,-0.35,1.06,-9.71,-6.26,-2.31,140.83,23.740000000000002
2023-04-21 00-39-49-390703,-90,-110,1548,1548,-90.132,-110.005,-0.36,1.06,-9.72,-6.25,-2.31,140.85,23.75
2023-04-21 00-39-49-520153,-90,-110,1548,1548,-90.132,-110.005,-0.37,1.1,-9.71,-6.25,-2.32,140.86,23.75
2023-04-21 00-39-49-632208,-90,-110,1548,1548,-90.132,-110.005,-0.38,1.27,-9.63,-6.24,-2.32,140.89,23.759999999999998
2023-04-21 00-39-49-757130,-90,-110,1548,1548,-90.132,-110.005,-0.35,1.05,-9.68,-6.25,-2.32,140.89,23.75
2023-04-21 00-39-49-874604,-90,-110,1548,1548,-90.132,-110.005,-0.36,1.15,-9.69,-6.25,-2.31,140.85,23.75
2023-04-21 00-39-49-993813,-90,-110,1548,1548,-90.132,-110.005,-0.36,0.92,-9.78,-6.24,-2.3,140.86,23.759999999999998
2023-04-21 00-39-50-106294,-90,-110,1548,1548,-90.22,-110.093,-0.36,1.16,-9.72,-6.25,-2.31,140.87,23.75
2023-04-21 00-39-50-221220,-90,-110,1548,1548,-90.132,-110.005,-0.37,0.96,-9.74,-6.26,-2.31,140.88,23.740000000000002
2023-04-21 00-39-50-332070,-90,-110,1548,1548,-90.132,-110.005,-0.37,1.07,-9.69,-6.25,-2.3,140.87,23.75
2023-04-21 00-39-50-459161,-90,-110,1548,1548,-90.132,-110.005,-0.34,0.95,-9.72,-6.25,-2.3,140.87,23.75
2023-04-21 00-39-50-574578,-90,-110,1548,1548,-90.132,-110.005,-0.36,1.25,-9.74,-6.24,-2.31,140.89,23.759999999999998
2023-04-21 00-39-50-690222,-90,-110,1548,1548,-90.132,-110.005,-0.36,0.95,-9.77,-6.23,-2.31,140.91,23.77
2023-04-21 00-39-50-804644,-90,-110,1548,1548,-90.132,-110.005,-0.33,1.11,-9.64,-6.25,-2.31,140.87,23.75
2023-04-21 00-39-50-920356,-90,-110,1548,1548,-90.132,-110.093,-0.35,1.03,-9.75,-6.25,-2.32,140.87,23.75
2023-04-21 00-39-51-037764,-90,-110,1548,1548,-90.132,-110.005,-0.35,1.05,-9.7,-6.25,-2.31,140.86,23.75
2023-04-21 00-39-51-156496,-90,-110,1548,1548,-90.132,-110.005,-0.35,0.98,-9.73,-6.23,-2.31,140.88,23.77
2023-04-21 00-39-51-281718,-90,-110,1548,1548,-90.132,-110.005,-0.38,1.03,-9.74,-6.24,-2.32,140.88,23.759999999999998
2023-04-21 00-39-51-406805,-90,-110,1548,1548,-90.132,-110.093,-0.37,0.97,-9.74,-6.24,-2.33,140.86,23.759999999999998
2023-04-21 00-39-51-524716,-90,-110,1548,1548,-90.132,-110.005,-0.36,1.06,-9.68,-6.25,-2.33,140.85,23.75
2023-04-21 00-39-51-627106,-90,-110,1548,1548,-90.132,-110.005,-0.38,1.07,-9.71,-6.24,-2.32,140.86,23.759999999999998
2023-04-21 00-39-51-752751,-90,-110,1548,1548,-90.132,-110.005,-0.34,1.0,-9.74,-6.24,-2.32,140.85,23.759999999999998
2023-04-21 00-39-51-870295,-90,-110,1548,1548,-90.132,-110.005,-0.37,0.91,-9.75,-6.25,-2.3,140.84,23.75
2023-04-21 00-39-51-995062,-90,-110,1548,1548,-90.132,-110.005,-0.38,1.08,-9.67,-6.25,-2.3,140.85,23.75
2023-04-21 00-39-52-107776,-90,-110,1548,1548,-90.132,-110.005,-0.35,1.01,-9.77,-6.25,-2.3,140.87,23.75
2023-04-21 00-39-52-235024,-90,-110,1548,1548,-90.132,-110.005,-0.35,1.0,-9.74,-6.25,-2.3,140.89,23.75
2023-04-21 00-39-52-364169,-90,-110,1548,1548,-90.132,-110.005,-0.37,1.12,-9.68,-6.26,-2.3,140.87,23.740000000000002
2023-04-21 00-39-52-465785,-90,-110,1548,1548,-90.22,-110.005,-0.36,1.04,-9.7,-6.27,-2.29,140.87,23.73
2023-04-21 00-39-52-586322,-90,-110,1548,1548,-90.132,-110.005,-0.36,1.03,-9.75,-6.26,-2.29,140.88,23.740000000000002
2023-04-21 00-39-52-721392,-90,-110,1548,1548,-90.132,-110.005,-0.37,1.07,-9.73,-6.25,-2.29,140.87,23.75
2023-04-21 00-39-52-843262,-90,-110,1548,1548,-90.132,-110.005,-0.36,1.06,-9.74,-6.23,-2.29,140.91,23.77
2023-04-21 00-39-52-970560,-90,-110,1548,1548,-90.132,-110.005,-0.36,0.94,-9.78,-6.21,-2.29,140.94,23.79
2023-04-21 00-39-53-081759,-90,-110,1548,1548,-90.132,-110.093,-0.34,1.12,-9.68,-6.21,-2.29,140.93,23.79
2023-04-21 00-39-53-198251,-90,-110,1548,1548,-90.132,-110.005,-0.36,1.14,-9.68,-6.22,-2.3,140.91,23.78
2023-04-21 00-39-53-315869,-90,-110,1548,1548,-90.132,-110.005,-0.37,0.97,-9.75,-6.22,-2.3,140.93,23.78
2023-04-21 00-39-53-434413,-90,-110,1548,1548,-90.132,-110.005,-0.37,1.14,-9.69,-6.22,-2.3,140.91,23.78
2023-04-21 00-39-53-551719,-90,-110,1548,1548,-90.132,-110.005,-0.34,1.08,-9.76,-6.19,-2.3,140.96,23.81
2023-04-21 00-39-53-681363,-90,-110,1548,1548,-90.132,-110.005,-0.33,0.95,-9.78,-6.2,-2.31,140.94,23.8
2023-04-21 00-39-53-803368,-90,-110,1548,1548,-90.132,-110.005,-0.36,1.01,-9.74,-6.2,-2.32,140.95,23.8
2023-04-21 00-39-53-921008,-90,-110,1548,1548,-90.22,-110.005,-0.38,1.19,-9.68,-6.19,-2.32,140.96,23.81
2023-04-21 00-39-54-030450,-90,-110,1548,1548,-90.132,-110.005,-0.36,0.93,-9.78,-6.17,-2.32,141.0,23.83
2023-04-21 00-39-54-154728,-90,-110,1548,1548,-90.132,-110.005,-0.36,0.98,-9.73,-6.18,-2.32,141.0,23.82
2023-04-21 00-39-54-274524,-90,-110,1548,1548,-90.132,-110.005,-0.36,0.89,-9.77,-6.19,-2.32,140.97,23.81
2023-04-21 00-39-54-390456,-90,-110,1548,1548,-90.132,-110.005,-0.32,1.12,-9.73,-6.19,-2.33,140.98,23.81
2023-04-21 00-39-54-526790,-90,-110,1548,1548,-90.132,-110.005,-0.38,1.18,-9.71,-6.2,-2.32,140.97,23.8
2023-04-21 00-39-54-648451,-90,-110,1548,1548,-90.132,-110.005,-0.34,0.91,-9.77,-6.2,-2.32,140.99,23.8
2023-04-21 00-39-54-774653,-90,-110,1548,1548,-90.132,-110.005,-0.35,1.06,-9.74,-6.2,-2.31,141.0,23.8
2023-04-21 00-39-54-883538,-90,-110,1548,1548,-90.132,-110.005,-0.36,1.06,-9.71,-6.22,-2.31,140.97,23.78
2023-04-21 00-39-55-010727,-90,-110,1548,1548,-90.132,-110.093,-0.36,1.01,-9.75,-6.2,-2.3,140.99,23.8
2023-04-21 00-39-55-129501,-90,-110,1548,1548,-90.132,-110.005,-0.35,1.03,-9.7,-6.22,-2.3,140.96,23.78
2023-04-21 00-39-55-247704,-90,-110,1548,1548,-90.132,-110.005,-0.38,1.11,-9.71,-6.2,-2.29,140.97,23.8
2023-04-21 00-39-55-374874,-90,-110,1548,1548,-90.132,-110.005,-0.37,1.15,-9.67,-6.22,-2.29,140.93,23.78
2023-04-21 00-39-55-491288,-90,-110,1548,1548,-90.132,-110.005,-0.37,1.12,-9.72,-6.21,-2.28,140.96,23.79
2023-04-21 00-39-55-611567,-90,-110,1548,1548,-90.132,-110.005,-0.37,1.06,-9.76,-6.22,-2.28,140.95,23.78
2023-04-21 00-39-55-738951,-90,-110,1548,1548,-90.132,-110.005,-0.38,1.05,-9.66,-6.22,-2.28,140.94,23.78
2023-04-21 00-39-55-854208,-90,-110,1548,1548,-90.132,-110.005,-0.38,0.98,-9.71,-6.22,-2.28,140.95,23.78
2023-04-21 00-39-55-968285,-90,-110,1548,1548,-90.132,-110.005,-0.36,0.99,-9.73,-6.22,-2.28,140.95,23.78
2023-04-21 00-39-56-090351,-90,-110,1548,1548,-90.132,-110.005,-0.37,0.98,-9.77,-6.24,-2.27,140.92,23.759999999999998
2023-04-21 00-39-56-191400,-90,-110,1548,1548,-90.132,-110.005,-0.35,1.04,-9.74,-6.22,-2.27,140.92,23.78
2023-04-21 00-39-56-297869,-90,-110,1548,1548,-90.132,-110.005,-0.36,1.1,-9.66,-6.23,-2.27,140.9,23.77
2023-04-21 00-39-56-409365,-90,-110,1548,1548,-90.132,-110.005,-0.36,1.13,-9.68,-6.23,-2.27,140.9,23.77
2023-04-21 00-39-56-529314,-90,-110,1548,1548,-90.132,-110.005,-0.35,0.93,-9.77,-6.23,-2.28,140.9,23.77
2023-04-21 00-39-56-657748,-90,-110,1548,1548,-90.132,-110.005,-0.37,1.05,-9.74,-6.22,-2.28,140.94,23.78
2023-04-21 00-39-56-771257,-90,-110,1548,1548,-90.132,-110.005,-0.36,1.13,-9.71,-6.21,-2.28,140.98,23.79
2023-04-21 00-39-56-909655,-90,-110,1548,1548,-90.132,-110.005,-0.37,0.94,-9.75,-6.21,-2.29,140.97,23.79
2023-04-21 00-39-57-012288,-90,-110,1548,1548,-90.132,-110.005,-0.37,1.12,-9.71,-6.21,-2.27,140.97,23.79
2023-04-21 00-39-57-124248,-90,-110,1548,1548,-90.132,-110.005,-0.4,0.98,-9.76,-6.21,-2.27,140.98,23.79
2023-04-21 00-39-57-254782,-90,-110,1548,1548,-90.132,-110.005,-0.36,1.16,-9.66,-6.22,-2.28,140.96,23.78
2023-04-21 00-39-57-376566,-90,-110,1548,1548,-90.132,-110.093,-0.39,1.08,-9.71,-6.22,-2.28,140.95,23.78
2023-04-21 00-39-57-501835,-90,-110,1548,1548,-90.132,-110.093,-0.38,0.99,-9.73,-6.21,-2.28,140.97,23.79
2023-04-21 00-39-57-619411,-90,-110,1548,1548,-90.132,-110.005,-0.36,1.07,-9.7,-6.2,-2.29,140.97,23.8
2023-04-21 00-39-57-730726,-90,-110,1548,1548,-90.132,-110.005,-0.37,1.08,-9.67,-6.2,-2.28,140.95,23.8
2023-04-21 00-39-57-852328,-90,-110,1548,1548,-90.132,-110.005,-0.37,1.04,-9.73,-6.2,-2.29,140.96,23.8
2023-04-21 00-39-57-974854,-90,-110,1548,1548,-90.132,-110.005,-0.34,1.2,-9.73,-6.19,-2.28,140.97,23.81
2023-04-21 00-39-58-086505,-90,-110,1548,1548,-90.132,-110.005,-0.36,1.11,-9.7,-6.19,-2.28,140.97,23.81
2023-04-21 00-39-58-203637,-90,-110,1548,1548,-90.132,-110.005,-0.36,1.06,-9.74,-6.17,-2.26,141.01,23.83
2023-04-21 00-39-58-330494,-90,-110,1548,1548,-90.132,-110.005,-0.36,0.94,-9.74,-6.18,-2.26,140.99,23.82
2023-04-21 00-39-58-447188,-90,-110,1548,1548,-90.132,-110.005,-0.34,1.14,-9.68,-6.19,-2.26,140.96,23.81
2023-04-21 00-39-58-562155,-90,-110,1548,1548,-90.22,-110.005,-0.35,0.99,-9.75,-6.17,-2.27,140.98,23.83
2023-04-21 00-39-58-678572,-90,-110,1548,1548,-90.132,-110.005,-0.37,0.99,-9.75,-6.16,-2.27,140.99,23.84
2023-04-21 00-39-58-799356,-90,-110,1548,1548,-90.132,-110.005,-0.38,1.05,-9.71,-6.17,-2.27,140.95,23.83
2023-04-21 00-39-58-902854,-90,-110,1548,1548,-90.132,-110.005,-0.38,1.01,-9.72,-6.17,-2.27,140.96,23.83
2023-04-21 00-39-59-025082,-90,-110,1548,1548,-90.132,-110.005,-0.4,0.99,-9.72,-6.16,-2.27,140.96,23.84
2023-04-21 00-39-59-150043,-90,-110,1548,1548,-90.132,-110.005,-0.35,1.12,-9.69,-6.17,-2.27,140.97,23.83
2023-04-21 00-39-59-263647,-90,-110,1548,1548,-90.132,-110.093,-0.35,0.94,-9.71,-6.17,-2.27,140.97,23.83
2023-04-21 00-39-59-389312,-90,-110,1548,1548,-90.132,-110.005,-0.37,1.14,-9.69,-6.2,-2.26,140.94,23.8
2023-04-21 00-39-59-507244,-90,-110,1548,1548,-90.132,-110.005,-0.34,1.09,-9.74,-6.18,-2.27,140.96,23.82
2023-04-21 00-39-59-633958,-90,-110,1548,1548,-90.132,-110.093,-0.36,1.16,-9.71,-6.18,-2.28,140.96,23.82
2023-04-21 00-39-59-738332,-90,-110,1548,1548,-90.132,-110.005,-0.32,0.97,-9.76,-6.16,-2.27,141.0,23.84
2023-04-21 00-39-59-861191,-90,-110,1548,1548,-90.132,-110.093,-0.36,1.12,-9.68,-6.18,-2.27,140.96,23.82
2023-04-21 00-39-59-982599,-90,-110,1548,1548,-90.132,-110.005,-0.38,1.02,-9.75,-6.2,-2.27,140.98,23.8
2023-04-21 00-40-00-099088,-90,-110,1548,1548,-90.132,-110.005,-0.34,1.07,-9.68,-6.18,-2.27,141.0,23.82
2023-04-21 00-40-00-223300,-90,-110,1548,1548,-90.132,-110.005,-0.37,1.14,-9.72,-6.18,-2.27,141.01,23.82
2023-04-21 00-40-00-344372,-90,-110,1548,1548,-90.132,-110.005,-0.37,1.11,-9.73,-6.18,-2.27,141.04,23.82
2023-04-21 00-40-00-463411,-90,-110,1548,1548,-90.132,-110.005,-0.39,0.93,-9.72,-6.17,-2.27,141.04,23.83
2023-04-21 00-40-00-573138,-90,-110,1548,1548,-90.132,-110.005,-0.34,1.03,-9.76,-6.16,-2.27,141.04,23.84
2023-04-21 00-40-00-687005,-90,-110,1548,1548,-90.132,-110.005,-0.36,1.14,-9.7,-6.16,-2.27,141.05,23.84
2023-04-21 00-40-00-805709,-90,-110,1548,1548,-90.132,-110.005,-0.35,1.11,-9.74,-6.14,-2.27,141.06,23.86
2023-04-21 00-40-00-926215,-90,-110,1548,1548,-90.132,-110.005,-0.35,1.01,-9.76,-6.13,-2.26,141.08,23.87
2023-04-21 00-40-01-050737,-90,-110,1548,1548,-90.132,-110.005,-0.34,1.0,-9.76,-6.13,-2.26,141.08,23.87
2023-04-21 00-40-01-167804,-90,-110,1548,1548,-90.132,-110.005,-0.35,1.03,-9.71,-6.15,-2.27,141.04,23.85
2023-04-21 00-40-01-277955,-90,-110,1548,1548,-90.132,-110.005,-0.35,0.95,-9.74,-6.15,-2.27,141.04,23.85
2023-04-21 00-40-01-396836,-90,-110,1548,1548,-90.132,-110.005,-0.35,1.16,-9.7,-6.17,-2.28,141.02,23.83
2023-04-21 00-40-01-519068,-90,-110,1548,1548,-90.132,-110.005,-0.33,1.03,-9.78,-6.17,-2.28,141.03,23.83
2023-04-21 00-40-01-641941,-90,-110,1548,1548,-90.132,-110.005,-0.35,1.07,-9.67,-6.19,-2.29,141.01,23.81
2023-04-21 00-40-01-759294,-90,-110,1548,1548,-90.132,-110.005,-0.35,0.98,-9.75,-6.17,-2.29,141.04,23.83
2023-04-21 00-40-01-879761,-90,-110,1548,1548,-90.132,-110.005,-0.34,1.07,-9.74,-6.17,-2.3,141.04,23.83
2023-04-21 00-40-02-000927,-90,-110,1548,1548,-90.132,-110.005,-0.37,0.97,-9.78,-6.17,-2.3,141.04,23.83
2023-04-21 00-40-02-124063,-90,-110,1548,1548,-90.132,-110.005,-0.34,1.0,-9.72,-6.17,-2.3,141.03,23.83
2023-04-21 00-40-02-239361,-90,-110,1548,1548,-90.132,-110.005,-0.35,1.09,-9.74,-6.17,-2.3,141.02,23.83
2023-04-21 00-40-02-355264,-90,-110,1548,1548,-90.132,-110.005,-0.38,1.01,-9.69,-6.17,-2.3,141.05,23.83
2023-04-21 00-40-02-469038,-90,-110,1548,1548,-90.132,-110.005,-0.38,1.07,-9.71,-6.18,-2.31,141.02,23.82
2023-04-21 00-40-02-581588,-90,-110,1548,1548,-90.132,-110.005,-0.37,1.0,-9.78,-6.17,-2.31,141.04,23.83
2023-04-21 00-40-02-694568,-90,-110,1548,1548,-90.132,-110.093,-0.36,1.07,-9.7,-6.16,-2.31,141.06,23.84
2023-04-21 00-40-02-803602,-90,-110,1548,1548,-90.132,-110.093,-0.38,1.14,-9.69,-6.16,-2.31,141.06,23.84
2023-04-21 00-40-02-931787,-90,-110,1548,1548,-90.132,-110.005,-0.35,0.91,-9.8,-6.14,-2.31,141.06,23.86
2023-04-21 00-40-03-058524,-90,-110,1548,1548,-90.132,-110.005,-0.35,1.03,-9.75,-6.14,-2.31,141.07,23.86
2023-04-21 00-40-03-181908,-90,-110,1548,1548,-90.132,-110.093,-0.36,1.05,-9.69,-6.15,-2.3,141.06,23.85
2023-04-21 00-40-03-288121,-90,-110,1548,1548,-90.132,-110.005,-0.37,0.96,-9.76,-6.16,-2.31,141.05,23.84
2023-04-21 00-40-03-406327,-90,-110,1548,1548,-90.132,-110.005,-0.36,1.22,-9.6,-6.17,-2.32,141.01,23.83
2023-04-21 00-40-03-533822,-90,-110,1548,1548,-90.132,-110.093,-0.37,1.04,-9.73,-6.16,-2.32,141.05,23.84
2023-04-21 00-40-03-653695,-90,-110,1548,1548,-90.22,-110.005,-0.36,1.14,-9.65,-6.18,-2.33,141.02,23.82
2023-04-21 00-40-03-782790,-90,-110,1548,1548,-90.132,-110.093,-0.36,0.99,-9.76,-6.16,-2.33,141.04,23.84
2023-04-21 00-40-03-901562,-90,-110,1548,1548,-90.132,-110.005,-0.36,1.13,-9.71,-6.17,-2.33,141.02,23.83
2023-04-21 00-40-04-021152,-90,-110,1548,1548,-90.132,-110.005,-0.36,1.0,-9.75,-6.17,-2.34,141.04,23.83
2023-04-21 00-40-04-144456,-90,-110,1548,1548,-90.132,-110.005,-0.35,1.01,-9.75,-6.17,-2.32,141.01,23.83
2023-04-21 00-40-04-255098,-90,-110,1548,1548,-90.132,-110.005,-0.38,1.02,-9.71,-6.16,-2.32,141.0,23.84
2023-04-21 00-40-04-368532,-90,-110,1548,1548,-90.132,-110.005,-0.34,1.05,-9.75,-6.16,-2.32,141.0,23.84
2023-04-21 00-40-04-493807,-90,-110,1548,1548,-90.132,-110.005,-0.37,1.0,-9.76,-6.16,-2.3,141.01,23.84
2023-04-21 00-40-04-611297,-90,-110,1548,1548,-90.132,-110.005,-0.37,1.07,-9.67,-6.15,-2.29,141.0,23.85
2023-04-21 00-40-04-726069,-90,-110,1548,1548,-90.132,-110.093,-0.38,1.14,-9.69,-6.15,-2.29,141.01,23.85
2023-04-21 00-40-04-834837,-90,-110,1548,1548,-90.132,-110.005,-0.36,1.04,-9.71,-6.16,-2.3,141.01,23.84
2023-04-21 00-40-04-962651,-90,-110,1548,1548,-90.132,-110.005,-0.37,1.07,-9.7,-6.18,-2.3,140.99,23.82
2023-04-21 00-40-05-097470,-90,-110,1548,1548,-90.132,-110.005,-0.36,1.04,-9.68,-6.17,-2.3,140.98,23.83
2023-04-21 00-40-05-214156,-90,-110,1548,1548,-90.132,-110.005,-0.34,0.93,-9.79,-6.17,-2.29,141.0,23.83
2023-04-21 00-40-05-325253,-90,-110,1548,1548,-90.22,-110.005,-0.35,0.99,-9.73,-6.18,-2.29,140.98,23.82
2023-04-21 00-40-05-459229,-90,-110,1548,1548,-90.132,-110.093,-0.4,1.08,-9.69,-6.18,-2.28,140.97,23.82
2023-04-21 00-40-05-587710,-90,-110,1548,1548,-90.132,-110.005,-0.36,1.1,-9.75,-6.18,-2.28,140.98,23.82
2023-04-21 00-40-05-705245,-90,-110,1548,1548,-90.132,-110.005,-0.38,1.19,-9.71,-6.19,-2.28,140.98,23.81
2023-04-21 00-40-05-819039,-90,-110,1548,1548,-90.132,-110.005,-0.36,0.93,-9.74,-6.2,-2.28,140.97,23.8
2023-04-21 00-40-05-940776,-90,-110,1548,1548,-90.132,-110.005,-0.35,1.11,-9.74,-6.2,-2.3,141.0,23.8
2023-04-21 00-40-06-055661,-90,-110,1548,1548,-90.22,-110.005,-0.38,1.12,-9.72,-6.2,-2.29,141.0,23.8
2023-04-21 00-40-06-162299,-90,-110,1548,1548,-90.132,-110.005,-0.35,1.08,-9.65,-6.21,-2.29,140.98,23.79
2023-04-21 00-40-06-278637,-90,-110,1548,1548,-90.132,-110.005,-0.38,1.07,-9.78,-6.21,-2.29,140.98,23.79
2023-04-21 00-40-06-390560,-90,-110,1548,1548,-90.132,-110.005,-0.35,1.1,-9.69,-6.2,-2.3,141.0,23.8
2023-04-21 00-40-06-505673,-90,-110,1548,1548,-90.132,-110.093,-0.33,1.14,-9.72,-6.2,-2.3,141.01,23.8
2023-04-21 00-40-06-634716,-90,-110,1548,1548,-90.132,-110.093,-0.34,1.09,-9.73,-6.19,-2.3,141.02,23.81
2023-04-21 00-40-06-773999,-90,-110,1548,1548,-90.132,-110.005,-0.33,1.08,-9.75,-6.18,-2.3,141.04,23.82
2023-04-21 00-40-06-883099,-90,-110,1548,1548,-90.132,-110.093,-0.36,1.17,-9.71,-6.19,-2.31,141.0,23.81
2023-04-21 00-40-07-003733,-90,-110,1548,1548,-90.22,-110.005,-0.33,1.04,-9.69,-6.19,-2.31,140.99,23.81
2023-04-21 00-40-07-126682,-90,-110,1548,1548,-90.132,-110.005,-0.36,1.03,-9.75,-6.17,-2.32,141.01,23.83
2023-04-21 00-40-07-256012,-90,-110,1548,1548,-90.132,-110.005,-0.36,1.13,-9.66,-6.18,-2.32,141.0,23.82
2023-04-21 00-40-07-365396,-90,-110,1548,1548,-90.132,-110.005,-0.35,1.1,-9.74,-6.18,-2.32,141.02,23.82
2023-04-21 00-40-07-483317,-90,-110,1548,1548,-90.132,-110.093,-0.36,1.11,-9.67,-6.19,-2.31,141.0,23.81
2023-04-21 00-40-07-602200,-90,-110,1548,1548,-90.132,-110.005,-0.33,0.97,-9.74,-6.19,-2.31,140.99,23.81
2023-04-21 00-40-07-724471,-90,-110,1548,1548,-90.132,-110.093,-0.35,1.1,-9.74,-6.17,-2.3,141.0,23.83
2023-04-21 00-40-07-843559,-90,-110,1548,1548,-90.132,-110.005,-0.34,1.13,-9.65,-6.18,-2.3,140.98,23.82
2023-04-21 00-40-07-966797,-90,-110,1548,1548,-90.132,-110.093,-0.37,0.97,-9.78,-6.17,-2.29,140.97,23.83
2023-04-21 00-40-08-092862,-90,-110,1548,1548,-90.132,-110.005,-0.36,1.1,-9.64,-6.19,-2.29,140.93,23.81
2023-04-21 00-40-08-219638,-90,-110,1548,1548,-90.132,-110.005,-0.37,1.13,-9.71,-6.17,-2.29,140.95,23.83
2023-04-21 00-40-08-350363,-90,-110,1548,1548,-90.132,-110.005,-0.35,1.04,-9.71,-6.18,-2.29,140.94,23.82
2023-04-21 00-40-08-479968,-90,-110,1548,1548,-90.132,-110.005,-0.34,1.03,-9.74,-6.18,-2.3,140.94,23.82
2023-04-21 00-40-08-595989,-90,-110,1548,1548,-90.132,-110.005,-0.38,1.02,-9.73,-6.18,-2.3,140.94,23.82
2023-04-21 00-40-08-716433,-90,-110,1548,1548,-90.132,-110.005,-0.35,1.03,-9.67,-6.2,-2.3,140.91,23.8
2023-04-21 00-40-08-840865,-90,-110,1548,1548,-90.132,-110.005,-0.37,1.0,-9.66,-6.22,-2.29,140.88,23.78
2023-04-21 00-40-08-966406,-90,-110,1548,1548,-90.132,-110.005,-0.36,1.11,-9.66,-6.2,-2.29,140.9,23.8
2023-04-21 00-40-09-088266,-90,-110,1548,1548,-90.132,-110.005,-0.38,1.03,-9.66,-6.23,-2.3,140.87,23.77
2023-04-21 00-40-09-215425,-90,-110,1548,1548,-90.132,-110.005,-0.32,1.02,-9.72,-6.21,-2.3,140.89,23.79
2023-04-21 00-40-09-334634,-90,-110,1548,1548,-90.132,-110.005,-0.36,1.1,-9.69,-6.22,-2.3,140.88,23.78
2023-04-21 00-40-09-455324,-90,-110,1548,1548,-90.132,-110.005,-0.33,0.95,-9.69,-6.23,-2.3,140.85,23.77
2023-04-21 00-40-09-585407,-90,-110,1548,1548,-90.132,-110.005,-0.37,1.07,-9.73,-6.23,-2.3,140.87,23.77
2023-04-21 00-40-09-713833,-90,-110,1548,1548,-90.132,-110.093,-0.37,1.01,-9.72,-6.24,-2.29,140.87,23.759999999999998
2023-04-21 00-40-09-821547,-90,-110,1548,1548,-90.132,-110.005,-0.37,1.21,-9.65,-6.22,-2.29,140.88,23.78
2023-04-21 00-40-09-941540,-90,-110,1548,1548,-90.132,-110.005,-0.39,1.04,-9.69,-6.21,-2.3,140.88,23.79
2023-04-21 00-40-10-062356,-90,-110,1548,1548,-90.132,-110.005,-0.38,1.02,-9.72,-6.21,-2.3,140.91,23.79
2023-04-21 00-40-10-177990,-90,-110,1548,1548,-90.132,-110.005,-0.37,0.97,-9.77,-6.21,-2.3,140.9,23.79
2023-04-21 00-40-10-301262,-90,-110,1548,1548,-90.132,-110.005,-0.36,1.04,-9.67,-6.22,-2.3,140.89,23.78
2023-04-21 00-40-10-436431,-90,-110,1548,1548,-90.132,-110.093,-0.35,1.08,-9.8,-6.21,-2.3,140.92,23.79
2023-04-21 00-40-10-554901,-90,-110,1548,1548,-90.132,-110.005,-0.37,1.02,-9.73,-6.21,-2.3,140.94,23.79
2023-04-21 00-40-10-672265,-90,-110,1548,1548,-90.132,-110.093,-0.38,1.06,-9.72,-6.21,-2.3,140.95,23.79
2023-04-21 00-40-10-799454,-90,-110,1548,1548,-90.132,-110.005,-0.38,1.24,-9.71,-6.18,-2.3,140.98,23.82
2023-04-21 00-40-10-922349,-90,-110,1548,1548,-90.132,-110.093,-0.36,1.2,-9.69,-6.17,-2.31,140.99,23.83
2023-04-21 00-40-11-038271,-90,-110,1548,1548,-90.132,-110.005,-0.36,1.04,-9.7,-6.18,-2.32,140.96,23.82
2023-04-21 00-40-11-165260,-90,-110,1548,1548,-90.132,-110.005,-0.38,1.0,-9.68,-6.2,-2.32,140.93,23.8
2023-04-21 00-40-11-291597,-90,-110,1548,1548,-90.132,-110.005,-0.38,1.1,-9.67,-6.2,-2.32,140.94,23.8
2023-04-21 00-40-11-403555,-90,-110,1548,1548,-90.132,-110.005,-0.36,0.91,-9.72,-6.18,-2.32,140.96,23.82
2023-04-21 00-40-11-533328,-90,-110,1548,1548,-90.132,-110.005,-0.34,1.15,-9.72,-6.18,-2.31,140.95,23.82
2023-04-21 00-40-11-667722,-90,-110,1548,1548,-90.132,-110.005,-0.35,1.0,-9.73,-6.18,-2.31,140.95,23.82
2023-04-21 00-40-11-773660,-90,-110,1548,1548,-90.132,-110.005,-0.36,1.1,-9.72,-6.17,-2.31,140.96,23.83
2023-04-21 00-40-11-892347,-90,-110,1548,1548,-90.132,-110.005,-0.38,1.07,-9.65,-6.18,-2.31,140.94,23.82
2023-04-21 00-40-12-018685,-90,-110,1548,1548,-90.22,-110.005,-0.34,1.09,-9.74,-6.17,-2.31,140.95,23.83
2023-04-21 00-40-12-139812,-90,-110,1548,1548,-90.132,-110.005,-0.35,1.1,-9.67,-6.17,-2.32,140.94,23.83
2023-04-21 00-40-12-258522,-90,-110,1548,1548,-90.132,-110.005,-0.37,1.0,-9.75,-6.16,-2.32,140.96,23.84
2023-04-21 00-40-12-383599,-90,-110,1548,1548,-90.132,-110.093,-0.37,1.07,-9.69,-6.16,-2.32,140.93,23.84
2023-04-21 00-40-12-510527,-90,-110,1548,1548,-90.132,-110.005,-0.36,1.03,-9.74,-6.17,-2.32,140.93,23.83
2023-04-21 00-40-12-630227,-90,-110,1548,1548,-90.132,-110.005,-0.37,1.12,-9.73,-6.15,-2.32,140.95,23.85
2023-04-21 00-40-12-755604,-90,-110,1548,1548,-90.132,-110.005,-0.34,1.03,-9.77,-6.16,-2.31,140.97,23.84
2023-04-21 00-40-12-885370,-90,-110,1548,1548,-90.132,-110.005,-0.32,1.02,-9.71,-6.15,-2.32,140.97,23.85
2023-04-21 00-40-12-989414,-90,-110,1548,1548,-90.132,-110.005,-0.36,1.08,-9.75,-6.16,-2.31,140.98,23.84
2023-04-21 00-40-13-109751,-90,-110,1548,1548,-90.132,-110.005,-0.36,1.08,-9.72,-6.17,-2.3,140.97,23.83
2023-04-21 00-40-13-231786,-90,-110,1548,1548,-90.132,-110.005,-0.35,1.15,-9.73,-6.15,-2.31,141.01,23.85
2023-04-21 00-40-13-364441,-90,-110,1548,1548,-90.132,-110.005,-0.36,1.02,-9.75,-6.16,-2.3,141.0,23.84
2023-04-21 00-40-13-476984,-90,-110,1548,1548,-90.132,-110.005,-0.36,1.13,-9.67,-6.17,-2.3,141.01,23.83
2023-04-21 00-40-13-601117,-90,-110,1548,1548,-90.132,-110.005,-0.36,0.99,-9.69,-6.17,-2.3,141.0,23.83
2023-04-21 00-40-13-711941,-90,-110,1548,1548,-90.22,-110.005,-0.35,0.91,-9.73,-6.18,-2.3,140.98,23.82
2023-04-21 00-40-13-841688,-90,-110,1548,1548,-90.132,-110.005,-0.34,1.04,-9.73,-6.19,-2.3,140.97,23.81
2023-04-21 00-40-13-958912,-90,-110,1548,1548,-90.132,-110.005,-0.33,1.13,-9.72,-6.18,-2.31,140.98,23.82
2023-04-21 00-40-14-076228,-90,-110,1548,1548,-90.132,-110.005,-0.39,1.04,-9.71,-6.18,-2.3,140.96,23.82
2023-04-21 00-40-14-181310,-90,-110,1548,1548,-90.132,-110.005,-0.34,1.07,-9.71,-6.17,-2.29,140.96,23.83
2023-04-21 00-40-14-299351,-90,-110,1548,1548,-90.132,-110.005,-0.37,1.1,-9.7,-6.18,-2.29,140.94,23.82
2023-04-21 00-40-14-426524,-90,-110,1548,1548,-90.132,-110.005,-0.33,1.13,-9.68,-6.16,-2.29,140.98,23.84
2023-04-21 00-40-14-551599,-90,-110,1548,1548,-90.132,-110.005,-0.35,0.86,-9.75,-6.17,-2.29,140.97,23.83
2023-04-21 00-40-14-671653,-90,-110,1548,1548,-90.132,-110.005,-0.36,1.1,-9.72,-6.17,-2.29,140.97,23.83
2023-04-21 00-40-14-801481,-90,-110,1548,1548,-90.132,-110.005,-0.36,1.09,-9.76,-6.16,-2.29,140.98,23.84
2023-04-21 00-40-14-919083,-90,-110,1548,1548,-90.132,-110.005,-0.33,0.91,-9.77,-6.17,-2.29,140.95,23.83
2023-04-21 00-40-15-048723,-90,-110,1548,1548,-90.132,-110.005,-0.37,1.1,-9.68,-6.17,-2.28,140.93,23.83
2023-04-21 00-40-15-166608,-90,-110,1548,1548,-90.132,-110.005,-0.38,1.0,-9.71,-6.19,-2.27,140.9,23.81
2023-04-21 00-40-15-293858,-90,-110,1548,1548,-90.132,-110.093,-0.39,1.16,-9.66,-6.19,-2.28,140.9,23.81
2023-04-21 00-40-15-428842,-90,-110,1548,1548,-90.132,-110.005,-0.36,1.01,-9.75,-6.19,-2.28,140.93,23.81
2023-04-21 00-40-15-554108,-90,-110,1548,1548,-90.132,-110.005,-0.34,0.97,-9.72,-6.2,-2.28,140.9,23.8
2023-04-21 00-40-15-684000,-90,-110,1548,1548,-90.132,-110.005,-0.37,0.96,-9.75,-6.21,-2.28,140.89,23.79
2023-04-21 00-40-15-815748,-90,-110,1548,1548,-90.132,-110.005,-0.37,0.96,-9.73,-6.19,-2.27,140.92,23.81
2023-04-21 00-40-15-944118,-90,-110,1548,1548,-90.132,-110.005,-0.36,1.14,-9.68,-6.21,-2.27,140.91,23.79
2023-04-21 00-40-16-071746,-90,-110,1548,1548,-90.132,-110.093,-0.37,0.91,-9.76,-6.21,-2.27,140.91,23.79
2023-04-21 00-40-16-192271,-90,-110,1548,1548,-90.132,-110.093,-0.32,1.12,-9.71,-6.21,-2.27,140.91,23.79
2023-04-21 00-40-16-319518,-90,-110,1548,1548,-90.132,-110.005,-0.37,1.13,-9.68,-6.22,-2.27,140.89,23.78
2023-04-21 00-40-16-445920,-90,-110,1548,1548,-90.132,-110.005,-0.38,1.1,-9.7,-6.21,-2.27,140.92,23.79
2023-04-21 00-40-16-559505,-90,-110,1548,1548,-90.132,-110.093,-0.35,1.13,-9.74,-6.21,-2.27,140.94,23.79
2023-04-21 00-40-16-676143,-90,-110,1548,1548,-90.132,-110.005,-0.35,0.94,-9.76,-6.21,-2.28,140.94,23.79
2023-04-21 00-40-16-807326,-90,-110,1548,1548,-90.132,-110.005,-0.38,1.11,-9.72,-6.2,-2.28,140.95,23.8
2023-04-21 00-40-16-922081,-90,-110,1548,1548,-90.132,-110.093,-0.35,0.96,-9.74,-6.19,-2.28,140.95,23.81
2023-04-21 00-40-17-035366,-90,-110,1548,1548,-90.132,-110.005,-0.36,1.13,-9.65,-6.2,-2.28,140.93,23.8
2023-04-21 00-40-17-162007,-90,-110,1548,1548,-90.132,-110.005,-0.35,0.98,-9.71,-6.17,-2.29,140.96,23.83
2023-04-21 00-40-17-278430,-90,-110,1548,1548,-90.132,-110.005,-0.38,1.06,-9.71,-6.15,-2.27,140.98,23.85
2023-04-21 00-40-17-397704,-90,-110,1548,1548,-90.22,-110.005,-0.33,1.01,-9.7,-6.14,-2.26,140.95,23.86
2023-04-21 00-40-17-523622,-90,-110,1548,1548,-90.132,-110.005,-0.38,1.03,-9.72,-6.13,-2.26,140.94,23.87
2023-04-21 00-40-17-643737,-90,-110,1548,1548,-90.22,-110.005,-0.37,1.04,-9.74,-6.13,-2.27,140.96,23.87
2023-04-21 00-40-17-756388,-90,-110,1548,1548,-90.132,-110.005,-0.33,1.01,-9.77,-6.13,-2.28,140.96,23.87
2023-04-21 00-40-17-885718,-90,-110,1548,1548,-90.132,-110.005,-0.36,1.14,-9.71,-6.11,-2.28,140.98,23.89
2023-04-21 00-40-18-014548,-90,-110,1548,1548,-90.132,-110.005,-0.36,1.14,-9.69,-6.11,-2.28,140.98,23.89
2023-04-21 00-40-18-129119,-90,-110,1548,1548,-90.132,-110.005,-0.37,1.04,-9.76,-6.11,-2.28,140.99,23.89
2023-04-21 00-40-18-253631,-90,-110,1548,1548,-90.132,-110.093,-0.38,0.99,-9.78,-6.11,-2.27,141.02,23.89
2023-04-21 00-40-18-355423,-90,-110,1548,1548,-90.132,-110.093,-0.33,1.14,-9.68,-6.11,-2.27,141.02,23.89
2023-04-21 00-40-18-481987,-90,-110,1548,1548,-90.132,-110.005,-0.39,1.06,-9.75,-6.09,-2.28,141.04,23.91
2023-04-21 00-40-18-611950,-90,-110,1548,1548,-90.132,-110.005,-0.34,0.98,-9.78,-6.08,-2.28,141.06,23.92
2023-04-21 00-40-18-730405,-90,-110,1548,1548,-90.132,-110.093,-0.35,1.07,-9.71,-6.08,-2.29,141.05,23.92
2023-04-21 00-40-18-849610,-90,-110,1548,1548,-90.132,-110.005,-0.37,1.04,-9.74,-6.08,-2.29,141.05,23.92
2023-04-21 00-40-18-983816,-90,-110,1548,1548,-90.132,-110.005,-0.36,1.0,-9.7,-6.09,-2.29,141.03,23.91
2023-04-21 00-40-19-111999,-90,-110,1548,1548,-90.132,-110.005,-0.34,0.94,-9.77,-6.08,-2.3,141.03,23.92
2023-04-21 00-40-19-224396,-90,-110,1548,1548,-90.132,-110.005,-0.33,0.98,-9.74,-6.09,-2.31,141.01,23.91
2023-04-21 00-40-19-346766,-90,-110,1548,1548,-90.132,-110.005,-0.33,0.94,-9.75,-6.11,-2.31,141.0,23.89
2023-04-21 00-40-19-473821,-90,-110,1548,1548,-90.132,-110.005,-0.35,1.13,-9.71,-6.12,-2.31,140.98,23.88
2023-04-21 00-40-19-593793,-90,-110,1548,1548,-90.132,-110.005,-0.36,1.17,-9.77,-6.12,-2.3,141.0,23.88
2023-04-21 00-40-19-723425,-90,-110,1548,1548,-90.132,-110.005,-0.36,1.04,-9.68,-6.14,-2.3,140.96,23.86
2023-04-21 00-40-19-843871,-90,-110,1548,1548,-90.132,-110.005,-0.35,1.07,-9.74,-6.13,-2.3,140.98,23.87
2023-04-21 00-40-19-973633,-90,-110,1548,1548,-90.132,-110.005,-0.37,1.15,-9.66,-6.15,-2.3,140.97,23.85
2023-04-21 00-40-20-085326,-90,-110,1548,1548,-90.132,-110.093,-0.38,1.08,-9.68,-6.14,-2.3,140.99,23.86
2023-04-21 00-40-20-203335,-90,-110,1548,1548,-90.132,-110.005,-0.34,0.94,-9.76,-6.13,-2.29,141.01,23.87
2023-04-21 00-40-20-330292,-90,-110,1548,1548,-90.132,-110.005,-0.39,1.17,-9.63,-6.13,-2.29,141.0,23.87
2023-04-21 00-40-20-453952,-90,-110,1548,1548,-90.132,-110.005,-0.36,1.02,-9.63,-6.15,-2.3,140.98,23.85
2023-04-21 00-40-20-566129,-90,-110,1548,1548,-90.22,-110.093,-0.37,1.03,-9.76,-6.13,-2.3,140.99,23.87
2023-04-21 00-40-20-685842,-90,-110,1548,1548,-90.132,-110.005,-0.33,1.0,-9.68,-6.13,-2.29,140.99,23.87
2023-04-21 00-40-20-808676,-90,-110,1548,1548,-90.132,-110.005,-0.36,0.99,-9.75,-6.14,-2.29,141.01,23.86
2023-04-21 00-40-20-937156,-90,-110,1548,1548,-90.132,-110.005,-0.36,1.09,-9.73,-6.15,-2.3,141.0,23.85
2023-04-21 00-40-21-060842,-90,-110,1548,1548,-90.132,-110.005,-0.34,0.89,-9.78,-6.14,-2.3,141.0,23.86
2023-04-21 00-40-21-180007,-90,-110,1548,1548,-90.132,-110.093,-0.36,1.05,-9.73,-6.15,-2.29,141.0,23.85
2023-04-21 00-40-21-303360,-90,-110,1548,1548,-90.132,-110.005,-0.37,1.02,-9.74,-6.15,-2.29,141.01,23.85
2023-04-21 00-40-21-428100,-90,-110,1548,1548,-90.132,-110.005,-0.35,1.13,-9.67,-6.16,-2.29,141.0,23.84
2023-04-21 00-40-21-547582,-90,-110,1548,1548,-90.132,-110.005,-0.35,0.96,-9.75,-6.17,-2.29,140.97,23.83
2023-04-21 00-40-21-678406,-90,-110,1548,1548,-90.22,-110.005,-0.39,1.11,-9.69,-6.17,-2.29,140.96,23.83
2023-04-21 00-40-21-804916,-90,-110,1548,1548,-90.132,-110.093,-0.35,0.99,-9.7,-6.17,-2.28,140.95,23.83
2023-04-21 00-40-21-926764,-90,-110,1548,1548,-90.132,-110.005,-0.35,1.09,-9.72,-6.17,-2.28,140.95,23.83
2023-04-21 00-40-22-045459,-90,-110,1548,1548,-90.132,-110.005,-0.35,1.06,-9.7,-6.18,-2.29,140.96,23.82
2023-04-21 00-40-22-172577,-90,-110,1548,1548,-90.132,-110.005,-0.36,1.0,-9.74,-6.17,-2.28,140.98,23.83
2023-04-21 00-40-22-294913,-90,-110,1548,1548,-90.132,-110.005,-0.38,1.17,-9.7,-6.17,-2.28,140.99,23.83
2023-04-21 00-40-22-426848,-90,-110,1548,1548,-90.132,-110.005,-0.35,0.93,-9.73,-6.17,-2.28,140.98,23.83
2023-04-21 00-40-22-543249,-90,-110,1548,1548,-90.132,-110.005,-0.32,0.92,-9.74,-6.17,-2.27,140.96,23.83
2023-04-21 00-40-22-664099,-90,-110,1548,1548,-90.132,-110.093,-0.38,1.09,-9.65,-6.17,-2.27,140.96,23.83
2023-04-21 00-40-22-789469,-90,-110,1548,1548,-90.132,-110.005,-0.37,0.96,-9.73,-6.17,-2.28,140.95,23.83
2023-04-21 00-40-22-920152,-90,-110,1548,1548,-90.132,-110.005,-0.37,1.07,-9.69,-6.16,-2.28,140.98,23.84
2023-04-21 00-40-23-050428,-90,-110,1548,1548,-90.22,-110.005,-0.36,1.11,-9.67,-6.16,-2.27,140.96,23.84
2023-04-21 00-40-23-173898,-90,-110,1548,1548,-90.132,-110.005,-0.34,0.94,-9.73,-6.15,-2.27,140.99,23.85
2023-04-21 00-40-23-293453,-90,-110,1548,1548,-90.132,-110.005,-0.36,1.01,-9.71,-6.16,-2.27,140.98,23.84
2023-04-21 00-40-23-419230,-90,-110,1548,1548,-90.132,-110.005,-0.37,1.04,-9.74,-6.14,-2.28,140.98,23.86
2023-04-21 00-40-23-548658,-90,-110,1548,1548,-90.132,-110.005,-0.34,1.1,-9.72,-6.13,-2.28,141.01,23.87
2023-04-21 00-40-23-670016,-90,-110,1548,1548,-90.132,-110.093,-0.33,0.92,-9.74,-6.14,-2.27,140.99,23.86
2023-04-21 00-40-23-789197,-90,-110,1548,1548,-90.132,-110.005,-0.34,1.03,-9.7,-6.13,-2.27,141.01,23.87
2023-04-21 00-40-23-917748,-90,-110,1548,1548,-90.132,-110.005,-0.34,0.97,-9.73,-6.13,-2.27,141.0,23.87
2023-04-21 00-40-24-040737,-90,-110,1548,1548,-90.132,-110.005,-0.35,1.17,-9.69,-6.13,-2.26,141.02,23.87
2023-04-21 00-40-24-144362,-90,-110,1548,1548,-90.132,-110.093,-0.35,1.1,-9.75,-6.11,-2.25,141.05,23.89
2023-04-21 00-40-24-275276,-90,-110,1548,1548,-90.132,-110.005,-0.34,1.06,-9.74,-6.1,-2.25,141.07,23.9
2023-04-21 00-40-24-381622,-90,-110,1548,1548,-90.132,-110.005,-0.33,1.2,-9.73,-6.09,-2.25,141.09,23.91
2023-04-21 00-40-24-503469,-90,-110,1548,1548,-90.132,-110.093,-0.35,1.17,-9.69,-6.09,-2.26,141.1,23.91
2023-04-21 00-40-24-625841,-90,-110,1548,1548,-90.132,-110.005,-0.34,0.92,-9.75,-6.09,-2.26,141.08,23.91
2023-04-21 00-40-24-730928,-90,-110,1548,1548,-90.132,-110.005,-0.35,1.12,-9.77,-6.08,-2.26,141.1,23.92
2023-04-21 00-40-24-837791,-90,-110,1548,1548,-90.132,-110.005,-0.36,0.93,-9.76,-6.08,-2.24,141.1,23.92
2023-04-21 00-40-24-967005,-90,-110,1548,1548,-90.132,-110.005,-0.32,1.02,-9.76,-6.08,-2.25,141.1,23.92
2023-04-21 00-40-25-075999,-90,-110,1548,1548,-90.132,-110.005,-0.35,1.16,-9.72,-6.09,-2.25,141.1,23.91
2023-04-21 00-40-25-201850,-90,-110,1548,1548,-90.132,-110.005,-0.33,0.87,-9.77,-6.09,-2.26,141.1,23.91
2023-04-21 00-40-25-320286,-90,-110,1548,1548,-90.132,-110.093,-0.34,1.15,-9.72,-6.09,-2.25,141.1,23.91
2023-04-21 00-40-25-421658,-90,-110,1548,1548,-90.132,-110.005,-0.35,0.94,-9.71,-6.08,-2.25,141.1,23.92
2023-04-21 00-40-25-539948,-90,-110,1548,1548,-90.132,-110.093,-0.36,1.08,-9.73,-6.09,-2.25,141.09,23.91
2023-04-21 00-40-25-645271,-90,-110,1548,1548,-90.132,-110.005,-0.33,1.04,-9.74,-6.07,-2.25,141.1,23.93
2023-04-21 00-40-25-767592,-90,-110,1548,1548,-90.132,-110.005,-0.35,0.99,-9.7,-6.07,-2.24,141.08,23.93
2023-04-21 00-40-25-884244,-90,-110,1548,1548,-90.132,-110.093,-0.36,1.09,-9.7,-6.09,-2.23,141.06,23.91
2023-04-21 00-40-26-005241,-90,-110,1548,1548,-90.132,-110.005,-0.4,1.13,-9.7,-6.09,-2.23,141.07,23.91
2023-04-21 00-40-26-110138,-90,-110,1548,1548,-90.132,-110.005,-0.34,0.97,-9.74,-6.1,-2.23,141.06,23.9
2023-04-21 00-40-26-228273,-90,-110,1548,1548,-90.132,-110.093,-0.37,0.93,-9.75,-6.09,-2.23,141.07,23.91
2023-04-21 00-40-26-354243,-90,-110,1548,1548,-90.132,-110.005,-0.34,0.94,-9.7,-6.12,-2.24,141.04,23.88
2023-04-21 00-40-26-489415,-90,-110,1548,1548,-90.132,-110.005,-0.34,0.98,-9.68,-6.14,-2.26,141.03,23.86
2023-04-21 00-40-26-605378,-90,-110,1548,1548,-90.132,-110.005,-0.37,1.18,-9.7,-6.14,-2.26,141.03,23.86
2023-04-21 00-40-26-730246,-90,-110,1548,1548,-90.132,-110.005,-0.37,0.98,-9.69,-6.15,-2.27,141.02,23.85
2023-04-21 00-40-26-846239,-90,-110,1548,1548,-90.044,-110.005,-0.34,0.91,-9.75,-6.14,-2.27,141.02,23.86
2023-04-21 00-40-26-973542,-90,-110,1548,1548,-90.132,-110.005,-0.37,1.17,-9.69,-6.13,-2.27,141.03,23.87
2023-04-21 00-40-27-084302,-90,-110,1548,1548,-90.132,-110.005,-0.36,1.03,-9.73,-6.15,-2.28,141.01,23.85
2023-04-21 00-40-27-205610,-90,-110,1548,1548,-90.132,-110.005,-0.34,0.99,-9.77,-6.14,-2.28,141.02,23.86
2023-04-21 00-40-27-325182,-90,-110,1548,1548,-90.132,-110.093,-0.36,1.02,-9.71,-6.14,-2.29,141.01,23.86
2023-04-21 00-40-27-435918,-90,-110,1548,1548,-90.132,-110.005,-0.39,1.11,-9.73,-6.15,-2.29,141.02,23.85
2023-04-21 00-40-27-561723,-90,-110,1548,1548,-90.132,-110.005,-0.36,1.0,-9.71,-6.17,-2.29,140.98,23.83
2023-04-21 00-40-27-686194,-90,-110,1548,1548,-90.132,-110.093,-0.36,1.0,-9.65,-6.19,-2.29,140.95,23.81
2023-04-21 00-40-27-800630,-90,-110,1548,1548,-90.132,-110.005,-0.37,1.05,-9.68,-6.18,-2.29,140.94,23.82
2023-04-21 00-40-27-931579,-90,-110,1548,1548,-90.132,-110.005,-0.38,0.97,-9.74,-6.18,-2.28,140.97,23.82
2023-04-21 00-40-28-058289,-90,-110,1548,1548,-90.132,-110.005,-0.36,1.09,-9.71,-6.2,-2.29,140.96,23.8
2023-04-21 00-40-28-175270,-90,-110,1548,1548,-90.132,-110.005,-0.36,1.07,-9.73,-6.19,-2.29,140.98,23.81
2023-04-21 00-40-28-285531,-90,-110,1548,1548,-90.132,-110.005,-0.35,1.04,-9.72,-6.19,-2.3,140.97,23.81
2023-04-21 00-40-28-396738,-90,-110,1548,1548,-90.132,-110.005,-0.36,0.94,-9.76,-6.19,-2.29,140.97,23.81
2023-04-21 00-40-28-506699,-90,-110,1548,1548,-90.132,-110.005,-0.36,0.99,-9.76,-6.19,-2.3,140.98,23.81
2023-04-21 00-40-28-623887,-90,-110,1548,1548,-90.132,-110.005,-0.36,0.96,-9.78,-6.17,-2.29,141.0,23.83
2023-04-21 00-40-28-753852,-90,-110,1548,1548,-90.132,-110.005,-0.37,0.91,-9.72,-6.18,-2.3,140.96,23.82
2023-04-21 00-40-28-885354,-90,-110,1548,1548,-90.132,-110.005,-0.37,0.97,-9.72,-6.18,-2.29,140.97,23.82
2023-04-21 00-40-29-008774,-90,-110,1548,1548,-90.132,-110.005,-0.37,0.95,-9.74,-6.18,-2.3,140.97,23.82
2023-04-21 00-40-29-123614,-90,-110,1548,1548,-90.132,-110.005,-0.37,1.09,-9.69,-6.2,-2.29,140.95,23.8
2023-04-21 00-40-29-249978,-90,-110,1548,1548,-90.132,-110.005,-0.36,1.05,-9.74,-6.2,-2.29,140.95,23.8
2023-04-21 00-40-29-367210,-90,-110,1548,1548,-90.132,-110.005,-0.36,1.11,-9.71,-6.2,-2.29,140.95,23.8
2023-04-21 00-40-29-496312,-90,-110,1548,1548,-90.132,-110.005,-0.38,1.19,-9.67,-6.19,-2.29,140.96,23.81
2023-04-21 00-40-29-625517,-90,-110,1548,1548,-90.132,-110.093,-0.35,0.9,-9.73,-6.18,-2.3,140.96,23.82
2023-04-21 00-40-29-745419,-90,-110,1548,1548,-90.132,-110.005,-0.35,1.12,-9.67,-6.2,-2.28,140.95,23.8
2023-04-21 00-40-29-887038,-90,-110,1548,1548,-90.132,-110.005,-0.38,1.01,-9.77,-6.17,-2.29,140.99,23.83
2023-04-21 00-40-30-013159,-90,-110,1548,1548,-90.132,-110.005,-0.38,1.0,-9.74,-6.19,-2.28,140.96,23.81
2023-04-21 00-40-30-124148,-90,-110,1548,1548,-90.132,-110.093,-0.37,1.06,-9.72,-6.2,-2.28,140.94,23.8
2023-04-21 00-40-30-255603,-90,-110,1548,1548,-90.132,-110.005,-0.37,0.94,-9.7,-6.2,-2.27,140.94,23.8
2023-04-21 00-40-30-387270,-90,-110,1548,1548,-90.132,-110.005,-0.36,1.0,-9.66,-6.21,-2.27,140.92,23.79
2023-04-21 00-40-30-494538,-90,-110,1548,1548,-90.132,-110.005,-0.36,1.1,-9.69,-6.22,-2.28,140.9,23.78
2023-04-21 00-40-30-621285,-90,-110,1548,1548,-90.132,-110.005,-0.36,1.0,-9.73,-6.2,-2.28,140.92,23.8
2023-04-21 00-40-30-733514,-90,-110,1548,1548,-90.132,-110.005,-0.37,1.04,-9.71,-6.21,-2.28,140.9,23.79
2023-04-21 00-40-30-847384,-90,-110,1548,1548,-90.132,-110.005,-0.36,0.85,-9.76,-6.21,-2.27,140.88,23.79
2023-04-21 00-40-30-980476,-90,-110,1548,1548,-90.132,-110.005,-0.38,0.99,-9.77,-6.2,-2.28,140.91,23.8
2023-04-21 00-40-31-095759,-90,-110,1548,1548,-90.132,-110.005,-0.33,0.97,-9.74,-6.19,-2.28,140.91,23.81
2023-04-21 00-40-31-220779,-90,-110,1548,1548,-90.132,-110.093,-0.33,1.06,-9.72,-6.19,-2.28,140.91,23.81
2023-04-21 00-40-31-341606,-90,-110,1548,1548,-90.132,-110.005,-0.37,1.15,-9.75,-6.19,-2.28,140.9,23.81
2023-04-21 00-40-31-452491,-90,-110,1548,1548,-90.132,-110.005,-0.35,1.1,-9.72,-6.17,-2.28,140.92,23.83
2023-04-21 00-40-31-569169,-90,-110,1548,1548,-90.132,-110.005,-0.37,1.1,-9.73,-6.18,-2.28,140.9,23.82
2023-04-21 00-40-31-696851,-90,-110,1548,1548,-90.132,-110.005,-0.34,1.05,-9.77,-6.17,-2.28,140.91,23.83
2023-04-21 00-40-31-824911,-90,-110,1548,1548,-90.132,-110.005,-0.35,0.93,-9.73,-6.18,-2.28,140.92,23.82
2023-04-21 00-40-31-951184,-90,-110,1548,1548,-90.132,-110.005,-0.36,1.1,-9.68,-6.18,-2.28,140.91,23.82
2023-04-21 00-40-32-067213,-90,-110,1548,1548,-90.132,-110.005,-0.35,1.01,-9.78,-6.16,-2.27,140.92,23.84
2023-04-21 00-40-32-182630,-90,-110,1548,1548,-90.132,-110.005,-0.36,1.01,-9.73,-6.16,-2.28,140.92,23.84
2023-04-21 00-40-32-304920,-90,-110,1548,1548,-90.132,-110.093,-0.38,0.98,-9.76,-6.16,-2.27,140.91,23.84
2023-04-21 00-40-32-421907,-90,-110,1548,1548,-90.132,-110.005,-0.33,1.06,-9.71,-6.14,-2.27,140.92,23.86
2023-04-21 00-40-32-537271,-90,-110,1548,1548,-90.132,-110.005,-0.36,1.0,-9.75,-6.14,-2.27,140.9,23.86
2023-04-21 00-40-32-667475,-90,-110,1548,1548,-90.132,-110.005,-0.36,1.01,-9.75,-6.14,-2.26,140.9,23.86
2023-04-21 00-40-32-785483,-90,-110,1548,1548,-90.132,-110.005,-0.38,1.03,-9.69,-6.14,-2.25,140.88,23.86
2023-04-21 00-40-32-912241,-90,-110,1548,1548,-90.132,-110.005,-0.37,0.99,-9.74,-6.14,-2.25,140.86,23.86
2023-04-21 00-40-33-039710,-90,-110,1548,1548,-90.132,-110.005,-0.38,0.96,-9.77,-6.12,-2.25,140.88,23.88
2023-04-21 00-40-33-169271,-90,-110,1548,1548,-90.132,-110.005,-0.37,1.02,-9.72,-6.12,-2.24,140.88,23.88
2023-04-21 00-40-33-288969,-90,-110,1548,1548,-90.22,-110.005,-0.36,1.07,-9.72,-6.13,-2.24,140.85,23.87
2023-04-21 00-40-33-415675,-90,-110,1548,1548,-90.132,-110.005,-0.37,1.06,-9.71,-6.13,-2.23,140.89,23.87
2023-04-21 00-40-33-540375,-90,-110,1548,1548,-90.132,-110.005,-0.34,1.12,-9.73,-6.13,-2.22,140.89,23.87
2023-04-21 00-40-33-669954,-90,-110,1548,1548,-90.132,-110.093,-0.36,0.96,-9.73,-6.12,-2.23,140.9,23.88
2023-04-21 00-40-33-779023,-90,-110,1548,1548,-90.132,-110.005,-0.37,1.16,-9.71,-6.13,-2.23,140.88,23.87
2023-04-21 00-40-33-891207,-90,-110,1548,1548,-90.132,-110.093,-0.33,0.96,-9.7,-6.14,-2.23,140.88,23.86
2023-04-21 00-40-34-021421,-90,-110,1548,1548,-90.132,-110.093,-0.33,1.06,-9.73,-6.14,-2.23,140.88,23.86
2023-04-21 00-40-34-141062,-90,-110,1548,1548,-90.132,-110.093,-0.36,1.28,-9.67,-6.13,-2.24,140.89,23.87
2023-04-21 00-40-34-267656,-90,-110,1548,1548,-90.132,-110.005,-0.35,1.07,-9.73,-6.12,-2.25,140.92,23.88
2023-04-21 00-40-34-380757,-90,-110,1548,1548,-90.132,-110.005,-0.34,0.96,-9.71,-6.13,-2.25,140.89,23.87
2023-04-21 00-40-34-512599,-90,-110,1548,1548,-90.132,-110.005,-0.37,0.94,-9.74,-6.13,-2.25,140.87,23.87
2023-04-21 00-40-34-636223,-90,-110,1548,1548,-90.132,-110.005,-0.36,0.94,-9.74,-6.14,-2.24,140.87,23.86
2023-04-21 00-40-34-754855,-90,-110,1548,1548,-90.132,-110.093,-0.38,1.13,-9.68,-6.12,-2.24,140.88,23.88
2023-04-21 00-40-34-885559,-90,-110,1548,1548,-90.132,-110.005,-0.34,1.1,-9.74,-6.11,-2.24,140.91,23.89
2023-04-21 00-40-35-005570,-90,-110,1548,1548,-90.132,-110.005,-0.36,0.95,-9.78,-6.11,-2.23,140.9,23.89
2023-04-21 00-40-35-126114,-90,-110,1548,1548,-90.132,-110.005,-0.35,1.02,-9.75,-6.11,-2.23,140.93,23.89
2023-04-21 00-40-35-254798,-90,-110,1548,1548,-90.132,-110.005,-0.37,1.08,-9.71,-6.12,-2.23,140.93,23.88
2023-04-21 00-40-35-372591,-90,-110,1548,1548,-90.22,-110.005,-0.37,1.08,-9.66,-6.12,-2.23,140.94,23.88
2023-04-21 00-40-35-488335,-90,-110,1548,1548,-90.132,-110.005,-0.39,1.0,-9.76,-6.12,-2.22,140.94,23.88
2023-04-21 00-40-35-605334,-90,-110,1548,1548,-90.132,-110.005,-0.39,1.06,-9.68,-6.15,-2.22,140.9,23.85
2023-04-21 00-40-35-736950,-90,-110,1548,1548,-90.132,-110.005,-0.36,1.05,-9.73,-6.14,-2.21,140.9,23.86
2023-04-21 00-40-35-860563,-90,-110,1548,1548,-90.132,-110.005,-0.36,0.98,-9.77,-6.14,-2.22,140.9,23.86
2023-04-21 00-40-35-981780,-90,-110,1548,1548,-90.132,-110.005,-0.33,1.05,-9.78,-6.14,-2.22,140.93,23.86
2023-04-21 00-40-36-107881,-90,-110,1548,1548,-90.132,-110.005,-0.37,1.03,-9.66,-6.16,-2.23,140.91,23.84
2023-04-21 00-40-36-230925,-90,-110,1548,1548,-90.132,-110.005,-0.34,1.01,-9.78,-6.15,-2.23,140.94,23.85
2023-04-21 00-40-36-349295,-90,-110,1548,1548,-90.132,-110.005,-0.34,1.03,-9.74,-6.15,-2.24,140.91,23.85
2023-04-21 00-40-36-485856,-90,-110,1548,1548,-90.132,-110.005,-0.35,0.98,-9.71,-6.17,-2.24,140.89,23.83
2023-04-21 00-40-36-609222,-90,-110,1548,1548,-90.132,-110.005,-0.38,1.1,-9.72,-6.17,-2.24,140.9,23.83
2023-04-21 00-40-36-723357,-90,-110,1548,1548,-90.132,-110.005,-0.39,1.03,-9.69,-6.17,-2.24,140.9,23.83
2023-04-21 00-40-36-845784,-90,-110,1548,1548,-90.132,-110.005,-0.37,0.9,-9.77,-6.17,-2.23,140.91,23.83
2023-04-21 00-40-36-964630,-90,-110,1548,1548,-90.132,-110.005,-0.37,1.15,-9.65,-6.17,-2.24,140.9,23.83
2023-04-21 00-40-37-080365,-90,-110,1548,1548,-90.132,-110.005,-0.38,1.15,-9.67,-6.17,-2.24,140.91,23.83
2023-04-21 00-40-37-195705,-90,-110,1548,1548,-90.132,-110.005,-0.36,1.02,-9.68,-6.17,-2.24,140.9,23.83
2023-04-21 00-40-37-319028,-90,-110,1548,1548,-90.22,-110.005,-0.35,1.04,-9.73,-6.17,-2.24,140.91,23.83
2023-04-21 00-40-37-446876,-90,-110,1548,1548,-90.132,-110.005,-0.35,1.01,-9.7,-6.17,-2.24,140.89,23.83
2023-04-21 00-40-37-577017,-90,-110,1548,1548,-90.132,-110.005,-0.35,0.95,-9.78,-6.17,-2.25,140.92,23.83
2023-04-21 00-40-37-699462,-90,-110,1548,1548,-90.132,-110.005,-0.38,1.09,-9.74,-6.16,-2.25,140.94,23.84
2023-04-21 00-40-37-829304,-90,-110,1548,1548,-90.132,-110.005,-0.34,1.02,-9.71,-6.17,-2.27,140.93,23.83
2023-04-21 00-40-37-943718,-90,-110,1548,1548,-90.132,-110.005,-0.37,1.03,-9.73,-6.19,-2.26,140.9,23.81
2023-04-21 00-40-38-062473,-90,-110,1548,1548,-90.132,-110.005,-0.36,0.93,-9.68,-6.2,-2.25,140.87,23.8
2023-04-21 00-40-38-193879,-90,-110,1548,1548,-90.132,-110.005,-0.37,1.07,-9.7,-6.2,-2.25,140.86,23.8
2023-04-21 00-40-38-308606,-90,-110,1548,1548,-90.132,-110.093,-0.39,1.06,-9.73,-6.2,-2.24,140.86,23.8
2023-04-21 00-40-38-432272,-90,-110,1548,1548,-90.132,-110.005,-0.33,0.97,-9.76,-6.17,-2.23,140.89,23.83
2023-04-21 00-40-38-554877,-90,-110,1548,1548,-90.132,-110.005,-0.36,1.02,-9.71,-6.19,-2.24,140.89,23.81
2023-04-21 00-40-38-674891,-90,-110,1548,1548,-90.132,-110.005,-0.36,1.13,-9.74,-6.18,-2.24,140.9,23.82
2023-04-21 00-40-38-796711,-90,-110,1548,1548,-90.132,-110.005,-0.39,1.06,-9.72,-6.18,-2.24,140.89,23.82
2023-04-21 00-40-38-916804,-90,-110,1548,1548,-90.132,-110.005,-0.37,1.09,-9.69,-6.2,-2.23,140.88,23.8
2023-04-21 00-40-39-027795,-90,-110,1548,1548,-90.132,-110.005,-0.32,1.05,-9.72,-6.19,-2.23,140.91,23.81
2023-04-21 00-40-39-158650,-90,-110,1548,1548,-90.132,-110.093,-0.35,0.89,-9.8,-6.18,-2.23,140.92,23.82
2023-04-21 00-40-39-275097,-90,-110,1548,1548,-90.132,-110.005,-0.33,1.03,-9.76,-6.19,-2.23,140.92,23.81
2023-04-21 00-40-39-399092,-90,-110,1548,1548,-90.132,-110.005,-0.33,0.9,-9.76,-6.2,-2.23,140.89,23.8
2023-04-21 00-40-39-518285,-90,-110,1548,1548,-90.132,-110.093,-0.35,1.08,-9.74,-6.18,-2.23,140.91,23.82
2023-04-21 00-40-39-641604,-90,-110,1548,1548,-90.132,-110.005,-0.36,1.06,-9.7,-6.2,-2.23,140.92,23.8
2023-04-21 00-40-39-756785,-90,-110,1548,1548,-90.132,-110.005,-0.33,0.96,-9.77,-6.19,-2.23,140.95,23.81
