Timestamp_log,left_angle,right_angle,left_thrust,right_thrust,read_left_angle,read_right_angle,accel_x,accel_y,accel_z,roll,pitch,yaw,error
2023-04-21 01-09-40-671859,-90,-110,1580,1580,-89.868,-110.093,0.11,0.95,-9.73,-5.63,0.54,150.75,24.37
2023-04-21 01-09-40-751431,-90,-110,1580,1580,-89.868,-110.093,0.11,0.94,-9.73,-5.63,0.53,150.76,24.37
2023-04-21 01-09-40-842455,-90,-110,1580,1580,-89.868,-110.093,0.12,0.94,-9.73,-5.63,0.54,150.76,24.37
2023-04-21 01-09-40-943442,-90,-110,1580,1580,-89.868,-110.093,0.16,0.88,-9.86,-5.63,0.53,150.75,24.37
2023-04-21 01-09-41-037071,-90,-110,1580,1580,-89.868,-110.093,0.15,1.03,-10.32,-5.71,-0.3,150.89,24.29
2023-04-21 01-09-41-137354,-90,-110,1580,1580,-89.868,-110.093,-0.49,0.95,-10.16,-6.27,-5.03,151.38,23.73
2023-04-21 01-09-41-223880,-90,-110,1580,1580,-89.868,-110.093,-1.59,1.14,-9.58,-7.06,-10.75,151.81,22.94
2023-04-21 01-09-41-316338,-90,-110,1579,1579,-89.868,-110.005,-2.89,1.29,-9.02,-8.22,-18.15,152.08,21.78
2023-04-21 01-09-41-409731,-90,-110,1575,1575,-89.868,-110.093,-3.31,1.6,-9.14,-9.64,-21.64,151.75,20.36
2023-04-21 01-09-41-505458,-90,-110,1571,1571,-89.868,-110.005,-3.62,1.79,-8.78,-11.38,-23.13,151.28,18.619999999999997
2023-04-21 01-09-41-602384,-90,-110,1566,1566,-89.868,-110.005,-4.09,1.97,-8.54,-13.13,-25.43,150.6,16.869999999999997
2023-04-21 01-09-41-703653,-90,-110,1562,1562,-89.868,-110.005,-4.79,2.27,-8.01,-14.8,-27.94,149.64,15.2
2023-04-21 01-09-41-804704,-90,-110,1559,1559,-89.868,-110.005,-4.72,2.22,-8.04,-16.27,-29.22,148.14,13.73
2023-04-21 01-09-41-892916,-90,-110,1556,1556,-89.868,-110.005,-4.89,2.68,-7.79,-17.39,-29.79,146.43,12.61
2023-04-21 01-09-41-992111,-90,-110,1554,1554,-89.868,-110.005,-4.88,2.58,-7.76,-18.24,-29.61,143.96,11.760000000000002
2023-04-21 01-09-42-087668,-90,-110,1553,1553,-89.868,-110.005,-4.69,2.75,-8.05,-18.66,-28.57,141.33,11.34
2023-04-21 01-09-42-175549,-90,-110,1552,1552,-89.868,-110.005,-4.48,2.76,-8.12,-18.95,-27.07,138.34,11.05
2023-04-21 01-09-42-265927,-90,-110,1552,1552,-89.868,-110.005,-4.2,2.86,-8.39,-19.11,-25.67,135.98,10.89
2023-04-21 01-09-42-363397,-90,-110,1551,1551,-89.868,-110.005,-3.96,2.94,-8.55,-19.36,-24.27,133.36,10.64
2023-04-21 01-09-42-457007,-90,-110,1550,1550,-89.868,-110.005,-3.87,3.04,-8.51,-19.68,-23.61,131.37,10.32
2023-04-21 01-09-42-542320,-90,-110,1549,1549,-89.868,-110.005,-3.84,3.04,-8.51,-20.09,-23.39,129.6,9.91
2023-04-21 01-09-42-627416,-90,-110,1548,1548,-89.868,-110.005,-3.85,3.12,-8.45,-20.55,-23.56,128.0,9.45
2023-04-21 01-09-42-720994,-90,-110,1547,1547,-89.868,-110.093,-3.99,3.18,-8.21,-21.03,-23.96,126.45,8.969999999999999
2023-04-21 01-09-42-815188,-90,-110,1546,1546,-89.868,-110.093,-4.0,3.25,-8.23,-21.41,-24.14,124.76,8.59
2023-04-21 01-09-42-902947,-90,-110,1545,1545,-89.868,-110.005,-3.96,3.31,-8.24,-21.68,-24.03,123.0,8.32
2023-04-21 01-09-43-001671,-90,-110,1545,1545,-89.868,-110.005,-3.91,3.35,-8.31,-21.89,-23.7,121.08,8.11
2023-04-21 01-09-43-101152,-90,-110,1544,1544,-89.868,-110.005,-3.85,3.38,-8.29,-22.06,-23.39,119.29,7.940000000000001
2023-04-21 01-09-43-206063,-90,-110,1544,1544,-89.868,-110.005,-3.8,3.4,-8.36,-22.22,-23.18,117.8,7.780000000000001
2023-04-21 01-09-43-294719,-90,-110,1543,1543,-89.868,-110.005,-3.83,3.46,-8.19,-22.41,-23.1,116.25,7.59
2023-04-21 01-09-43-397937,-90,-110,1543,1543,-89.868,-110.093,-3.75,3.44,-8.28,-22.46,-22.71,114.48,7.539999999999999
2023-04-21 01-09-43-497148,-90,-110,1543,1543,-89.868,-110.005,-3.66,3.45,-8.36,-22.43,-22.23,112.96,7.57
2023-04-21 01-09-43-593214,-90,-110,1544,1544,-89.868,-110.005,-3.6,3.45,-8.39,-22.38,-21.84,111.73,7.620000000000001
2023-04-21 01-09-43-684482,-90,-110,1544,1544,-89.868,-110.093,-3.53,3.48,-8.42,-22.32,-21.52,110.61,7.68
2023-04-21 01-09-43-769817,-90,-110,1544,1544,-89.868,-110.005,-3.49,3.45,-8.45,-22.22,-21.25,109.53,7.780000000000001
2023-04-21 01-09-43-867211,-90,-110,1544,1544,-89.868,-110.093,-3.46,3.46,-8.46,-22.14,-21.13,108.64,7.859999999999999
2023-04-21 01-09-43-955747,-90,-110,1544,1544,-89.868,-110.093,-3.45,3.4,-8.54,-22.05,-21.12,107.84,7.949999999999999
2023-04-21 01-09-44-048527,-90,-110,1544,1544,-89.868,-110.005,-3.51,3.43,-8.46,-22.01,-21.31,107.22,7.989999999999998
2023-04-21 01-09-44-149507,-90,-110,1545,1545,-89.868,-110.005,-3.57,3.4,-8.43,-21.94,-21.64,106.36,8.059999999999999
2023-04-21 01-09-44-229835,-90,-110,1545,1545,-89.868,-110.005,-3.63,3.37,-8.39,-21.87,-21.85,105.72,8.129999999999999
2023-04-21 01-09-44-332746,-90,-110,1545,1545,-89.868,-110.005,-3.62,3.35,-8.5,-21.76,-21.99,104.96,8.239999999999998
2023-04-21 01-09-44-404024,-90,-110,1545,1545,-89.868,-110.005,-3.67,3.33,-8.44,-21.66,-22.2,104.27,8.34
2023-04-21 01-09-44-501115,-90,-110,1546,1546,-89.868,-110.093,-3.71,3.34,-8.39,-21.58,-22.49,103.61,8.420000000000002
2023-04-21 01-09-44-586298,-90,-110,1546,1546,-89.868,-110.005,-3.75,3.3,-8.38,-21.51,-22.78,102.96,8.489999999999998
2023-04-21 01-09-44-682093,-90,-110,1546,1546,-89.868,-110.005,-3.82,3.28,-8.38,-21.41,-22.98,102.28,8.59
2023-04-21 01-09-44-775930,-90,-110,1546,1546,-89.868,-110.093,-3.81,3.25,-8.4,-21.29,-23.04,101.56,8.71
2023-04-21 01-09-44-872986,-90,-110,1547,1547,-89.868,-110.093,-3.8,3.24,-8.41,-21.13,-23.0,100.76,8.870000000000001
2023-04-21 01-09-44-973367,-90,-110,1547,1547,-89.868,-110.093,-3.79,3.18,-8.41,-20.95,-22.88,99.99,9.05
2023-04-21 01-09-45-071557,-90,-110,1548,1548,-89.868,-110.093,-3.75,3.22,-8.46,-20.79,-22.73,99.25,9.21
2023-04-21 01-09-45-156582,-90,-110,1548,1548,-89.868,-110.005,-3.72,3.18,-8.49,-20.65,-22.65,98.66,9.350000000000001
2023-04-21 01-09-45-258275,-90,-110,1548,1548,-89.868,-110.005,-3.71,3.17,-8.48,-20.54,-22.7,98.06,9.46
2023-04-21 01-09-45-354327,-90,-110,1548,1548,-89.868,-110.005,-3.73,3.14,-8.47,-20.45,-22.82,97.59,9.55
2023-04-21 01-09-45-446524,-90,-110,1549,1549,-89.868,-110.005,-3.82,3.1,-8.4,-20.38,-23.0,97.12,9.620000000000001
2023-04-21 01-09-45-532019,-90,-110,1549,1549,-89.868,-110.005,-3.83,3.1,-8.4,-20.28,-23.14,96.58,9.719999999999999
2023-04-21 01-09-45-631710,-90,-110,1549,1549,-89.868,-110.005,-3.81,3.11,-8.42,-20.16,-23.16,96.04,9.84
2023-04-21 01-09-45-731177,-90,-110,1550,1550,-89.868,-110.005,-3.81,3.05,-8.44,-19.99,-22.99,95.42,10.010000000000002
2023-04-21 01-09-45-822043,-90,-110,1550,1550,-89.868,-110.093,-3.76,3.07,-8.47,-19.8,-22.71,94.86,10.2
2023-04-21 01-09-45-922143,-90,-110,1551,1551,-89.868,-110.005,-3.63,3.02,-8.7,-19.58,-22.39,94.35,10.420000000000002
2023-04-21 01-09-46-005009,-90,-110,1551,1551,-89.868,-110.005,-3.68,3.05,-8.63,-19.52,-22.57,94.13,10.48
2023-04-21 01-09-46-092757,-90,-110,1551,1551,-89.868,-110.005,-3.76,2.98,-8.56,-19.53,-23.11,93.97,10.469999999999999
2023-04-21 01-09-46-192005,-90,-110,1551,1551,-89.868,-110.093,-3.94,2.99,-8.46,-19.59,-23.9,93.78,10.41
2023-04-21 01-09-46-286210,-90,-110,1550,1550,-89.868,-110.005,-4.09,3.0,-8.31,-19.69,-24.63,93.56,10.309999999999999
2023-04-21 01-09-46-381431,-90,-110,1550,1550,-89.868,-110.005,-4.17,3.0,-8.22,-19.73,-25.09,93.13,10.27
2023-04-21 01-09-46-469481,-90,-110,1550,1550,-89.868,-110.005,-4.14,2.99,-8.3,-19.7,-25.06,92.61,10.3
2023-04-21 01-09-46-569587,-90,-110,1550,1550,-89.868,-110.005,-4.06,2.99,-8.37,-19.61,-24.77,91.98,10.39
2023-04-21 01-09-46-650830,-90,-110,1551,1551,-89.868,-110.005,-4.02,2.95,-8.45,-19.54,-24.46,91.51,10.46
2023-04-21 01-09-46-752171,-90,-110,1551,1551,-89.868,-110.005,-3.96,2.95,-8.46,-19.48,-24.19,91.03,10.52
2023-04-21 01-09-46-851675,-90,-110,1551,1551,-89.868,-110.093,-3.91,3.0,-8.49,-19.47,-24.06,90.65,10.530000000000001
2023-04-21 01-09-46-947253,-90,-110,1551,1551,-89.868,-110.093,-3.96,2.96,-8.43,-19.51,-24.11,90.39,10.489999999999998
2023-04-21 01-09-47-041707,-90,-110,1551,1551,-89.868,-110.005,-4.0,2.94,-8.42,-19.57,-24.3,90.11,10.43
2023-04-21 01-09-47-118702,-90,-110,1550,1550,-89.868,-110.005,-4.03,2.98,-8.37,-19.62,-24.45,89.89,10.379999999999999
2023-04-21 01-09-47-219056,-90,-110,1550,1550,-89.868,-110.005,-4.05,3.0,-8.38,-19.69,-24.56,89.59,10.309999999999999
2023-04-21 01-09-47-304917,-90,-110,1550,1550,-89.868,-110.093,-4.01,3.01,-8.4,-19.73,-24.55,89.31,10.27
2023-04-21 01-09-47-400233,-90,-110,1550,1550,-89.868,-110.005,-4.0,3.03,-8.39,-19.74,-24.44,88.95,10.260000000000002
2023-04-21 01-09-47-490650,-90,-110,1550,1550,-89.868,-110.093,-3.97,3.02,-8.41,-19.74,-24.34,88.63,10.260000000000002
2023-04-21 01-09-47-585155,-90,-110,1550,1550,-89.868,-110.093,-3.97,2.99,-8.43,-19.74,-24.3,88.34,10.260000000000002
2023-04-21 01-09-47-673360,-90,-110,1550,1550,-89.868,-110.005,-4.0,3.06,-8.39,-19.77,-24.31,88.1,10.23
2023-04-21 01-09-47-765043,-90,-110,1550,1550,-89.868,-110.093,-4.0,3.02,-8.35,-19.78,-24.3,87.83,10.219999999999999
2023-04-21 01-09-47-860023,-90,-110,1550,1550,-89.868,-110.005,-3.96,3.02,-8.42,-19.74,-24.19,87.51,10.260000000000002
2023-04-21 01-09-47-957769,-90,-110,1550,1550,-89.868,-110.093,-3.93,2.99,-8.43,-19.67,-24.08,87.22,10.329999999999998
2023-04-21 01-09-48-048389,-90,-110,1551,1551,-89.868,-110.093,-3.92,3.04,-8.42,-19.58,-23.94,86.92,10.420000000000002
2023-04-21 01-09-48-149090,-90,-110,1551,1551,-89.868,-110.005,-3.86,2.96,-8.52,-19.5,-23.82,86.63,10.5
2023-04-21 01-09-48-246732,-90,-110,1551,1551,-89.868,-110.005,-3.92,3.0,-8.43,-19.48,-24.03,86.46,10.52
2023-04-21 01-09-48-333201,-90,-110,1551,1551,-89.868,-110.005,-3.98,2.98,-8.42,-19.5,-24.33,86.33,10.5
2023-04-21 01-09-48-425262,-90,-110,1551,1551,-89.868,-110.005,-4.06,2.93,-8.35,-19.54,-24.69,86.17,10.46
2023-04-21 01-09-48-522461,-90,-110,1551,1551,-89.868,-110.005,-4.12,2.93,-8.32,-19.53,-24.92,85.85,10.469999999999999
2023-04-21 01-09-48-623389,-90,-110,1551,1551,-89.868,-110.093,-4.08,2.96,-8.37,-19.44,-24.79,85.39,10.559999999999999
2023-04-21 01-09-48-724525,-90,-110,1551,1551,-89.868,-110.005,-4.05,2.97,-8.37,-19.33,-24.55,85.01,10.670000000000002
2023-04-21 01-09-48-819641,-90,-110,1552,1552,-89.868,-110.093,-3.96,2.94,-8.47,-19.19,-24.21,84.64,10.809999999999999
2023-04-21 01-09-48-917157,-90,-110,1552,1552,-89.868,-110.005,-3.94,2.93,-8.49,-19.1,-24.04,84.41,10.899999999999999
2023-04-21 01-09-49-016233,-90,-110,1552,1552,-89.868,-110.005,-3.93,2.9,-8.48,-19.07,-24.07,84.3,10.93
2023-04-21 01-09-49-117529,-90,-110,1552,1552,-89.868,-110.005,-3.99,2.9,-8.44,-19.09,-24.31,84.27,10.91
2023-04-21 01-09-49-213514,-90,-110,1552,1552,-89.868,-110.005,-4.01,2.91,-8.41,-19.13,-24.55,84.22,10.870000000000001
2023-04-21 01-09-49-305817,-90,-110,1552,1552,-89.868,-110.093,-4.06,2.94,-8.36,-19.16,-24.7,84.13,10.84
2023-04-21 01-09-49-408152,-90,-110,1552,1552,-89.868,-110.093,-4.06,2.94,-8.41,-19.16,-24.71,83.94,10.84
2023-04-21 01-09-49-512786,-90,-110,1552,1552,-89.868,-110.093,-4.03,2.89,-8.44,-19.14,-24.63,83.73,10.86
2023-04-21 01-09-49-599580,-90,-110,1552,1552,-89.868,-110.005,-4.01,2.9,-8.43,-19.14,-24.54,83.56,10.86
2023-04-21 01-09-49-692705,-90,-110,1552,1552,-89.868,-110.005,-3.99,2.9,-8.45,-19.13,-24.41,83.37,10.870000000000001
2023-04-21 01-09-49-783209,-90,-110,1552,1552,-89.868,-110.093,-3.98,2.87,-8.46,-19.14,-24.33,83.23,10.86
2023-04-21 01-09-49-882611,-90,-110,1552,1552,-89.868,-110.093,-3.99,2.89,-8.44,-19.18,-24.37,83.1,10.82
2023-04-21 01-09-49-979129,-90,-110,1551,1551,-89.868,-110.005,-4.01,2.89,-8.42,-19.23,-24.41,82.97,10.77
2023-04-21 01-09-50-071290,-90,-110,1551,1551,-89.868,-110.093,-4.0,2.95,-8.41,-19.27,-24.42,82.83,10.73
2023-04-21 01-09-50-166454,-90,-110,1551,1551,-89.868,-110.093,-4.0,2.97,-8.42,-19.3,-24.38,82.66,10.7
2023-04-21 01-09-50-255590,-90,-110,1551,1551,-89.868,-110.093,-3.98,2.95,-8.43,-19.32,-24.27,82.47,10.68
2023-04-21 01-09-50-350545,-90,-110,1551,1551,-89.868,-110.093,-3.94,2.97,-8.52,-19.34,-24.24,82.33,10.66
2023-04-21 01-09-50-449860,-90,-110,1551,1551,-89.868,-110.005,-4.02,2.92,-8.38,-19.43,-24.48,82.3,10.57
2023-04-21 01-09-50-537731,-90,-110,1551,1551,-89.868,-110.005,-4.05,2.99,-8.4,-19.54,-24.75,82.3,10.46
2023-04-21 01-09-50-632250,-90,-110,1550,1550,-89.868,-110.093,-4.11,3.02,-8.3,-19.65,-24.97,82.26,10.350000000000001
2023-04-21 01-09-50-733321,-90,-110,1550,1550,-89.868,-110.093,-4.11,3.01,-8.3,-19.7,-24.96,82.11,10.3
2023-04-21 01-09-50-825213,-90,-110,1550,1550,-89.868,-110.093,-4.06,3.02,-8.35,-19.71,-24.79,81.93,10.29
2023-04-21 01-09-50-923595,-90,-110,1550,1550,-89.868,-110.093,-3.97,3.01,-8.47,-19.68,-24.51,81.7,10.32
2023-04-21 01-09-51-018841,-90,-110,1550,1550,-89.868,-110.093,-3.98,3.02,-8.42,-19.69,-24.45,81.59,10.309999999999999
2023-04-21 01-09-51-110583,-90,-110,1550,1550,-89.868,-110.093,-4.01,2.98,-8.39,-19.72,-24.52,81.51,10.280000000000001
2023-04-21 01-09-51-204041,-90,-110,1550,1550,-89.868,-110.093,-4.04,2.97,-8.4,-19.77,-24.63,81.44,10.23
2023-04-21 01-09-51-299306,-90,-110,1550,1550,-89.868,-110.005,-4.06,2.98,-8.38,-19.83,-24.79,81.37,10.170000000000002
2023-04-21 01-09-51-396436,-90,-110,1550,1550,-89.868,-110.005,-4.08,3.04,-8.33,-19.89,-24.94,81.33,10.11
2023-04-21 01-09-51-495106,-90,-110,1550,1550,-89.868,-110.093,-4.13,3.07,-8.33,-19.97,-25.04,81.27,10.030000000000001
2023-04-21 01-09-51-588645,-90,-110,1549,1549,-89.868,-110.093,-4.12,3.05,-8.3,-20.05,-25.05,81.18,9.95
2023-04-21 01-09-51-689866,-90,-110,1549,1549,-89.868,-110.093,-4.09,3.07,-8.33,-20.09,-24.94,81.06,9.91
2023-04-21 01-09-51-786055,-90,-110,1549,1549,-89.868,-110.093,-4.07,3.1,-8.31,-20.13,-24.75,80.94,9.870000000000001
2023-04-21 01-09-51-884681,-90,-110,1549,1549,-89.868,-110.005,-4.0,3.06,-8.39,-20.14,-24.36,80.81,9.86
2023-04-21 01-09-51-981520,-90,-110,1549,1549,-89.868,-110.093,-3.92,3.06,-8.45,-20.15,-23.93,80.7,9.850000000000001
2023-04-21 01-09-52-062438,-90,-110,1549,1549,-89.868,-110.093,-3.89,3.09,-8.39,-20.2,-23.7,80.7,9.8
2023-04-21 01-09-52-161619,-90,-110,1549,1549,-89.868,-110.093,-3.85,3.1,-8.45,-20.24,-23.5,80.73,9.760000000000002
2023-04-21 01-09-52-254043,-90,-110,1549,1549,-89.868,-110.093,-3.81,3.16,-8.46,-20.29,-23.35,80.8,9.71
2023-04-21 01-09-52-345393,-90,-110,1549,1549,-89.868,-110.093,-3.83,3.1,-8.45,-20.35,-23.3,80.9,9.649999999999999
2023-04-21 01-09-52-430219,-90,-110,1548,1548,-89.868,-110.093,-3.82,3.13,-8.43,-20.42,-23.31,81.03,9.579999999999998
2023-04-21 01-09-52-525779,-90,-110,1548,1548,-89.868,-110.005,-3.81,3.17,-8.44,-20.5,-23.41,81.19,9.5
2023-04-21 01-09-52-617661,-90,-110,1548,1548,-89.868,-110.093,-3.86,3.17,-8.39,-20.6,-23.62,81.37,9.399999999999999
2023-04-21 01-09-52-711436,-90,-110,1548,1548,-89.868,-110.093,-3.9,3.16,-8.38,-20.65,-23.7,81.46,9.350000000000001
2023-04-21 01-09-52-808920,-90,-110,1548,1548,-89.868,-110.093,-3.88,3.16,-8.38,-20.68,-23.71,81.54,9.32
2023-04-21 01-09-52-907621,-90,-110,1548,1548,-89.868,-110.093,-3.9,3.18,-8.32,-20.71,-23.72,81.62,9.29
2023-04-21 01-09-52-997985,-90,-110,1548,1548,-89.868,-110.005,-3.88,3.15,-8.41,-20.7,-23.59,81.65,9.3
2023-04-21 01-09-53-092793,-90,-110,1548,1548,-89.868,-110.093,-3.85,3.15,-8.44,-20.68,-23.48,81.69,9.32
2023-04-21 01-09-53-184786,-90,-110,1548,1548,-89.868,-110.005,-3.84,3.18,-8.43,-20.69,-23.45,81.78,9.309999999999999
