Timestamp_log,left_angle,right_angle,left_thrust,right_thrust,read_left_angle,read_right_angle,accel_x,accel_y,accel_z,roll,pitch,yaw,error
2023-04-21 01-47-27-990026,-90,-110,1550,1450,-89.868,-109.829,0.95,-0.24,-9.72,1.37,5.42,170.01,31.37
2023-04-21 01-47-28-071120,-90,-110,1550,1450,-89.868,-109.829,0.96,-0.25,-9.72,1.37,5.42,170.0,31.37
2023-04-21 01-47-28-152448,-90,-110,1550,1450,-89.868,-109.829,0.96,-0.24,-9.72,1.36,5.43,170.01,31.36
2023-04-21 01-47-28-224429,-90,-110,1550,1450,-89.868,-109.829,0.96,-0.27,-9.75,1.36,5.42,170.01,31.36
2023-04-21 01-47-28-305840,-90,-110,1550,1450,-89.868,-109.829,0.95,-0.3,-10.15,1.33,5.45,170.02,31.33
2023-04-21 01-47-28-386580,-90,-110,1550,1450,-89.868,-109.829,0.96,-0.21,-9.95,1.02,5.45,170.04,31.02
2023-04-21 01-47-28-466405,-90,-110,1550,1450,-89.868,-109.829,0.91,-0.13,-9.89,0.53,5.38,170.04,30.53
2023-04-21 01-47-28-539089,-90,-110,1550,1450,-89.868,-109.829,0.93,-0.02,-9.85,-0.13,5.33,170.03,29.87
2023-04-21 01-47-28-619827,-90,-110,1550,1450,-89.868,-109.829,0.91,0.12,-9.82,-0.82,5.33,170.0,29.18
2023-04-21 01-47-28-700050,-90,-110,1550,1450,-89.868,-109.829,0.95,0.25,-9.83,-1.82,5.39,169.93,28.18
2023-04-21 01-47-28-780731,-90,-110,1550,1450,-89.868,-109.829,0.96,0.44,-9.81,-2.81,5.48,169.83,27.19
2023-04-21 01-47-28-861810,-90,-110,1550,1450,-89.868,-109.829,0.95,0.62,-9.8,-3.9,5.51,169.69,26.1
2023-04-21 01-47-28-942220,-90,-110,1550,1450,-89.868,-109.829,0.99,0.8,-9.77,-5.07,5.51,169.5,24.93
2023-04-21 01-47-29-023341,-90,-110,1550,1450,-89.868,-109.829,0.99,1.0,-9.75,-6.3,5.51,169.25,23.7
2023-04-21 01-47-29-103690,-90,-110,1550,1450,-89.868,-109.829,0.94,1.21,-9.66,-7.59,5.45,168.94,22.41
2023-04-21 01-47-29-190160,-90,-110,1550,1450,-89.868,-109.829,0.96,1.47,-9.65,-8.9,5.44,168.58,21.1
2023-04-21 01-47-29-265099,-90,-110,1550,1450,-89.868,-109.829,0.96,1.68,-9.57,-10.24,5.45,168.16,19.759999999999998
2023-04-21 01-47-29-352265,-90,-110,1550,1450,-89.868,-109.829,0.98,1.89,-9.54,-11.6,5.52,167.66,18.4
2023-04-21 01-47-29-426546,-90,-110,1550,1450,-89.868,-109.829,1.01,2.13,-9.47,-12.97,5.61,167.1,17.03
2023-04-21 01-47-29-507337,-90,-110,1550,1450,-89.868,-109.829,1.03,2.38,-9.4,-14.35,5.69,166.48,15.65
2023-04-21 01-47-29-589194,-90,-110,1550,1450,-89.78,-109.829,1.01,2.59,-9.35,-15.72,5.79,165.8,14.28
2023-04-21 01-47-29-670578,-90,-110,1550,1450,-89.868,-109.829,1.03,2.83,-9.28,-17.1,5.89,165.06,12.899999999999999
2023-04-21 01-47-29-752138,-90,-110,1547,1450,-89.868,-109.829,1.09,3.07,-9.2,-18.66,6.11,164.18,11.34
2023-04-21 01-47-29-832805,-90,-110,1544,1451,-89.868,-109.829,1.09,3.31,-9.11,-20.06,6.32,163.32,9.940000000000001
2023-04-21 01-47-29-918847,-90,-110,1541,1454,-89.868,-109.829,1.12,3.53,-8.86,-21.46,6.59,162.39,8.54
2023-04-21 01-47-30-000219,-90,-110,1539,1456,-89.868,-109.829,1.2,3.74,-8.76,-22.84,7.09,161.33,7.16
2023-04-21 01-47-30-076997,-90,-110,1536,1459,-89.868,-109.829,1.33,3.92,-8.69,-24.16,7.85,160.14,5.84
2023-04-21 01-47-30-168864,-90,-110,1533,1462,-89.868,-109.829,1.5,4.15,-8.56,-25.46,8.82,158.83,4.539999999999999
2023-04-21 01-47-30-238077,-90,-110,1531,1464,-89.868,-109.829,1.68,4.31,-8.48,-26.65,9.82,157.44,3.3500000000000014
2023-04-21 01-47-30-313580,-90,-110,1529,1466,-89.868,-109.829,1.89,4.44,-8.44,-27.71,10.79,156.12,2.289999999999999
2023-04-21 01-47-30-397055,-90,-110,1529,1466,-89.868,-109.829,2.02,4.58,-8.38,-28.66,11.54,154.93,1.3399999999999999
2023-04-21 01-47-30-477638,-90,-110,1529,1466,-89.868,-109.829,2.12,4.69,-8.24,-29.52,12.01,153.89,0.4800000000000004
2023-04-21 01-47-30-558768,-90,-110,1529,1466,-89.868,-109.829,2.16,4.82,-8.17,-30.24,12.23,152.97,-0.23999999999999844
2023-04-21 01-47-30-638845,-90,-110,1529,1466,-89.868,-109.829,2.15,4.92,-8.13,-30.83,12.29,152.15,-0.8299999999999983
2023-04-21 01-47-30-701978,-90,-110,1529,1466,-89.868,-109.829,2.13,4.98,-8.1,-31.32,12.26,151.37,-1.3200000000000003
2023-04-21 01-47-30-783198,-90,-110,1529,1466,-89.868,-109.829,2.11,5.03,-8.09,-31.68,12.15,150.76,-1.6799999999999997
2023-04-21 01-47-30-863982,-90,-110,1521,1474,-89.868,-109.829,2.05,5.06,-8.06,-32.04,11.95,150.12,-2.039999999999999
2023-04-21 01-47-30-953848,-90,-110,1521,1474,-89.868,-109.829,2.01,5.11,-8.03,-32.35,11.7,149.52,-2.3500000000000014
2023-04-21 01-47-31-024996,-90,-110,1520,1475,-89.868,-109.829,1.95,5.17,-7.98,-32.59,11.45,148.96,-2.5900000000000034
2023-04-21 01-47-31-108520,-90,-110,1520,1475,-89.868,-109.829,1.91,5.17,-7.98,-32.78,11.25,148.4,-2.780000000000001
2023-04-21 01-47-31-190557,-90,-110,1520,1475,-89.868,-109.829,1.88,5.19,-7.99,-32.9,11.06,147.88,-2.8999999999999986
2023-04-21 01-47-31-274164,-90,-110,1520,1475,-89.868,-109.829,1.83,5.2,-7.98,-32.92,10.85,147.36,-2.9200000000000017
2023-04-21 01-47-31-352089,-90,-110,1520,1475,-89.868,-109.829,1.82,5.19,-8.0,-32.88,10.7,146.94,-2.8800000000000026
2023-04-21 01-47-31-433645,-90,-110,1520,1475,-89.868,-109.829,1.8,5.17,-8.0,-32.78,10.65,146.51,-2.780000000000001
2023-04-21 01-47-31-516041,-90,-110,1520,1475,-89.868,-109.829,1.82,5.16,-7.96,-32.65,10.75,146.04,-2.6499999999999986
2023-04-21 01-47-31-598914,-90,-110,1521,1474,-89.868,-109.829,1.88,5.13,-8.03,-32.46,11.01,145.51,-2.460000000000001
2023-04-21 01-47-31-674398,-90,-110,1521,1474,-89.868,-109.829,1.98,5.12,-8.08,-32.23,11.36,144.99,-2.229999999999997
2023-04-21 01-47-31-751313,-90,-110,1522,1473,-89.868,-109.829,2.06,5.04,-8.1,-32.0,11.67,144.56,-2.0
2023-04-21 01-47-31-831437,-90,-110,1522,1473,-89.868,-109.829,2.12,5.0,-8.33,-31.68,11.84,144.19,-1.6799999999999997
2023-04-21 01-47-31-914759,-90,-110,1522,1473,-89.868,-109.829,2.03,4.99,-8.25,-31.43,11.62,144.09,-1.4299999999999997
2023-04-21 01-47-31-996361,-90,-110,1522,1473,-89.868,-109.829,1.93,4.94,-8.23,-31.2,11.21,144.08,-1.1999999999999993
2023-04-21 01-47-32-080782,-90,-110,1522,1473,-89.868,-109.829,1.83,4.93,-8.22,-31.0,10.74,144.09,-1.0
2023-04-21 01-47-32-184482,-90,-110,1522,1473,-89.868,-109.829,1.77,4.9,-8.24,-30.78,10.29,144.11,-0.7800000000000011
2023-04-21 01-47-32-255993,-90,-110,1522,1473,-89.78,-109.829,1.67,4.9,-8.12,-30.54,9.93,144.09,-0.5399999999999991
2023-04-21 01-47-32-316847,-90,-110,1522,1473,-89.868,-109.829,1.64,4.83,-8.19,-30.22,9.8,143.96,-0.21999999999999886
2023-04-21 01-47-32-400661,-90,-110,1522,1473,-89.868,-109.829,1.67,4.76,-8.25,-29.83,9.86,143.75,0.1700000000000017
2023-04-21 01-47-32-483923,-90,-110,1522,1473,-89.868,-109.829,1.73,4.68,-8.26,-29.32,10.15,143.46,0.6799999999999997
2023-04-21 01-47-32-567264,-90,-110,1522,1473,-89.868,-109.829,1.86,4.58,-8.59,-28.83,10.57,143.18,1.1700000000000017
2023-04-21 01-47-32-650181,-90,-110,1522,1473,-89.868,-109.829,1.91,4.54,-8.54,-28.39,10.82,143.03,1.6099999999999994
2023-04-21 01-47-32-734104,-90,-110,1529,1466,-89.868,-109.829,1.94,4.49,-8.57,-27.93,10.87,142.99,2.0700000000000003
2023-04-21 01-47-32-815563,-90,-110,1529,1466,-89.868,-109.829,1.9,4.43,-8.57,-27.56,10.71,143.01,2.4400000000000013
2023-04-21 01-47-32-897619,-90,-110,1530,1465,-89.868,-109.829,1.81,4.38,-8.56,-27.2,10.46,143.03,2.8000000000000007
2023-04-21 01-47-32-979009,-90,-110,1531,1464,-89.868,-109.829,1.78,4.33,-8.47,-26.85,10.33,142.96,3.1499999999999986
2023-04-21 01-47-33-061207,-90,-110,1532,1463,-89.868,-109.829,1.82,4.27,-8.53,-26.47,10.47,142.71,3.530000000000001
2023-04-21 01-47-33-144511,-90,-110,1532,1463,-89.868,-109.829,1.88,4.23,-8.58,-26.12,10.76,142.39,3.879999999999999
2023-04-21 01-47-33-226749,-90,-110,1533,1462,-89.868,-109.829,1.95,4.18,-8.72,-25.77,11.12,142.03,4.23
2023-04-21 01-47-33-309456,-90,-110,1534,1461,-89.868,-109.829,2.02,4.12,-8.86,-25.45,11.31,141.73,4.550000000000001
2023-04-21 01-47-33-392218,-90,-110,1534,1461,-89.868,-109.829,1.99,4.07,-8.81,-25.23,11.14,141.54,4.77
2023-04-21 01-47-33-473590,-90,-110,1534,1461,-89.78,-109.829,1.87,4.07,-8.73,-25.1,10.79,141.42,4.899999999999999
2023-04-21 01-47-33-556176,-90,-110,1534,1461,-89.868,-109.829,1.81,4.05,-8.73,-25.02,10.44,141.26,4.98
2023-04-21 01-47-33-638796,-90,-110,1535,1460,-89.868,-109.829,1.71,4.02,-8.62,-24.97,10.14,141.06,5.030000000000001
2023-04-21 01-47-33-721908,-90,-110,1535,1460,-89.868,-109.829,1.68,3.99,-8.61,-24.9,10.1,140.74,5.100000000000001
2023-04-21 01-47-33-805523,-90,-110,1535,1460,-89.868,-109.829,1.78,3.99,-8.78,-24.8,10.36,140.26,5.199999999999999
2023-04-21 01-47-33-887218,-90,-110,1535,1460,-89.868,-109.829,1.84,3.98,-8.79,-24.73,10.59,139.86,5.27
2023-04-21 01-47-33-970300,-90,-110,1535,1460,-89.868,-109.829,1.86,3.96,-8.78,-24.67,10.75,139.51,5.329999999999998
2023-04-21 01-47-34-053976,-90,-110,1535,1460,-89.868,-109.829,1.88,3.96,-8.76,-24.64,10.85,139.18,5.359999999999999
2023-04-21 01-47-34-136042,-90,-110,1535,1460,-89.868,-109.829,1.86,3.96,-8.76,-24.62,10.88,138.92,5.379999999999999
2023-04-21 01-47-34-219437,-90,-110,1535,1460,-89.868,-109.829,1.87,3.92,-8.77,-24.61,10.88,138.68,5.390000000000001
2023-04-21 01-47-34-299532,-90,-110,1535,1460,-89.868,-109.829,1.84,3.98,-8.74,-24.61,10.82,138.47,5.390000000000001
2023-04-21 01-47-34-379609,-90,-110,1535,1460,-89.868,-109.829,1.84,3.99,-8.75,-24.61,10.76,138.31,5.390000000000001
2023-04-21 01-47-34-461692,-90,-110,1535,1460,-89.868,-109.829,1.84,3.98,-8.75,-24.61,10.68,138.14,5.390000000000001
2023-04-21 01-47-34-543945,-90,-110,1535,1460,-89.868,-109.829,1.79,3.94,-8.73,-24.63,10.61,138.01,5.370000000000001
2023-04-21 01-47-34-625389,-90,-110,1535,1460,-89.868,-109.829,1.83,3.98,-8.74,-24.64,10.61,137.85,5.359999999999999
2023-04-21 01-47-34-707709,-90,-110,1535,1460,-89.78,-109.829,1.82,3.98,-8.74,-24.66,10.64,137.73,5.34
2023-04-21 01-47-34-790757,-90,-110,1535,1460,-89.868,-109.829,1.85,4.02,-8.73,-24.68,10.7,137.6,5.32
2023-04-21 01-47-34-884300,-90,-110,1535,1460,-89.868,-109.829,1.85,3.99,-8.71,-24.71,10.78,137.46,5.289999999999999
2023-04-21 01-47-34-965528,-90,-110,1535,1460,-89.868,-109.829,1.89,4.0,-8.75,-24.75,10.88,137.32,5.25
2023-04-21 01-47-35-037835,-90,-110,1535,1460,-89.868,-109.829,1.9,3.98,-8.72,-24.79,10.99,137.2,5.210000000000001
2023-04-21 01-47-35-106114,-90,-110,1535,1460,-89.868,-109.829,1.92,4.0,-8.72,-24.83,11.05,137.09,5.170000000000002
2023-04-21 01-47-35-188727,-90,-110,1535,1460,-89.868,-109.829,1.92,4.0,-8.74,-24.87,11.07,137.03,5.129999999999999
2023-04-21 01-47-35-272398,-90,-110,1535,1460,-89.868,-109.829,1.9,3.96,-8.74,-24.91,10.94,137.03,5.09
2023-04-21 01-47-35-353648,-90,-110,1535,1460,-89.868,-109.829,1.83,4.02,-8.68,-24.94,10.7,137.07,5.059999999999999
2023-04-21 01-47-35-425025,-90,-110,1535,1460,-89.78,-109.829,1.82,4.05,-8.7,-24.98,10.5,137.1,5.02
2023-04-21 01-47-35-507592,-90,-110,1534,1461,-89.868,-109.829,1.79,4.06,-8.67,-25.04,10.4,137.08,4.960000000000001
2023-04-21 01-47-35-591342,-90,-110,1534,1461,-89.868,-109.829,1.79,4.04,-8.67,-25.09,10.39,137.02,4.91
2023-04-21 01-47-35-673164,-90,-110,1534,1461,-89.868,-109.829,1.8,4.08,-8.61,-25.13,10.51,136.9,4.870000000000001
2023-04-21 01-47-35-738135,-90,-110,1534,1461,-89.868,-109.829,1.85,4.07,-8.65,-25.15,10.74,136.74,4.850000000000001
2023-04-21 01-47-35-817995,-90,-110,1534,1461,-89.868,-109.829,1.91,4.1,-8.67,-25.15,11.04,136.56,4.850000000000001
2023-04-21 01-47-35-901008,-90,-110,1534,1461,-89.868,-109.829,2.0,4.06,-8.72,-25.15,11.37,136.36,4.850000000000001
2023-04-21 01-47-35-987880,-90,-110,1534,1461,-89.868,-109.829,2.03,4.05,-8.7,-25.13,11.56,136.22,4.870000000000001
2023-04-21 01-47-36-064294,-90,-110,1534,1461,-89.868,-109.829,2.04,4.03,-8.72,-25.1,11.58,136.17,4.899999999999999
2023-04-21 01-47-36-144956,-90,-110,1534,1461,-89.868,-109.829,2.0,4.04,-8.69,-25.08,11.47,136.15,4.920000000000002
2023-04-21 01-47-36-227776,-90,-110,1534,1461,-89.868,-109.829,1.95,4.02,-8.66,-25.06,11.3,136.13,4.940000000000001
2023-04-21 01-47-36-309129,-90,-110,1534,1461,-89.868,-109.829,1.92,4.03,-8.67,-25.03,11.13,136.1,4.969999999999999
2023-04-21 01-47-36-392498,-90,-110,1535,1460,-89.868,-109.829,1.88,4.02,-8.66,-24.98,11.01,136.04,5.02
2023-04-21 01-47-36-474888,-90,-110,1535,1460,-89.868,-109.829,1.89,4.03,-8.7,-24.92,10.96,135.97,5.079999999999998
2023-04-21 01-47-36-558475,-90,-110,1535,1460,-89.868,-109.829,1.89,3.98,-8.75,-24.86,10.94,135.9,5.140000000000001
2023-04-21 01-47-36-639526,-90,-110,1535,1460,-89.868,-109.829,1.88,4.03,-8.74,-24.82,10.89,135.86,5.18
2023-04-21 01-47-36-725330,-90,-110,1535,1460,-89.78,-109.829,1.86,3.97,-8.73,-24.79,10.81,135.83,5.210000000000001
2023-04-21 01-47-36-809157,-90,-110,1535,1460,-89.868,-109.829,1.85,4.0,-8.72,-24.78,10.76,135.79,5.219999999999999
2023-04-21 01-47-36-892831,-90,-110,1535,1460,-89.868,-109.829,1.84,4.0,-8.72,-24.77,10.72,135.76,5.23
2023-04-21 01-47-36-977203,-90,-110,1535,1460,-89.868,-109.829,1.87,3.98,-8.72,-24.78,10.78,135.7,5.219999999999999
2023-04-21 01-47-37-060951,-90,-110,1535,1460,-89.78,-109.829,1.88,3.97,-8.73,-24.78,10.88,135.64,5.219999999999999
2023-04-21 01-47-37-143722,-90,-110,1535,1460,-89.868,-109.829,1.91,3.97,-8.73,-24.79,10.99,135.56,5.210000000000001
2023-04-21 01-47-37-227377,-90,-110,1535,1460,-89.868,-109.829,1.91,3.97,-8.73,-24.82,11.06,135.51,5.18
2023-04-21 01-47-37-309530,-90,-110,1535,1460,-89.868,-109.829,1.95,4.01,-8.75,-24.84,11.1,135.47,5.16
2023-04-21 01-47-37-393931,-90,-110,1535,1460,-89.868,-109.829,1.95,4.02,-8.76,-24.88,11.04,135.48,5.120000000000001
2023-04-21 01-47-37-483629,-90,-110,1535,1460,-89.868,-109.829,1.88,4.01,-8.72,-24.92,10.83,135.55,5.079999999999998
2023-04-21 01-47-37-561458,-90,-110,1535,1460,-89.868,-109.829,1.84,4.02,-8.73,-24.96,10.58,135.61,5.039999999999999
2023-04-21 01-47-37-646014,-90,-110,1534,1461,-89.868,-109.829,1.78,4.04,-8.64,-25.02,10.36,135.65,4.98
2023-04-21 01-47-37-730921,-90,-110,1534,1461,-89.78,-109.829,1.79,4.08,-8.66,-25.07,10.33,135.62,4.93
2023-04-21 01-47-37-814374,-90,-110,1534,1461,-89.868,-109.829,1.8,4.05,-8.63,-25.11,10.45,135.52,4.890000000000001
2023-04-21 01-47-37-897989,-90,-110,1534,1461,-89.868,-109.829,1.85,4.06,-8.65,-25.11,10.73,135.37,4.890000000000001
2023-04-21 01-47-37-981361,-90,-110,1534,1461,-89.868,-109.829,1.93,4.03,-8.71,-25.08,11.05,135.21,4.920000000000002
2023-04-21 01-47-38-062915,-90,-110,1534,1461,-89.868,-109.829,1.99,4.03,-8.71,-25.05,11.35,135.06,4.949999999999999
2023-04-21 01-47-38-147198,-90,-110,1534,1461,-89.868,-109.829,2.03,4.07,-8.72,-25.02,11.53,134.97,4.98
2023-04-21 01-47-38-230769,-90,-110,1535,1460,-89.868,-109.829,2.03,4.0,-8.73,-24.98,11.57,134.94,5.02
2023-04-21 01-47-38-314532,-90,-110,1535,1460,-89.868,-109.829,2.0,4.01,-8.71,-24.94,11.47,134.95,5.059999999999999
2023-04-21 01-47-38-398237,-90,-110,1535,1460,-89.868,-109.829,1.97,4.0,-8.75,-24.91,11.31,134.97,5.09
2023-04-21 01-47-38-481797,-90,-110,1535,1460,-89.868,-109.829,1.91,3.98,-8.72,-24.89,11.04,135.03,5.109999999999999
2023-04-21 01-47-38-566416,-90,-110,1535,1460,-89.868,-109.829,1.83,4.0,-8.7,-24.88,10.7,135.1,5.120000000000001
2023-04-21 01-47-38-650930,-90,-110,1535,1460,-89.868,-109.829,1.78,4.02,-8.69,-24.87,10.46,135.14,5.129999999999999
2023-04-21 01-47-38-734341,-90,-110,1535,1460,-89.868,-109.829,1.77,4.04,-8.7,-24.87,10.34,135.12,5.129999999999999
2023-04-21 01-47-38-816636,-90,-110,1535,1460,-89.868,-109.829,1.78,4.01,-8.71,-24.86,10.36,135.07,5.140000000000001
2023-04-21 01-47-38-901914,-90,-110,1535,1460,-89.868,-109.829,1.79,4.03,-8.72,-24.85,10.48,135.0,5.149999999999999
2023-04-21 01-47-38-985840,-90,-110,1535,1460,-89.868,-109.829,1.85,3.99,-8.74,-24.83,10.66,134.92,5.170000000000002
2023-04-21 01-47-39-068525,-90,-110,1535,1460,-89.868,-109.829,1.89,4.01,-8.74,-24.82,10.81,134.86,5.18
2023-04-21 01-47-39-149807,-90,-110,1535,1460,-89.868,-109.829,1.91,3.98,-8.73,-24.83,10.95,134.81,5.170000000000002
2023-04-21 01-47-39-233529,-90,-110,1535,1460,-89.868,-109.829,1.95,4.04,-8.74,-24.83,11.06,134.77,5.170000000000002
2023-04-21 01-47-39-304511,-90,-110,1535,1460,-89.868,-109.829,1.95,4.01,-8.72,-24.85,11.14,134.74,5.149999999999999
2023-04-21 01-47-39-389360,-90,-110,1535,1460,-89.868,-109.829,1.95,3.97,-8.74,-24.87,11.18,134.71,5.129999999999999
2023-04-21 01-47-39-473563,-90,-110,1535,1460,-89.868,-109.829,1.95,4.01,-8.73,-24.92,11.13,134.71,5.079999999999998
2023-04-21 01-47-39-557277,-90,-110,1535,1460,-89.868,-109.829,1.94,4.04,-8.72,-24.96,10.99,134.74,5.039999999999999
2023-04-21 01-47-39-641985,-90,-110,1535,1460,-89.868,-109.829,1.88,4.02,-8.73,-24.99,10.79,134.79,5.010000000000002
2023-04-21 01-47-39-715722,-90,-110,1534,1461,-89.868,-109.829,1.82,4.04,-8.68,-25.02,10.58,134.84,4.98
2023-04-21 01-47-39-798820,-90,-110,1534,1461,-89.868,-109.829,1.8,4.06,-8.67,-25.07,10.45,134.87,4.93
2023-04-21 01-47-39-883177,-90,-110,1534,1461,-89.868,-109.829,1.78,4.05,-8.61,-25.09,10.45,134.84,4.91
2023-04-21 01-47-39-967889,-90,-110,1534,1461,-89.868,-109.829,1.82,4.04,-8.62,-25.08,10.64,134.73,4.920000000000002
2023-04-21 01-47-40-051220,-90,-110,1534,1461,-89.868,-109.829,1.92,4.04,-8.64,-25.04,11.01,134.56,4.960000000000001
2023-04-21 01-47-40-136392,-90,-110,1535,1460,-89.868,-109.829,2.02,4.03,-8.69,-24.95,11.48,134.36,5.050000000000001
2023-04-21 01-47-40-222086,-90,-110,1535,1460,-89.868,-109.829,2.08,4.0,-8.73,-24.86,11.84,134.22,5.140000000000001
2023-04-21 01-47-40-308578,-90,-110,1535,1460,-89.868,-109.829,2.17,4.0,-8.89,-24.74,11.99,134.16,5.260000000000002
2023-04-21 01-47-40-393124,-90,-110,1535,1460,-89.868,-109.829,2.06,3.95,-8.79,-24.66,11.68,134.3,5.34
2023-04-21 01-47-40-477420,-90,-110,1535,1460,-89.868,-109.829,1.95,3.95,-8.73,-24.64,11.19,134.47,5.359999999999999
2023-04-21 01-47-40-559605,-90,-110,1535,1460,-89.868,-109.829,1.82,3.98,-8.7,-24.64,10.7,134.61,5.359999999999999
2023-04-21 01-47-40-644746,-90,-110,1535,1460,-89.868,-109.829,1.73,3.94,-8.7,-24.64,10.3,134.72,5.359999999999999
2023-04-21 01-47-40-731164,-90,-110,1535,1460,-89.868,-109.829,1.72,3.96,-8.71,-24.63,10.16,134.72,5.370000000000001
2023-04-21 01-47-40-812348,-90,-110,1535,1460,-89.868,-109.829,1.75,3.95,-8.72,-24.6,10.2,134.65,5.399999999999999
2023-04-21 01-47-40-894189,-90,-110,1535,1460,-89.868,-109.829,1.78,3.99,-8.74,-24.58,10.33,134.58,5.420000000000002
2023-04-21 01-47-40-982371,-90,-110,1535,1460,-89.868,-109.829,1.82,3.99,-8.76,-24.55,10.55,134.5,5.449999999999999
2023-04-21 01-47-41-065734,-90,-110,1535,1460,-89.868,-109.829,1.89,3.96,-8.76,-24.54,10.76,134.44,5.460000000000001
2023-04-21 01-47-41-149401,-90,-110,1535,1460,-89.868,-109.829,1.91,3.96,-8.77,-24.51,10.91,134.42,5.489999999999998
2023-04-21 01-47-41-233918,-90,-110,1535,1460,-89.78,-109.829,1.92,3.95,-8.75,-24.51,11.01,134.41,5.489999999999998
2023-04-21 01-47-41-316272,-90,-110,1535,1460,-89.868,-109.829,1.95,3.91,-8.76,-24.52,11.04,134.42,5.48
2023-04-21 01-47-41-423939,-90,-110,1535,1460,-89.868,-109.829,1.93,3.94,-8.74,-24.55,11.03,134.43,5.449999999999999
2023-04-21 01-47-41-487560,-90,-110,1535,1460,-89.868,-109.829,1.91,3.97,-8.72,-24.57,10.99,134.45,5.43
2023-04-21 01-47-41-572099,-90,-110,1535,1460,-89.868,-109.829,1.93,3.96,-8.78,-24.6,11.0,134.43,5.399999999999999
2023-04-21 01-47-41-664070,-90,-110,1535,1460,-89.868,-109.829,1.89,3.99,-8.76,-24.63,10.95,134.45,5.370000000000001
2023-04-21 01-47-41-739566,-90,-110,1535,1460,-89.868,-109.829,1.9,3.99,-8.75,-24.66,10.85,134.49,5.34
2023-04-21 01-47-41-823607,-90,-110,1535,1460,-89.868,-109.829,1.83,3.97,-8.73,-24.69,10.66,134.55,5.309999999999999
2023-04-21 01-47-41-909650,-90,-110,1535,1460,-89.868,-109.829,1.78,3.96,-8.7,-24.71,10.52,134.61,5.289999999999999
2023-04-21 01-47-41-995929,-90,-110,1535,1460,-89.868,-109.829,1.8,3.99,-8.7,-24.74,10.49,134.62,5.260000000000002
2023-04-21 01-47-42-079680,-90,-110,1535,1460,-89.868,-109.829,1.8,3.98,-8.71,-24.75,10.6,134.59,5.25
2023-04-21 01-47-42-163715,-90,-110,1535,1460,-89.868,-109.829,1.86,3.98,-8.75,-24.77,10.8,134.52,5.23
2023-04-21 01-47-42-247719,-90,-110,1535,1460,-89.868,-109.829,1.91,3.99,-8.73,-24.79,10.94,134.49,5.210000000000001
2023-04-21 01-47-42-336106,-90,-110,1535,1460,-89.868,-109.829,1.93,4.02,-8.75,-24.81,11.03,134.48,5.190000000000001
2023-04-21 01-47-42-421306,-90,-110,1535,1460,-89.868,-109.829,1.92,3.98,-8.68,-24.84,11.03,134.49,5.16
2023-04-21 01-47-42-507316,-90,-110,1535,1460,-89.868,-109.829,1.94,4.04,-8.73,-24.87,11.04,134.49,5.129999999999999
2023-04-21 01-47-42-591283,-90,-110,1535,1460,-89.868,-109.829,1.94,4.03,-8.72,-24.88,11.02,134.49,5.120000000000001
2023-04-21 01-47-42-677576,-90,-110,1535,1460,-89.868,-109.829,1.89,4.01,-8.7,-24.9,10.95,134.51,5.100000000000001
2023-04-21 01-47-42-763948,-90,-110,1535,1460,-89.868,-109.829,1.89,4.04,-8.7,-24.91,10.88,134.51,5.09
2023-04-21 01-47-42-848975,-90,-110,1535,1460,-89.868,-109.829,1.86,4.01,-8.7,-24.9,10.83,134.5,5.100000000000001
2023-04-21 01-47-42-933919,-90,-110,1535,1460,-89.868,-109.829,1.86,4.04,-8.7,-24.89,10.81,134.49,5.109999999999999
2023-04-21 01-47-43-019517,-90,-110,1535,1460,-89.868,-109.829,1.85,4.01,-8.69,-24.88,10.83,134.46,5.120000000000001
2023-04-21 01-47-43-105316,-90,-110,1535,1460,-89.868,-109.829,1.89,3.97,-8.73,-24.87,10.91,134.42,5.129999999999999
2023-04-21 01-47-43-190618,-90,-110,1535,1460,-89.868,-109.829,1.91,3.99,-8.73,-24.86,10.96,134.4,5.140000000000001
2023-04-21 01-47-43-277346,-90,-110,1535,1460,-89.868,-109.829,1.89,3.99,-8.72,-24.84,10.95,134.41,5.16
2023-04-21 01-47-43-355673,-90,-110,1535,1460,-89.868,-109.829,1.91,4.02,-8.73,-24.83,10.94,134.41,5.170000000000002
2023-04-21 01-47-43-439681,-90,-110,1535,1460,-89.868,-109.829,1.88,4.0,-8.71,-24.82,10.91,134.41,5.18
2023-04-21 01-47-43-526252,-90,-110,1535,1460,-89.868,-109.829,1.88,3.96,-8.71,-24.83,10.93,134.4,5.170000000000002
2023-04-21 01-47-43-612017,-90,-110,1535,1460,-89.868,-109.829,1.9,3.99,-8.7,-24.83,10.97,134.37,5.170000000000002
2023-04-21 01-47-43-695738,-90,-110,1535,1460,-89.868,-109.829,1.9,4.0,-8.71,-24.83,11.0,134.34,5.170000000000002
2023-04-21 01-47-43-781633,-90,-110,1535,1460,-89.868,-109.829,1.9,3.97,-8.74,-24.83,11.0,134.33,5.170000000000002
2023-04-21 01-47-43-866852,-90,-110,1535,1460,-89.868,-109.829,1.9,4.0,-8.73,-24.84,10.89,134.38,5.16
2023-04-21 01-47-43-963725,-90,-110,1535,1460,-89.868,-109.829,1.86,4.01,-8.73,-24.84,10.71,134.45,5.16
2023-04-21 01-47-44-038533,-90,-110,1535,1460,-89.868,-109.829,1.8,3.98,-8.67,-24.86,10.53,134.52,5.140000000000001
2023-04-21 01-47-44-124054,-90,-110,1535,1460,-89.868,-109.829,1.81,4.03,-8.69,-24.87,10.51,134.51,5.129999999999999
2023-04-21 01-47-44-207283,-90,-110,1535,1460,-89.868,-109.829,1.85,3.99,-8.71,-24.84,10.59,134.49,5.16
2023-04-21 01-47-44-290609,-90,-110,1535,1460,-89.868,-109.829,1.87,4.02,-8.73,-24.83,10.71,134.45,5.170000000000002
2023-04-21 01-47-44-375198,-90,-110,1535,1460,-89.868,-109.829,1.9,3.96,-8.75,-24.83,10.85,134.41,5.170000000000002
2023-04-21 01-47-44-459032,-90,-110,1535,1460,-89.868,-109.829,1.91,4.01,-8.73,-24.84,10.92,134.39,5.16
2023-04-21 01-47-44-544514,-90,-110,1535,1460,-89.868,-109.829,1.92,3.98,-8.73,-24.85,10.95,134.39,5.149999999999999
2023-04-21 01-47-44-630504,-90,-110,1535,1460,-89.868,-109.829,1.91,4.01,-8.72,-24.89,10.96,134.37,5.109999999999999
2023-04-21 01-47-44-715087,-90,-110,1535,1460,-89.868,-109.829,1.91,4.03,-8.7,-24.91,10.94,134.38,5.09
2023-04-21 01-47-44-799545,-90,-110,1535,1460,-89.868,-109.829,1.9,4.01,-8.71,-24.95,10.89,134.38,5.050000000000001
2023-04-21 01-47-44-885393,-90,-110,1535,1460,-89.868,-109.829,1.86,4.02,-8.7,-24.96,10.83,134.38,5.039999999999999
2023-04-21 01-47-44-972010,-90,-110,1535,1460,-89.868,-109.829,1.89,4.04,-8.72,-24.97,10.81,134.36,5.030000000000001
2023-04-21 01-47-45-057129,-90,-110,1535,1460,-89.868,-109.829,1.85,4.03,-8.71,-24.98,10.79,134.35,5.02
2023-04-21 01-47-45-141952,-90,-110,1535,1460,-89.868,-109.829,1.86,4.0,-8.69,-24.98,10.81,134.31,5.02
2023-04-21 01-47-45-227195,-90,-110,1535,1460,-89.868,-109.829,1.88,4.01,-8.7,-24.99,10.87,134.29,5.010000000000002
2023-04-21 01-47-45-311486,-90,-110,1535,1460,-89.868,-109.829,1.89,4.02,-8.69,-24.99,10.89,134.3,5.010000000000002
2023-04-21 01-47-45-396683,-90,-110,1535,1460,-89.868,-109.829,1.9,4.05,-8.71,-24.98,10.88,134.31,5.02
2023-04-21 01-47-45-482837,-90,-110,1535,1460,-89.868,-109.829,1.89,4.04,-8.73,-24.97,10.87,134.31,5.030000000000001
2023-04-21 01-47-45-570343,-90,-110,1535,1460,-89.868,-109.829,1.87,4.0,-8.69,-24.95,10.88,134.31,5.050000000000001
2023-04-21 01-47-45-656271,-90,-110,1535,1460,-89.868,-109.829,1.88,4.0,-8.71,-24.95,10.93,134.28,5.050000000000001
2023-04-21 01-47-45-741701,-90,-110,1535,1460,-89.868,-109.829,1.89,4.01,-8.71,-24.94,10.98,134.26,5.059999999999999
2023-04-21 01-47-45-833670,-90,-110,1535,1460,-89.868,-109.829,1.92,4.01,-8.7,-24.94,11.03,134.22,5.059999999999999
2023-04-21 01-47-45-909454,-90,-110,1535,1460,-89.78,-109.829,1.92,4.03,-8.72,-24.94,11.07,134.2,5.059999999999999
2023-04-21 01-47-45-995068,-90,-110,1535,1460,-89.868,-109.829,1.92,4.02,-8.76,-24.96,11.02,134.23,5.039999999999999
2023-04-21 01-47-46-078764,-90,-110,1535,1460,-89.868,-109.829,1.88,4.01,-8.72,-24.96,10.84,134.3,5.039999999999999
2023-04-21 01-47-46-174959,-90,-110,1535,1460,-89.868,-109.829,1.81,4.03,-8.67,-24.97,10.6,134.38,5.030000000000001
2023-04-21 01-47-46-265484,-90,-110,1535,1460,-89.868,-109.829,1.82,4.02,-8.7,-24.98,10.57,134.37,5.02
2023-04-21 01-47-46-346779,-90,-110,1535,1460,-89.868,-109.829,1.83,4.05,-8.69,-24.97,10.63,134.34,5.030000000000001
2023-04-21 01-47-46-430270,-90,-110,1535,1460,-89.868,-109.829,1.86,4.03,-8.73,-24.96,10.74,134.29,5.039999999999999
2023-04-21 01-47-46-515409,-90,-110,1535,1460,-89.868,-109.829,1.89,4.05,-8.72,-24.95,10.85,134.26,5.050000000000001
2023-04-21 01-47-46-601929,-90,-110,1535,1460,-89.868,-109.829,1.9,4.02,-8.73,-24.96,10.92,134.24,5.039999999999999
2023-04-21 01-47-46-687717,-90,-110,1535,1460,-89.868,-109.829,1.91,4.02,-8.72,-24.97,10.95,134.23,5.030000000000001
2023-04-21 01-47-46-766189,-90,-110,1535,1460,-89.868,-109.829,1.9,4.01,-8.71,-24.98,10.95,134.24,5.02
2023-04-21 01-47-46-853396,-90,-110,1535,1460,-89.868,-109.829,1.89,4.03,-8.71,-24.98,10.91,134.27,5.02
2023-04-21 01-47-46-936003,-90,-110,1534,1461,-89.868,-109.829,1.85,4.01,-8.68,-25.0,10.83,134.29,5.0
2023-04-21 01-47-47-021941,-90,-110,1535,1460,-89.868,-109.829,1.87,4.03,-8.69,-25.0,10.79,134.3,5.0
2023-04-21 01-47-47-110541,-90,-110,1534,1461,-89.868,-109.829,1.83,4.03,-8.64,-25.01,10.79,134.29,4.989999999999998
2023-04-21 01-47-47-195334,-90,-110,1535,1460,-89.868,-109.829,1.9,4.03,-8.75,-25.0,10.89,134.23,5.0
2023-04-21 01-47-47-279609,-90,-110,1535,1460,-89.868,-109.829,1.91,4.07,-8.7,-24.99,10.93,134.22,5.010000000000002
2023-04-21 01-47-47-365881,-90,-110,1535,1460,-89.868,-109.829,1.92,4.02,-8.71,-24.97,10.99,134.2,5.030000000000001
2023-04-21 01-47-47-448246,-90,-110,1535,1460,-89.868,-109.829,1.92,4.01,-8.75,-24.97,11.05,134.18,5.030000000000001
2023-04-21 01-47-47-532697,-90,-110,1535,1460,-89.868,-109.829,1.92,4.02,-8.73,-24.97,10.99,134.2,5.030000000000001
2023-04-21 01-47-47-621048,-90,-110,1535,1460,-89.868,-109.829,1.88,4.0,-8.71,-24.98,10.87,134.24,5.02
2023-04-21 01-47-47-703774,-90,-110,1535,1460,-89.868,-109.829,1.87,4.03,-8.7,-24.99,10.78,134.26,5.010000000000002
2023-04-21 01-47-47-789232,-90,-110,1534,1461,-89.868,-109.829,1.85,4.05,-8.68,-25.0,10.73,134.28,5.0
2023-04-21 01-47-47-875548,-90,-110,1535,1460,-89.868,-109.829,1.86,4.03,-8.7,-25.0,10.78,134.25,5.0
2023-04-21 01-47-47-959144,-90,-110,1534,1461,-89.868,-109.829,1.89,4.04,-8.64,-25.01,10.89,134.19,4.989999999999998
2023-04-21 01-47-48-046513,-90,-110,1535,1460,-89.868,-109.829,1.93,4.04,-8.62,-25.0,11.13,134.09,5.0
2023-04-21 01-47-48-133551,-90,-110,1535,1460,-89.868,-109.829,2.01,4.0,-8.66,-24.95,11.4,133.97,5.050000000000001
2023-04-21 01-47-48-219182,-90,-110,1535,1460,-89.868,-109.829,2.04,4.0,-8.69,-24.84,11.61,133.88,5.16
2023-04-21 01-47-48-306517,-90,-110,1535,1460,-89.868,-109.829,2.06,3.93,-8.87,-24.71,11.62,133.87,5.289999999999999
2023-04-21 01-47-48-389893,-90,-110,1535,1460,-89.868,-109.829,1.99,3.95,-8.79,-24.65,11.35,133.97,5.350000000000001
2023-04-21 01-47-48-474947,-90,-110,1535,1460,-89.78,-109.829,1.88,3.96,-8.74,-24.64,10.91,134.12,5.359999999999999
2023-04-21 01-47-48-563970,-90,-110,1535,1460,-89.868,-109.829,1.82,4.0,-8.72,-24.64,10.57,134.23,5.359999999999999
2023-04-21 01-47-48-632330,-90,-110,1535,1460,-89.868,-109.829,1.75,3.98,-8.72,-24.65,10.3,134.3,5.350000000000001
2023-04-21 01-47-48-717018,-90,-110,1535,1460,-89.868,-109.829,1.73,3.99,-8.71,-24.66,10.18,134.33,5.34
2023-04-21 01-47-48-802451,-90,-110,1535,1460,-89.868,-109.829,1.74,3.99,-8.7,-24.66,10.21,134.31,5.34
2023-04-21 01-47-48-887418,-90,-110,1535,1460,-89.868,-109.829,1.79,4.02,-8.72,-24.67,10.38,134.24,5.329999999999998
2023-04-21 01-47-48-974415,-90,-110,1535,1460,-89.868,-109.829,1.86,3.98,-8.76,-24.68,10.64,134.17,5.32
2023-04-21 01-47-49-058323,-90,-110,1535,1460,-89.868,-109.829,1.89,3.96,-8.75,-24.69,10.82,134.12,5.309999999999999
2023-04-21 01-47-49-128973,-90,-110,1535,1460,-89.868,-109.829,1.92,3.98,-8.75,-24.73,10.95,134.1,5.27
2023-04-21 01-47-49-214268,-90,-110,1535,1460,-89.868,-109.829,1.92,4.02,-8.77,-24.78,10.98,134.12,5.219999999999999
2023-04-21 01-47-49-301738,-90,-110,1535,1460,-89.868,-109.829,1.91,4.0,-8.71,-24.84,10.96,134.15,5.16
2023-04-21 01-47-49-385492,-90,-110,1535,1460,-89.868,-109.829,1.91,4.02,-8.71,-24.9,10.89,134.18,5.100000000000001
2023-04-21 01-47-49-471572,-90,-110,1535,1460,-89.868,-109.829,1.86,4.02,-8.7,-24.96,10.82,134.21,5.039999999999999
2023-04-21 01-47-49-560127,-90,-110,1534,1461,-89.868,-109.829,1.84,4.03,-8.69,-25.03,10.74,134.24,4.969999999999999
2023-04-21 01-47-49-646095,-90,-110,1534,1461,-89.868,-109.829,1.86,4.07,-8.69,-25.08,10.71,134.24,4.920000000000002
2023-04-21 01-47-49-731474,-90,-110,1534,1461,-89.868,-109.829,1.84,4.04,-8.64,-25.12,10.73,134.23,4.879999999999999
2023-04-21 01-47-49-819029,-90,-110,1534,1461,-89.78,-109.829,1.89,4.05,-8.65,-25.16,10.89,134.15,4.84
2023-04-21 01-47-49-904060,-90,-110,1534,1461,-89.868,-109.829,1.93,4.05,-8.67,-25.15,11.13,134.07,4.850000000000001
2023-04-21 01-47-49-988753,-90,-110,1534,1461,-89.868,-109.829,1.98,4.04,-8.68,-25.14,11.34,133.99,4.859999999999999
2023-04-21 01-47-50-075663,-90,-110,1534,1461,-89.868,-109.829,2.02,4.08,-8.64,-25.11,11.52,133.92,4.890000000000001
2023-04-21 01-47-50-162117,-90,-110,1534,1461,-89.868,-109.829,2.04,4.03,-8.68,-25.07,11.69,133.85,4.93
2023-04-21 01-47-50-249543,-90,-110,1535,1460,-89.868,-109.829,2.04,4.0,-8.76,-24.99,11.75,133.82,5.010000000000002
2023-04-21 01-47-50-337579,-90,-110,1535,1460,-89.868,-109.829,2.05,4.01,-8.75,-24.89,11.63,133.89,5.109999999999999
2023-04-21 01-47-50-420530,-90,-110,1535,1460,-89.868,-109.829,1.97,3.99,-8.8,-24.81,11.32,134.0,5.190000000000001
2023-04-21 01-47-50-507949,-90,-110,1535,1460,-89.868,-109.829,1.84,3.98,-8.71,-24.76,10.83,134.19,5.239999999999998
2023-04-21 01-47-50-592158,-90,-110,1535,1460,-89.868,-109.829,1.79,3.99,-8.71,-24.75,10.41,134.34,5.25
2023-04-21 01-47-50-679175,-90,-110,1535,1460,-89.868,-109.829,1.72,3.97,-8.7,-24.74,10.17,134.43,5.260000000000002
2023-04-21 01-47-50-764341,-90,-110,1535,1460,-89.868,-109.829,1.7,4.0,-8.7,-24.74,10.09,134.47,5.260000000000002
2023-04-21 01-47-50-852044,-90,-110,1535,1460,-89.868,-109.829,1.75,4.03,-8.76,-24.75,10.18,134.44,5.25
2023-04-21 01-47-50-937106,-90,-110,1535,1460,-89.868,-109.829,1.79,3.99,-8.73,-24.74,10.37,134.41,5.260000000000002
2023-04-21 01-47-51-020550,-90,-110,1535,1460,-89.868,-109.829,1.84,3.98,-8.74,-24.74,10.57,134.38,5.260000000000002
2023-04-21 01-47-51-107702,-90,-110,1535,1460,-89.868,-109.829,1.89,4.0,-8.76,-24.77,10.8,134.34,5.23
2023-04-21 01-47-51-194747,-90,-110,1535,1460,-89.868,-109.829,1.94,4.0,-8.72,-24.82,10.94,134.34,5.18
2023-04-21 01-47-51-281080,-90,-110,1535,1460,-89.868,-109.829,1.93,4.03,-8.72,-24.88,11.01,134.33,5.120000000000001
2023-04-21 01-47-51-368888,-90,-110,1535,1460,-89.868,-109.829,1.92,4.0,-8.7,-24.95,11.03,134.34,5.050000000000001
2023-04-21 01-47-51-463277,-90,-110,1534,1461,-89.868,-109.829,1.92,4.04,-8.73,-25.02,10.99,134.34,4.98
2023-04-21 01-47-51-537029,-90,-110,1534,1461,-89.868,-109.829,1.88,4.01,-8.7,-25.1,10.9,134.35,4.899999999999999
2023-04-21 01-47-51-624456,-90,-110,1534,1461,-89.868,-109.829,1.85,4.04,-8.63,-25.16,10.83,134.36,4.84
2023-04-21 01-47-51-708625,-90,-110,1534,1461,-89.868,-109.829,1.86,4.08,-8.66,-25.2,10.86,134.31,4.800000000000001
2023-04-21 01-47-51-795472,-90,-110,1534,1461,-89.868,-109.829,1.9,4.05,-8.68,-25.23,11.0,134.21,4.77
2023-04-21 01-47-51-882334,-90,-110,1534,1461,-89.868,-109.829,1.91,4.07,-8.68,-25.23,11.11,134.15,4.77
2023-04-21 01-47-51-968296,-90,-110,1534,1461,-89.868,-109.829,1.95,4.06,-8.67,-25.23,11.22,134.09,4.77
2023-04-21 01-47-52-055763,-90,-110,1534,1461,-89.868,-109.829,1.93,4.07,-8.66,-25.2,11.31,134.05,4.800000000000001
2023-04-21 01-47-52-149562,-90,-110,1534,1461,-89.868,-109.829,1.98,4.06,-8.63,-25.17,11.4,134.01,4.829999999999998
2023-04-21 01-47-52-234503,-90,-110,1534,1461,-89.868,-109.829,1.99,4.03,-8.65,-25.12,11.54,133.93,4.879999999999999
2023-04-21 01-47-52-315714,-90,-110,1534,1461,-89.868,-109.829,2.04,4.04,-8.66,-25.06,11.67,133.87,4.940000000000001
2023-04-21 01-47-52-397097,-90,-110,1535,1460,-89.868,-109.829,2.05,4.01,-8.76,-24.98,11.71,133.84,5.02
2023-04-21 01-47-52-487847,-90,-110,1535,1460,-89.868,-109.829,2.0,4.0,-8.72,-24.89,11.51,133.91,5.109999999999999
2023-04-21 01-47-52-566796,-90,-110,1535,1460,-89.868,-109.829,1.93,3.99,-8.8,-24.81,11.19,134.03,5.190000000000001
2023-04-21 01-47-52-655697,-90,-110,1535,1460,-89.868,-109.829,1.85,3.99,-8.73,-24.76,10.76,134.19,5.239999999999998
2023-04-21 01-47-52-741522,-90,-110,1535,1460,-89.868,-109.829,1.77,3.98,-8.71,-24.75,10.43,134.31,5.25
2023-04-21 01-47-52-815951,-90,-110,1535,1460,-89.868,-109.829,1.72,3.98,-8.7,-24.75,10.24,134.39,5.25
2023-04-21 01-47-52-901923,-90,-110,1535,1460,-89.868,-109.829,1.73,4.0,-8.72,-24.75,10.18,134.42,5.25
