Timestamp_log,left_angle,right_angle,left_thrust,right_thrust,read_left_angle,read_right_angle,accel_x,accel_y,accel_z,roll,pitch,yaw,error
2023-05-05 13-41-15-797561,0,160,1562,1439,-89.868,-110.005,0.44,-0.2,-9.77,1.05,2.4,178.6,26.05
2023-05-05 13-41-16-352499,0,160,1562,1439,-89.868,-110.005,0.39,-0.17,-10.03,0.67,2.21,178.62,25.67
2023-05-05 13-41-16-917141,0,160,1554,1446.0,-89.868,-110.005,0.44,0.79,-9.74,-5.2,2.42,178.13,19.8
2023-05-05 13-41-17-508398,0,160,1544,1456.0,-89.868,-110.005,0.95,2.16,-9.39,-13.01,5.58,174.86,11.99
2023-05-05 13-41-18-092488,0,160,1540,1460.0,-89.868,-110.005,1.45,2.65,-9.17,-16.19,8.5,171.47,8.809999999999999
2023-05-05 13-41-18-659120,0,160,1546,1454.0,-89.868,-110.005,1.94,2.16,-9.27,-13.12,11.29,170.44,11.88
2023-05-05 13-41-19-219421,0,160,1555,1445.0,-89.868,-110.093,2.17,1.03,-9.47,-6.54,12.61,172.85,18.46
2023-05-05 13-41-19-785478,0,160,1560,1440.0,-89.868,-110.005,2.13,0.32,-9.67,-2.15,11.86,176.44,22.85
2023-05-05 13-41-20-360202,0,160,1558,1442.0,-89.868,-110.093,1.06,0.52,-9.75,-3.16,5.75,178.21,21.84
2023-05-05 13-41-20-900874,0,160,1552,1448.0,-89.868,-110.005,0.43,1.14,-9.67,-7.05,2.34,177.33,17.95
2023-05-05 13-41-21-455936,0,160,1548,1452.0,-89.868,-110.005,0.71,1.77,-9.56,-10.59,3.95,173.71,14.41
2023-05-05 13-41-22-009647,0,160,1547,1453.0,-89.868,-110.093,1.08,1.92,-9.46,-11.68,6.33,169.84,13.32
2023-05-05 13-41-22-570381,0,160,1550,1450.0,-89.868,-110.093,1.49,1.56,-9.49,-9.53,8.78,167.99,15.47
2023-05-05 13-41-23-125558,0,160,1555,1445.0,-89.868,-110.005,1.79,0.94,-9.62,-5.84,10.36,168.89,19.16
2023-05-05 13-41-23-676480,0,160,1558,1442.0,-89.78,-110.005,1.53,0.57,-9.74,-3.63,8.44,171.12,21.37
2023-05-05 13-41-24-244700,0,160,1555,1445.0,-89.868,-110.005,0.97,0.79,-9.72,-4.89,5.43,171.96,20.11
2023-05-05 13-41-24-819690,0,160,1551,1449.0,-89.78,-110.005,0.87,1.34,-9.64,-8.03,4.8,170.8,16.97
2023-05-05 13-41-25-382367,0,160,1548,1452.0,-89.868,-110.005,0.63,1.71,-9.54,-10.34,3.55,168.89,14.66
2023-05-05 13-41-25-943458,0,160,1548,1452.0,-89.868,-110.005,1.18,1.75,-9.48,-10.72,6.99,165.91,14.28
2023-05-05 13-41-26-510307,0,160,1552,1448.0,-89.868,-110.005,1.8,1.33,-9.5,-8.19,10.59,165.33,16.810000000000002
2023-05-05 13-41-27-083654,0,160,1557,1443.0,-89.868,-110.093,2.2,0.74,-9.59,-4.6,12.72,167.63,20.4
2023-05-05 13-41-27-650066,0,160,1556,1444.0,-89.868,-110.005,2.16,0.67,-9.55,-4.34,12.45,170.33,20.66
2023-05-05 13-41-28-222464,0,160,1552,1448.0,-89.868,-110.005,2.42,1.18,-9.42,-7.47,14.18,171.56,17.53
2023-05-05 13-41-28-772458,0,160,1547,1453.0,-89.868,-110.093,2.93,1.75,-9.09,-10.93,17.25,171.95,14.07
2023-05-05 13-41-29-324217,0,160,1546,1454.0,-89.78,-110.005,3.62,1.83,-8.87,-12.0,21.5,172.16,13.0
2023-05-05 13-41-29-877720,0,160,1549,1451.0,-89.868,-110.093,4.12,1.6,-8.77,-10.33,24.38,173.79,14.67
2023-05-05 13-41-30-449604,0,160,1549,1451.0,-89.868,-110.005,3.75,1.48,-8.86,-9.79,22.66,172.58,15.21
2023-05-05 13-41-31-001536,0,160,1552,1448.0,-89.868,-110.005,3.52,1.28,-9.05,-8.14,20.8,172.62,16.86
2023-05-05 13-41-31-552842,0,160,1553,1447.0,-89.868,-110.005,3.18,1.05,-9.24,-6.87,18.77,172.92,18.13
2023-05-05 13-41-32-127481,0,160,1552,1448.0,-89.78,-110.005,3.16,1.2,-9.2,-7.48,18.83,172.47,17.52
2023-05-05 13-41-32-689345,0,160,1551,1449.0,-89.868,-110.005,3.31,1.34,-9.1,-8.48,19.55,172.3,16.52
2023-05-05 13-41-33-250488,0,160,1550,1450.0,-89.78,-110.093,3.63,1.41,-9.02,-9.23,21.56,172.12,15.77
2023-05-05 13-41-33-806227,0,160,1549,1451.0,-89.78,-110.005,3.73,1.51,-8.91,-9.92,22.23,172.06,15.08
2023-05-05 13-41-34-356700,0,160,1550,1450.0,-89.868,-110.005,3.53,1.46,-8.95,-9.43,21.21,172.11,15.57
2023-05-05 13-41-34-923703,0,160,1551,1449.0,-89.868,-110.005,3.32,1.34,-9.12,-8.44,19.44,171.87,16.560000000000002
2023-05-05 13-41-35-471092,0,160,1553,1447.0,-89.868,-110.005,2.9,1.17,-9.31,-7.45,16.96,171.75,17.55
2023-05-05 13-41-36-034291,0,160,1551,1449.0,-89.868,-110.093,2.91,1.23,-9.27,-8.01,17.18,171.11,16.990000000000002
2023-05-05 13-41-36-584712,0,160,1550,1450.0,-89.78,-110.005,3.25,1.44,-9.12,-9.16,19.25,170.72,15.84
2023-05-05 13-41-37-135236,0,160,1549,1451.0,-89.868,-110.005,3.46,1.5,-9.0,-9.63,20.45,170.95,15.37
2023-05-05 13-41-37-706475,0,160,1551,1449.0,-89.868,-110.005,3.46,1.21,-9.39,-8.31,19.31,171.39,16.689999999999998
2023-05-05 13-41-38-249483,0,160,1552,1448.0,-89.868,-110.005,2.98,1.22,-9.22,-7.52,17.57,171.23,17.48
2023-05-05 13-41-38-802710,0,160,1551,1449.0,-89.868,-110.005,3.12,1.31,-9.19,-8.2,18.22,171.01,16.8
2023-05-05 13-41-39-349658,0,160,1550,1450.0,-89.868,-110.005,3.35,1.43,-9.07,-9.2,19.95,170.66,15.8
2023-05-05 13-41-39-898231,0,160,1549,1451.0,-89.78,-110.093,3.51,1.54,-8.95,-9.87,20.9,170.69,15.13
2023-05-05 13-41-40-450229,0,160,1550,1450.0,-89.868,-110.005,3.42,1.49,-8.94,-9.16,20.32,170.88,15.84
2023-05-05 13-41-40-995912,0,160,1551,1449.0,-89.868,-110.005,3.15,1.33,-9.15,-8.5,18.52,170.81,16.5
2023-05-05 13-41-41-542274,0,160,1552,1448.0,-89.868,-110.093,2.89,1.28,-9.28,-8.09,17.09,170.47,16.91
2023-05-05 13-41-42-083287,0,160,1551,1449.0,-89.868,-110.005,3.07,1.34,-9.19,-8.62,18.08,170.2,16.380000000000003
