Timestamp_log,left_angle,right_angle,left_thrust,right_thrust,read_left_angle,read_right_angle,accel_x,accel_y,accel_z,roll,pitch,yaw,error
2023-04-21 00-08-19-928437,-90,-110,1558,1558,-89.604,-110.005,0.15,1.21,-9.7,-7.28,0.71,148.99,22.72
2023-04-21 00-08-20-100284,-90,-110,1547,1547,-89.692,-110.005,0.15,1.22,-9.7,-7.28,0.71,148.99,22.72
2023-04-21 00-08-20-265125,-90,-110,1547,1547,-89.604,-110.005,0.15,1.09,-9.64,-7.28,0.71,148.99,22.72
2023-04-21 00-08-20-428904,-90,-110,1547,1547,-89.604,-110.005,0.16,1.24,-9.71,-7.28,0.72,149.01,22.72
2023-04-21 00-08-20-600933,-90,-110,1547,1547,-89.604,-110.005,0.13,1.22,-9.7,-7.27,0.72,149.01,22.73
2023-04-21 00-08-20-768569,-90,-110,1547,1547,-89.604,-110.005,0.14,1.16,-9.71,-7.28,0.72,149.01,22.72
2023-04-21 00-08-20-928786,-90,-110,1547,1547,-89.604,-110.005,0.17,1.16,-9.73,-7.26,0.71,149.0,22.740000000000002
2023-04-21 00-08-21-077446,-90,-110,1547,1547,-89.604,-110.005,0.14,1.3,-9.66,-7.26,0.71,149.0,22.740000000000002
2023-04-21 00-08-21-242645,-90,-110,1547,1547,-89.604,-110.005,0.15,1.18,-9.71,-7.28,0.72,149.0,22.72
2023-04-21 00-08-21-410561,-90,-110,1547,1547,-89.604,-110.005,0.16,1.09,-9.78,-7.29,0.7,148.99,22.71
2023-04-21 00-08-21-574430,-90,-110,1547,1547,-89.604,-110.005,0.12,1.22,-9.68,-7.31,0.69,148.98,22.69
2023-04-21 00-08-21-735888,-90,-110,1547,1547,-89.604,-110.005,0.15,1.21,-9.74,-7.33,0.65,148.97,22.67
2023-04-21 00-08-21-908312,-90,-110,1547,1547,-89.604,-110.005,0.16,1.26,-9.69,-7.31,0.66,149.0,22.69
2023-04-21 00-08-22-073741,-90,-110,1547,1547,-89.604,-110.005,0.14,1.27,-9.73,-7.33,0.66,148.94,22.67
2023-04-21 00-08-22-237863,-90,-110,1547,1547,-89.604,-110.005,0.14,1.23,-9.71,-7.31,0.67,148.93,22.69
2023-04-21 00-08-22-392286,-90,-110,1547,1547,-89.604,-110.005,0.18,1.17,-9.71,-7.29,0.67,148.95,22.71
2023-04-21 00-08-22-553996,-90,-110,1547,1547,-89.604,-110.005,0.13,1.13,-9.68,-7.29,0.67,148.97,22.71
2023-04-21 00-08-22-715901,-90,-110,1547,1547,-89.604,-110.005,0.14,1.23,-9.71,-7.3,0.69,148.94,22.7
2023-04-21 00-08-22-886150,-90,-110,1547,1547,-89.604,-110.005,0.17,1.23,-9.7,-7.28,0.69,148.96,22.72
2023-04-21 00-08-23-054662,-90,-110,1547,1547,-89.604,-110.005,0.14,1.23,-9.72,-7.29,0.68,148.92,22.71
2023-04-21 00-08-23-211974,-90,-110,1547,1547,-89.604,-110.005,0.13,1.17,-9.69,-7.3,0.68,148.91,22.7
2023-04-21 00-08-23-374844,-90,-110,1547,1547,-89.604,-110.005,0.14,1.24,-9.67,-7.27,0.68,148.95,22.73
2023-04-21 00-08-23-540723,-90,-110,1547,1547,-89.604,-110.005,0.14,1.25,-9.74,-7.28,0.69,148.93,22.72
2023-04-21 00-08-23-700846,-90,-110,1547,1547,-89.604,-110.005,0.18,1.24,-9.75,-7.3,0.68,148.93,22.7
2023-04-21 00-08-23-863259,-90,-110,1547,1547,-89.604,-110.005,0.16,1.26,-9.75,-7.31,0.68,148.94,22.69
2023-04-21 00-08-24-024399,-90,-110,1547,1547,-89.604,-110.005,0.12,1.24,-9.64,-7.3,0.68,148.95,22.7
2023-04-21 00-08-24-200023,-90,-110,1547,1547,-89.604,-110.005,0.14,1.26,-9.65,-7.25,0.68,149.01,22.75
2023-04-21 00-08-24-370807,-90,-110,1547,1547,-89.604,-110.005,0.14,1.38,-9.71,-7.26,0.67,149.0,22.740000000000002
2023-04-21 00-08-24-534782,-90,-110,1547,1547,-89.604,-110.005,0.15,1.19,-9.71,-7.25,0.67,149.0,22.75
2023-04-21 00-08-24-696184,-90,-110,1547,1547,-89.604,-110.005,0.16,1.25,-9.68,-7.25,0.67,148.99,22.75
2023-04-21 00-08-24-852011,-90,-110,1547,1547,-89.604,-110.005,0.12,1.22,-9.73,-7.25,0.67,148.99,22.75
2023-04-21 00-08-25-015520,-90,-110,1547,1547,-89.604,-110.005,0.16,1.22,-9.72,-7.26,0.69,148.98,22.740000000000002
2023-04-21 00-08-25-178628,-90,-110,1547,1547,-89.604,-110.005,0.11,1.24,-9.7,-7.26,0.67,149.0,22.740000000000002
2023-04-21 00-08-25-348413,-90,-110,1547,1547,-89.604,-110.005,0.17,1.31,-9.69,-7.25,0.69,149.01,22.75
2023-04-21 00-08-25-500088,-90,-110,1547,1547,-89.604,-110.005,0.13,1.17,-9.72,-7.25,0.69,149.02,22.75
2023-04-21 00-08-25-659631,-90,-110,1547,1547,-89.604,-110.005,0.13,1.09,-9.72,-7.25,0.7,149.0,22.75
2023-04-21 00-08-25-826965,-90,-110,1547,1547,-89.604,-110.005,0.14,1.24,-9.7,-7.27,0.7,148.96,22.73
2023-04-21 00-08-25-992862,-90,-110,1547,1547,-89.604,-110.005,0.14,1.22,-9.7,-7.27,0.68,148.96,22.73
2023-04-21 00-08-26-152006,-90,-110,1547,1547,-89.604,-110.005,0.14,1.11,-9.68,-7.29,0.67,148.94,22.71
2023-04-21 00-08-26-315980,-90,-110,1547,1547,-89.604,-110.005,0.13,1.26,-9.62,-7.28,0.68,148.97,22.72
2023-04-21 00-08-26-480149,-90,-110,1547,1547,-89.604,-110.005,0.15,1.13,-9.73,-7.27,0.69,148.99,22.73
2023-04-21 00-08-26-647851,-90,-110,1547,1547,-89.604,-110.005,0.16,1.31,-9.77,-7.41,0.72,149.0,22.59
2023-04-21 00-08-26-814686,-90,-110,1547,1547,-89.604,-110.005,0.21,1.39,-9.71,-7.72,0.67,148.94,22.28
2023-04-21 00-08-26-978329,-90,-110,1546,1546,-89.604,-110.005,0.19,1.45,-9.89,-8.08,0.16,148.89,21.92
2023-04-21 00-08-27-154572,-90,-110,1545,1545,-89.604,-110.005,-0.29,1.56,-9.59,-8.91,-1.87,148.62,21.09
2023-04-21 00-08-27-321228,-90,-110,1545,1545,-89.604,-110.005,-0.44,1.56,-9.59,-9.51,-1.76,147.91,20.490000000000002
2023-04-21 00-08-27-487049,-90,-110,1544,1544,-89.604,-110.005,0.2,1.79,-9.65,-10.5,0.64,147.1,19.5
2023-04-21 00-08-27-643704,-90,-110,1543,1543,-89.604,-110.005,0.49,1.95,-9.53,-11.54,1.82,146.22,18.46
2023-04-21 00-08-27-817677,-90,-110,1542,1542,-89.604,-110.005,0.03,2.04,-9.49,-12.36,1.01,145.21,17.64
2023-04-21 00-08-27-986009,-90,-110,1541,1541,-89.604,-110.005,0.05,2.2,-9.63,-13.15,0.53,144.37,16.85
2023-04-21 00-08-28-149309,-90,-110,1540,1540,-89.604,-110.005,0.13,2.43,-9.66,-14.38,1.2,143.69,15.62
2023-04-21 00-08-28-320927,-90,-110,1538,1538,-89.604,-110.005,0.43,2.7,-9.49,-16.46,1.49,143.18,13.54
2023-04-21 00-08-28-469509,-90,-110,1536,1536,-89.604,-110.005,0.17,3.08,-9.1,-18.22,1.35,142.41,11.780000000000001
2023-04-21 00-08-28-622501,-90,-110,1534,1534,-89.604,-110.005,0.24,3.3,-9.31,-19.89,1.89,141.26,10.11
2023-04-21 00-08-28-772938,-90,-110,1532,1532,-89.604,-110.005,0.48,3.61,-9.49,-21.79,2.03,140.7,8.21
2023-04-21 00-08-28-945865,-90,-110,1529,1529,-89.604,-110.005,0.22,4.11,-8.59,-24.9,1.34,139.79,5.100000000000001
2023-04-21 00-08-29-094767,-90,-110,1527,1527,-89.604,-110.005,0.19,4.5,-8.38,-26.87,0.34,138.95,3.129999999999999
2023-04-21 00-08-29-247985,-90,-110,1527,1527,-89.604,-110.005,-0.2,4.58,-8.57,-27.69,-0.86,138.08,2.3099999999999987
2023-04-21 00-08-29-415597,-90,-110,1527,1527,-89.604,-110.005,-0.17,4.6,-8.63,-28.14,-0.96,136.79,1.8599999999999994
2023-04-21 00-08-29-578900,-90,-110,1527,1527,-89.604,-110.005,0.01,4.73,-8.46,-28.48,-0.43,135.4,1.5199999999999996
2023-04-21 00-08-29-746517,-90,-110,1527,1527,-89.604,-110.005,0.02,4.58,-8.72,-28.22,-0.64,134.6,1.7800000000000011
2023-04-21 00-08-29-909871,-90,-110,1527,1527,-89.516,-110.005,-0.15,4.57,-8.68,-28.03,-1.0,133.93,1.9699999999999989
2023-04-21 00-08-30-072426,-90,-110,1527,1527,-89.604,-110.005,-0.08,4.47,-8.6,-28.04,-0.8,132.72,1.9600000000000009
2023-04-21 00-08-30-240737,-90,-110,1527,1527,-89.604,-110.005,-0.11,4.5,-8.77,-27.72,-0.57,131.55,2.280000000000001
2023-04-21 00-08-30-408166,-90,-110,1527,1527,-89.604,-110.005,-0.09,4.4,-8.79,-27.72,-0.54,130.71,2.280000000000001
2023-04-21 00-08-30-572482,-90,-110,1527,1527,-89.516,-110.005,0.03,4.59,-8.46,-28.02,-0.48,130.06,1.9800000000000004
2023-04-21 00-08-30-741214,-90,-110,1527,1527,-89.604,-110.005,-0.12,4.52,-8.68,-27.86,-0.51,129.16,2.1400000000000006
2023-04-21 00-08-30-903728,-90,-110,1527,1527,-89.604,-110.005,-0.02,4.55,-8.72,-27.8,0.23,128.17,2.1999999999999993
2023-04-21 00-08-31-080297,-90,-110,1527,1527,-89.604,-110.005,0.33,4.56,-8.61,-28.14,1.18,127.37,1.8599999999999994
2023-04-21 00-08-31-251175,-90,-110,1527,1527,-89.604,-110.005,0.17,4.66,-8.53,-28.27,1.34,126.77,1.7300000000000004
2023-04-21 00-08-31-413573,-90,-110,1527,1527,-89.604,-110.005,0.34,4.72,-8.65,-28.18,1.37,126.55,1.8200000000000003
2023-04-21 00-08-31-583658,-90,-110,1527,1527,-89.604,-110.005,0.23,4.61,-8.55,-28.4,1.31,126.17,1.6000000000000014
2023-04-21 00-08-31-744836,-90,-110,1527,1527,-89.604,-110.005,0.31,4.66,-8.54,-28.61,1.51,125.68,1.3900000000000006
2023-04-21 00-08-31-901385,-90,-110,1527,1527,-89.604,-110.005,0.29,4.69,-8.66,-28.67,1.54,125.39,1.3299999999999983
2023-04-21 00-08-32-064876,-90,-110,1527,1527,-89.604,-110.005,0.34,4.63,-8.52,-28.9,1.47,125.15,1.1000000000000014
2023-04-21 00-08-32-218078,-90,-110,1527,1527,-89.516,-110.005,0.32,4.65,-8.52,-29.27,1.94,124.44,0.7300000000000004
2023-04-21 00-08-32-392183,-90,-110,1527,1527,-89.516,-110.005,0.66,4.85,-8.5,-29.66,3.1,123.38,0.33999999999999986
2023-04-21 00-08-32-554624,-90,-110,1527,1527,-89.604,-110.005,0.5,4.81,-8.58,-29.82,3.31,123.03,0.17999999999999972
2023-04-21 00-08-32-718054,-90,-110,1527,1527,-89.604,-110.005,0.49,4.89,-8.34,-30.05,2.7,123.57,-0.05000000000000071
2023-04-21 00-08-32-886498,-90,-110,1527,1527,-89.604,-110.005,0.44,4.92,-8.41,-30.02,2.49,123.83,-0.019999999999999574
2023-04-21 00-08-33-056392,-90,-110,1527,1527,-89.604,-110.005,0.52,4.87,-8.49,-29.98,2.85,123.63,0.019999999999999574
2023-04-21 00-08-33-221578,-90,-110,1527,1527,-89.516,-110.005,0.55,4.88,-8.54,-29.98,2.72,123.78,0.019999999999999574
2023-04-21 00-08-33-388492,-90,-110,1527,1527,-89.604,-110.005,0.56,4.96,-8.36,-30.12,2.29,123.94,-0.120000000000001
2023-04-21 00-08-33-547375,-90,-110,1527,1527,-89.516,-110.005,0.29,4.87,-8.4,-30.05,2.16,123.69,-0.05000000000000071
2023-04-21 00-08-33-719716,-90,-110,1527,1527,-89.604,-110.005,0.49,4.86,-8.72,-29.69,2.2,123.59,0.3099999999999987
2023-04-21 00-08-33-864140,-90,-110,1527,1527,-89.516,-110.005,0.25,4.75,-8.51,-29.66,1.99,123.44,0.33999999999999986
2023-04-21 00-08-34-033799,-90,-110,1527,1527,-89.516,-110.005,0.46,4.91,-8.53,-29.61,1.99,123.62,0.39000000000000057
2023-04-21 00-08-34-187999,-90,-110,1527,1527,-89.604,-110.005,0.32,4.82,-8.44,-29.76,1.68,123.71,0.23999999999999844
2023-04-21 00-08-34-350152,-90,-110,1527,1527,-89.604,-110.005,0.22,4.83,-8.37,-29.78,1.4,123.7,0.21999999999999886
2023-04-21 00-08-34-517557,-90,-110,1527,1527,-89.604,-110.005,0.28,4.8,-8.47,-29.36,1.36,123.64,0.6400000000000006
2023-04-21 00-08-34-677501,-90,-110,1527,1527,-89.604,-110.005,0.21,4.57,-8.75,-28.88,1.23,123.63,1.120000000000001
2023-04-21 00-08-34-840069,-90,-110,1527,1527,-89.604,-110.005,0.27,4.7,-8.54,-28.7,1.11,123.61,1.3000000000000007
2023-04-21 00-08-35-004869,-90,-110,1527,1527,-89.604,-110.005,0.24,4.56,-8.7,-28.35,0.98,123.55,1.6499999999999986
2023-04-21 00-08-35-167435,-90,-110,1527,1527,-89.604,-110.005,0.24,4.7,-8.61,-28.16,0.96,123.4,1.8399999999999999
2023-04-21 00-08-35-315123,-90,-110,1527,1527,-89.516,-110.005,0.15,4.55,-8.64,-27.96,0.93,123.21,2.039999999999999
2023-04-21 00-08-35-489345,-90,-110,1527,1527,-89.604,-110.005,0.22,4.54,-8.71,-27.69,0.91,123.18,2.3099999999999987
2023-04-21 00-08-35-649958,-90,-110,1527,1527,-89.604,-110.005,0.15,4.4,-8.68,-27.54,0.8,123.12,2.460000000000001
2023-04-21 00-08-35-806397,-90,-110,1527,1527,-89.604,-110.005,0.13,4.35,-8.67,-27.45,0.88,123.04,2.5500000000000007
2023-04-21 00-08-35-980189,-90,-110,1527,1527,-89.604,-110.005,0.19,4.46,-8.54,-27.22,0.84,123.04,2.780000000000001
2023-04-21 00-08-36-155250,-90,-110,1528,1528,-89.516,-110.005,0.12,4.32,-8.63,-26.33,0.7,122.97,3.6700000000000017
2023-04-21 00-08-36-330177,-90,-110,1530,1530,-89.516,-110.005,0.21,4.23,-8.9,-25.06,0.62,123.04,4.940000000000001
2023-04-21 00-08-36-497373,-90,-110,1531,1531,-89.604,-110.005,0.02,4.0,-8.9,-23.91,-0.05,123.3,6.09
2023-04-21 00-08-36-661127,-90,-110,1533,1533,-89.604,-110.005,-0.14,3.74,-9.13,-22.3,-0.76,123.79,7.699999999999999
2023-04-21 00-08-36-841685,-90,-110,1534,1534,-89.604,-110.005,-0.14,3.43,-9.02,-20.73,-1.12,124.54,9.27
2023-04-21 00-08-37-009779,-90,-110,1536,1536,-89.604,-110.005,0.05,3.17,-9.34,-18.95,-1.58,125.16,11.05
2023-04-21 00-08-37-179159,-90,-110,1537,1537,-89.516,-110.005,-0.39,2.95,-8.99,-17.35,-2.16,124.86,12.649999999999999
2023-04-21 00-08-37-350891,-90,-110,1539,1539,-89.516,-110.005,-0.29,2.6,-9.71,-15.75,-1.93,124.22,14.25
2023-04-21 00-08-37-523108,-90,-110,1540,1540,-89.516,-110.005,-0.38,2.5,-9.23,-14.51,-1.35,123.88,15.49
2023-04-21 00-08-37-691961,-90,-110,1542,1542,-89.604,-110.005,-0.02,2.06,-9.6,-12.7,-1.26,124.77,17.3
2023-04-21 00-08-37-862037,-90,-110,1545,1545,-89.604,-110.005,-0.35,1.66,-9.65,-10.33,-3.06,126.06,19.67
2023-04-21 00-08-38-013561,-90,-110,1546,1546,-89.516,-110.005,-1.21,1.25,-10.19,-8.51,-4.33,126.48,21.490000000000002
2023-04-21 00-08-38-172990,-90,-110,1547,1547,-89.604,-110.005,0.31,1.04,-11.49,-7.67,-0.79,126.85,22.33
2023-04-21 00-08-38-335379,-90,-110,1547,1547,-89.604,-110.005,-0.59,1.34,-9.63,-7.35,-1.5,127.79,22.65
2023-04-21 00-08-38-488012,-90,-110,1547,1547,-89.516,-110.005,-0.22,1.23,-9.7,-7.14,-1.58,128.34,22.86
2023-04-21 00-08-38-659235,-90,-110,1547,1547,-89.516,-110.005,-0.27,1.17,-9.68,-7.04,-1.68,128.99,22.96
2023-04-21 00-08-38-833246,-90,-110,1548,1548,-89.604,-110.005,-0.28,1.15,-9.75,-6.97,-1.78,129.58,23.03
2023-04-21 00-08-39-003387,-90,-110,1548,1548,-89.516,-110.005,-0.29,1.12,-9.69,-6.9,-1.88,130.2,23.1
2023-04-21 00-08-39-169746,-90,-110,1548,1548,-89.516,-110.005,-0.3,1.11,-9.68,-6.83,-1.96,130.77,23.17
2023-04-21 00-08-39-328816,-90,-110,1548,1548,-89.516,-110.005,-0.34,1.15,-9.68,-6.79,-2.02,131.31,23.21
2023-04-21 00-08-39-503482,-90,-110,1548,1548,-89.604,-110.005,-0.33,1.14,-9.68,-6.77,-2.07,131.88,23.23
2023-04-21 00-08-39-660090,-90,-110,1548,1548,-89.604,-110.005,-0.33,1.17,-9.7,-6.78,-2.09,132.43,23.22
2023-04-21 00-08-39-817670,-90,-110,1548,1548,-89.604,-110.005,-0.34,1.13,-9.66,-6.82,-2.12,132.91,23.18
2023-04-21 00-08-39-982398,-90,-110,1548,1548,-89.604,-110.005,-0.3,1.14,-9.7,-6.82,-2.15,133.37,23.18
2023-04-21 00-08-40-146953,-90,-110,1548,1548,-89.604,-110.005,-0.34,0.99,-9.68,-6.81,-2.16,133.87,23.19
2023-04-21 00-08-40-310152,-90,-110,1548,1548,-89.604,-110.005,-0.34,1.2,-9.69,-6.79,-2.17,134.35,23.21
2023-04-21 00-08-40-473930,-90,-110,1548,1548,-89.516,-110.005,-0.33,1.1,-9.73,-6.78,-2.17,134.83,23.22
2023-04-21 00-08-40-628358,-90,-110,1548,1548,-89.516,-110.005,-0.34,1.06,-9.69,-6.77,-2.18,135.23,23.23
2023-04-21 00-08-40-786351,-90,-110,1548,1548,-89.516,-110.005,-0.32,1.14,-9.78,-6.79,-2.19,135.65,23.21
2023-04-21 00-08-40-943744,-90,-110,1548,1548,-89.604,-110.005,-0.36,1.09,-9.73,-6.8,-2.19,136.05,23.2
2023-04-21 00-08-41-101683,-90,-110,1548,1548,-89.516,-110.005,-0.35,1.11,-9.71,-6.8,-2.19,136.44,23.2
2023-04-21 00-08-41-257062,-90,-110,1548,1548,-89.516,-110.005,-0.34,1.09,-9.7,-6.8,-2.19,136.82,23.2
2023-04-21 00-08-41-427835,-90,-110,1548,1548,-89.604,-110.005,-0.34,1.21,-9.67,-6.77,-2.2,137.23,23.23
2023-04-21 00-08-41-578451,-90,-110,1548,1548,-89.604,-110.005,-0.35,1.15,-9.69,-6.77,-2.21,137.56,23.23
2023-04-21 00-08-41-738719,-90,-110,1548,1548,-89.604,-110.005,-0.35,1.07,-9.71,-6.76,-2.21,137.92,23.240000000000002
2023-04-21 00-08-41-895711,-90,-110,1548,1548,-89.604,-110.005,-0.36,1.17,-9.68,-6.76,-2.22,138.26,23.240000000000002
2023-04-21 00-08-42-062876,-90,-110,1548,1548,-89.604,-110.005,-0.34,1.08,-9.72,-6.76,-2.22,138.56,23.240000000000002
2023-04-21 00-08-42-222493,-90,-110,1548,1548,-89.516,-110.005,-0.37,1.08,-9.73,-6.78,-2.23,138.84,23.22
2023-04-21 00-08-42-383390,-90,-110,1548,1548,-89.604,-110.005,-0.35,1.13,-9.73,-6.76,-2.24,139.15,23.240000000000002
2023-04-21 00-08-42-545938,-90,-110,1548,1548,-89.516,-110.005,-0.32,1.25,-9.76,-6.78,-2.23,139.42,23.22
2023-04-21 00-08-42-706262,-90,-110,1548,1548,-89.604,-110.005,-0.34,1.08,-9.7,-6.78,-2.24,139.69,23.22
2023-04-21 00-08-42-866428,-90,-110,1548,1548,-89.516,-110.005,-0.34,1.26,-9.71,-6.78,-2.24,139.95,23.22
2023-04-21 00-08-43-032991,-90,-110,1548,1548,-89.604,-110.005,-0.36,1.18,-9.66,-6.77,-2.25,140.25,23.23
2023-04-21 00-08-43-193813,-90,-110,1548,1548,-89.516,-110.005,-0.35,1.08,-9.69,-6.79,-2.24,140.46,23.21
2023-04-21 00-08-43-360745,-90,-110,1548,1548,-89.604,-110.005,-0.36,1.16,-9.71,-6.8,-2.25,140.69,23.2
2023-04-21 00-08-43-517329,-90,-110,1548,1548,-89.604,-110.005,-0.35,1.18,-9.71,-6.78,-2.25,140.95,23.22
2023-04-21 00-08-43-691207,-90,-110,1548,1548,-89.516,-110.005,-0.36,1.18,-9.76,-6.77,-2.23,141.19,23.23
2023-04-21 00-08-43-863436,-90,-110,1548,1548,-89.604,-110.005,-0.34,1.15,-9.71,-6.79,-2.25,141.36,23.21
2023-04-21 00-08-44-035580,-90,-110,1548,1548,-89.604,-110.005,-0.36,1.03,-9.69,-6.8,-2.25,141.54,23.2
2023-04-21 00-08-44-206827,-90,-110,1548,1548,-89.604,-110.005,-0.35,1.12,-9.69,-6.8,-2.26,141.77,23.2
2023-04-21 00-08-44-375959,-90,-110,1548,1548,-89.604,-110.005,-0.36,1.12,-9.74,-6.79,-2.27,141.96,23.21
2023-04-21 00-08-44-541241,-90,-110,1548,1548,-89.604,-110.005,-0.34,1.16,-9.71,-6.79,-2.26,142.11,23.21
2023-04-21 00-08-44-718766,-90,-110,1548,1548,-89.604,-110.005,-0.36,1.14,-9.73,-6.79,-2.27,142.29,23.21
2023-04-21 00-08-44-892466,-90,-110,1548,1548,-89.604,-110.005,-0.35,1.07,-9.73,-6.79,-2.27,142.47,23.21
2023-04-21 00-08-45-064839,-90,-110,1548,1548,-89.604,-110.005,-0.35,1.24,-9.74,-6.79,-2.28,142.62,23.21
2023-04-21 00-08-45-235718,-90,-110,1548,1548,-89.516,-110.005,-0.33,1.26,-9.72,-6.79,-2.28,142.77,23.21
2023-04-21 00-08-45-401743,-90,-110,1548,1548,-89.604,-110.005,-0.35,1.12,-9.71,-6.79,-2.29,142.87,23.21
2023-04-21 00-08-45-560633,-90,-110,1548,1548,-89.604,-110.005,-0.33,1.22,-9.74,-6.79,-2.29,143.0,23.21
2023-04-21 00-08-45-727624,-90,-110,1548,1548,-89.604,-110.005,-0.34,1.14,-9.74,-6.8,-2.29,143.06,23.2
2023-04-21 00-08-45-901725,-90,-110,1548,1548,-89.604,-110.005,-0.35,1.17,-9.71,-6.8,-2.29,143.17,23.2
2023-04-21 00-08-46-066913,-90,-110,1548,1548,-89.604,-110.005,-0.37,1.22,-9.75,-6.81,-2.28,143.26,23.19
2023-04-21 00-08-46-239147,-90,-110,1548,1548,-89.516,-110.005,-0.35,1.06,-9.75,-6.82,-2.29,143.38,23.18
2023-04-21 00-08-46-408242,-90,-110,1548,1548,-89.604,-110.005,-0.35,1.18,-9.74,-6.81,-2.29,143.48,23.19
2023-04-21 00-08-46-572016,-90,-110,1548,1548,-89.516,-110.005,-0.35,1.2,-9.75,-6.83,-2.28,143.54,23.17
2023-04-21 00-08-46-738895,-90,-110,1548,1548,-89.516,-110.005,-0.36,1.16,-9.71,-6.8,-2.27,143.66,23.2
2023-04-21 00-08-46-900468,-90,-110,1548,1548,-89.516,-110.005,-0.36,1.18,-9.7,-6.8,-2.29,143.74,23.2
2023-04-21 00-08-47-056693,-90,-110,1548,1548,-89.604,-110.005,-0.37,1.05,-9.67,-6.82,-2.3,143.8,23.18
2023-04-21 00-08-47-221251,-90,-110,1548,1548,-89.604,-110.005,-0.35,1.1,-9.71,-6.81,-2.31,143.88,23.19
2023-04-21 00-08-47-392482,-90,-110,1548,1548,-89.604,-110.005,-0.35,1.06,-9.73,-6.82,-2.3,143.94,23.18
2023-04-21 00-08-47-559663,-90,-110,1548,1548,-89.516,-110.005,-0.36,1.18,-9.67,-6.81,-2.31,144.01,23.19
2023-04-21 00-08-47-732618,-90,-110,1548,1548,-89.516,-110.005,-0.35,1.22,-9.65,-6.8,-2.3,144.11,23.2
2023-04-21 00-08-47-901393,-90,-110,1548,1548,-89.604,-110.005,-0.37,1.16,-9.72,-6.81,-2.29,144.18,23.19
2023-04-21 00-08-48-056487,-90,-110,1548,1548,-89.516,-110.005,-0.35,1.2,-9.68,-6.82,-2.28,144.25,23.18
2023-04-21 00-08-48-217270,-90,-110,1548,1548,-89.604,-110.005,-0.34,1.11,-9.8,-6.81,-2.29,144.28,23.19
2023-04-21 00-08-48-380034,-90,-110,1548,1548,-89.604,-110.005,-0.35,1.15,-9.69,-6.81,-2.31,144.34,23.19
2023-04-21 00-08-48-559051,-90,-110,1548,1548,-89.516,-110.005,-0.4,1.05,-9.73,-6.81,-2.31,144.4,23.19
2023-04-21 00-08-48-724060,-90,-110,1548,1548,-89.604,-110.005,-0.31,1.11,-9.74,-6.81,-2.31,144.45,23.19
2023-04-21 00-08-48-903981,-90,-110,1548,1548,-89.516,-110.005,-0.35,1.1,-9.73,-6.82,-2.31,144.5,23.18
2023-04-21 00-08-49-070841,-90,-110,1548,1548,-89.604,-110.005,-0.37,1.16,-9.66,-6.84,-2.32,144.52,23.16
2023-04-21 00-08-49-229158,-90,-110,1548,1548,-89.604,-110.005,-0.36,1.0,-9.76,-6.85,-2.33,144.53,23.15
2023-04-21 00-08-49-404326,-90,-110,1548,1548,-89.604,-110.005,-0.36,1.16,-9.73,-6.86,-2.33,144.53,23.14
2023-04-21 00-08-49-577718,-90,-110,1548,1548,-89.604,-110.005,-0.35,1.08,-9.69,-6.86,-2.34,144.59,23.14
2023-04-21 00-08-49-743581,-90,-110,1548,1548,-89.604,-110.005,-0.36,1.21,-9.71,-6.84,-2.34,144.66,23.16
2023-04-21 00-08-49-904240,-90,-110,1548,1548,-89.604,-110.005,-0.37,1.19,-9.69,-6.82,-2.35,144.73,23.18
2023-04-21 00-08-50-072055,-90,-110,1548,1548,-89.604,-110.005,-0.36,1.22,-9.7,-6.81,-2.34,144.79,23.19
2023-04-21 00-08-50-231572,-90,-110,1548,1548,-89.604,-110.005,-0.36,1.09,-9.7,-6.8,-2.34,144.81,23.2
2023-04-21 00-08-50-406337,-90,-110,1548,1548,-89.604,-110.005,-0.36,1.22,-9.73,-6.79,-2.35,144.83,23.21
2023-04-21 00-08-50-570089,-90,-110,1548,1548,-89.604,-110.005,-0.36,1.09,-9.72,-6.8,-2.35,144.85,23.2
2023-04-21 00-08-50-746743,-90,-110,1548,1548,-89.604,-110.005,-0.36,1.09,-9.75,-6.79,-2.36,144.87,23.21
2023-04-21 00-08-50-917558,-90,-110,1548,1548,-89.604,-110.005,-0.37,1.18,-9.72,-6.79,-2.35,144.91,23.21
2023-04-21 00-08-51-094723,-90,-110,1548,1548,-89.516,-110.005,-0.38,1.23,-9.7,-6.78,-2.35,144.92,23.22
2023-04-21 00-08-51-253583,-90,-110,1548,1548,-89.604,-110.005,-0.39,1.19,-9.71,-6.77,-2.35,144.94,23.23
2023-04-21 00-08-51-432336,-90,-110,1548,1548,-89.604,-110.005,-0.37,1.15,-9.69,-6.77,-2.35,144.94,23.23
2023-04-21 00-08-51-589609,-90,-110,1548,1548,-89.516,-110.005,-0.37,1.15,-9.78,-6.78,-2.34,144.94,23.22
2023-04-21 00-08-51-758055,-90,-110,1548,1548,-89.516,-110.005,-0.38,1.16,-9.68,-6.79,-2.34,144.94,23.21
2023-04-21 00-08-51-932286,-90,-110,1548,1548,-89.604,-110.005,-0.34,1.26,-9.65,-6.76,-2.34,145.04,23.240000000000002
2023-04-21 00-08-52-096559,-90,-110,1548,1548,-89.604,-110.005,-0.37,1.07,-9.79,-6.77,-2.33,145.03,23.23
2023-04-21 00-08-52-267371,-90,-110,1548,1548,-89.516,-110.005,-0.37,1.05,-9.7,-6.76,-2.33,145.07,23.240000000000002
2023-04-21 00-08-52-420608,-90,-110,1548,1548,-89.516,-110.005,-0.36,1.1,-9.73,-6.78,-2.34,145.02,23.22
2023-04-21 00-08-52-588842,-90,-110,1548,1548,-89.516,-110.005,-0.34,1.15,-9.72,-6.81,-2.34,145.0,23.19
2023-04-21 00-08-52-751553,-90,-110,1548,1548,-89.604,-110.005,-0.35,1.07,-9.68,-6.81,-2.34,145.01,23.19
2023-04-21 00-08-52-918434,-90,-110,1548,1548,-89.516,-110.005,-0.35,1.06,-9.72,-6.82,-2.35,145.01,23.18
2023-04-21 00-08-53-079830,-90,-110,1548,1548,-89.604,-110.005,-0.37,1.12,-9.7,-6.82,-2.35,145.02,23.18
2023-04-21 00-08-53-245137,-90,-110,1548,1548,-89.604,-110.005,-0.37,1.11,-9.75,-6.8,-2.36,145.03,23.2
2023-04-21 00-08-53-419899,-90,-110,1548,1548,-89.516,-110.005,-0.5,1.06,-9.68,-6.79,-2.44,144.97,23.21
2023-04-21 00-08-53-592427,-90,-110,1548,1548,-89.604,-110.005,-0.39,0.91,-9.77,-6.57,-2.41,145.07,23.43
2023-04-21 00-08-53-765151,-90,-110,1548,1548,-89.604,-110.005,-0.33,1.32,-9.69,-6.71,-2.48,145.01,23.29
2023-04-21 00-08-53-923473,-90,-110,1548,1548,-89.604,-110.005,0.08,0.49,-10.16,-6.29,-2.33,145.09,23.71
2023-04-21 00-08-54-090920,-90,-110,1548,1548,-89.516,-110.005,-0.7,1.21,-9.6,-6.63,-2.52,145.06,23.37
2023-04-21 00-08-54-250835,-90,-110,1547,1547,-89.516,-110.005,-0.05,1.23,-10.01,-7.65,-1.48,144.99,22.35
2023-04-21 00-08-54-416722,-90,-110,1545,1545,-89.604,-110.005,0.04,1.42,-9.94,-9.02,0.55,144.24,20.98
2023-04-21 00-08-54-581913,-90,-110,1542,1542,-89.516,-110.005,0.23,1.91,-9.81,-11.52,1.6,143.49,18.48
2023-04-21 00-08-54-752767,-90,-110,1540,1540,-89.604,-110.005,0.04,2.37,-9.51,-14.33,0.8,143.36,15.67
2023-04-21 00-08-54-916827,-90,-110,1536,1536,-89.604,-110.005,0.04,2.85,-9.39,-17.58,-0.21,143.4,12.420000000000002
2023-04-21 00-08-55-097588,-90,-110,1532,1532,-89.604,-110.005,-0.1,3.49,-9.01,-21.48,-0.69,142.9,8.52
2023-04-21 00-08-55-265385,-90,-110,1528,1528,-89.516,-110.005,0.08,4.04,-8.52,-25.36,0.2,141.23,4.640000000000001
2023-04-21 00-08-55-436398,-90,-110,1528,1528,-89.516,-110.005,0.34,4.64,-8.38,-28.29,1.66,139.06,1.7100000000000009
2023-04-21 00-08-55-597091,-90,-110,1528,1528,-89.604,-110.005,0.43,4.92,-8.62,-30.26,1.92,137.47,-0.26000000000000156
2023-04-21 00-08-55-766027,-90,-110,1528,1528,-89.516,-110.005,0.15,5.26,-8.21,-32.25,1.27,136.39,-2.25
2023-04-21 00-08-55-941987,-90,-110,1528,1528,-89.516,-110.005,0.18,5.45,-7.92,-34.55,0.55,135.24,-4.549999999999997
2023-04-21 00-08-56-108270,-90,-110,1528,1528,-89.516,-110.005,0.07,5.76,-7.61,-36.29,0.29,133.97,-6.289999999999999
2023-04-21 00-08-56-258753,-90,-110,1528,1528,-89.516,-110.005,0.18,5.92,-7.66,-37.09,0.38,132.72,-7.090000000000003
2023-04-21 00-08-56-443495,-90,-110,1528,1528,-89.516,-110.005,0.06,5.89,-7.75,-37.33,0.65,131.12,-7.329999999999998
2023-04-21 00-08-56-613558,-90,-110,1528,1528,-89.516,-110.005,0.26,6.0,-8.0,-37.68,1.11,129.62,-7.68
2023-04-21 00-08-56-769298,-90,-110,1528,1528,-89.516,-110.005,0.31,6.11,-7.63,-38.72,1.23,128.62,-8.719999999999999
2023-04-21 00-08-56-937984,-90,-110,1528,1528,-89.516,-110.005,0.2,6.26,-7.33,-39.76,0.78,127.89,-9.759999999999998
2023-04-21 00-08-57-109747,-90,-110,1528,1528,-89.516,-110.005,0.1,6.28,-7.65,-40.01,0.17,127.15,-10.009999999999998
2023-04-21 00-08-57-264423,-90,-110,1528,1528,-89.516,-110.005,0.1,6.31,-7.44,-40.36,0.15,126.05,-10.36
2023-04-21 00-08-57-434215,-90,-110,1528,1528,-89.516,-110.005,0.2,6.41,-7.43,-40.92,0.64,124.9,-10.920000000000002
2023-04-21 00-08-57-603912,-90,-110,1528,1528,-89.516,-110.005,0.16,6.56,-7.3,-41.47,0.72,124.02,-11.469999999999999
2023-04-21 00-08-57-783812,-90,-110,1528,1528,-89.516,-110.005,0.15,6.48,-7.36,-41.85,0.61,123.34,-11.850000000000001
2023-04-21 00-08-57-946986,-90,-110,1528,1528,-89.428,-110.005,0.07,6.55,-7.19,-42.24,0.47,122.67,-12.240000000000002
2023-04-21 00-08-58-107999,-90,-110,1528,1528,-89.516,-110.005,0.02,6.62,-7.11,-42.39,0.42,122.07,-12.39
2023-04-21 00-08-58-283817,-90,-110,1528,1528,-89.516,-110.005,0.09,6.52,-7.35,-42.08,0.45,121.48,-12.079999999999998
2023-04-21 00-08-58-450077,-90,-110,1528,1528,-89.516,-110.005,0.1,6.56,-7.39,-42.09,0.59,120.82,-12.090000000000003
2023-04-21 00-08-58-620135,-90,-110,1528,1528,-89.428,-110.005,0.17,6.58,-7.15,-42.45,0.64,120.53,-12.450000000000003
2023-04-21 00-08-58-770146,-90,-110,1528,1528,-89.428,-110.005,0.17,6.67,-7.06,-42.55,0.4,120.46,-12.549999999999997
2023-04-21 00-08-58-942774,-90,-110,1528,1528,-89.428,-110.005,0.02,6.52,-7.47,-42.21,0.24,120.16,-12.21
2023-04-21 00-08-59-108313,-90,-110,1528,1528,-89.516,-110.005,0.21,6.51,-7.36,-42.53,0.58,119.78,-12.530000000000001
2023-04-21 00-08-59-277371,-90,-110,1528,1528,-89.428,-110.005,0.2,6.84,-6.44,-43.08,0.53,119.58,-13.079999999999998
2023-04-21 00-08-59-442368,-90,-110,1528,1528,-89.428,-110.005,-0.04,6.3,-7.18,-41.38,0.19,119.47,-11.380000000000003
2023-04-21 00-08-59-606371,-90,-110,1528,1528,-89.428,-110.005,0.14,6.17,-7.62,-39.03,0.61,119.1,-9.030000000000001
2023-04-21 00-08-59-772099,-90,-110,1528,1528,-89.428,-110.005,0.35,5.7,-7.96,-36.81,1.43,118.7,-6.810000000000002
2023-04-21 00-08-59-946518,-90,-110,1528,1528,-89.428,-110.005,0.34,5.51,-8.07,-34.9,1.9,118.34,-4.899999999999999
2023-04-21 00-09-00-103239,-90,-110,1528,1528,-89.428,-110.005,0.23,5.25,-8.26,-33.02,1.93,118.59,-3.020000000000003
2023-04-21 00-09-00-268661,-90,-110,1528,1528,-89.516,-110.005,0.39,5.07,-8.41,-31.19,1.77,119.02,-1.1900000000000013
2023-04-21 00-09-00-429895,-90,-110,1528,1528,-89.428,-110.005,0.26,4.73,-8.56,-29.39,1.61,119.35,0.6099999999999994
2023-04-21 00-09-00-588682,-90,-110,1527,1527,-89.428,-110.005,0.38,4.53,-8.78,-27.67,1.52,119.64,2.3299999999999983
2023-04-21 00-09-00-752612,-90,-110,1529,1529,-89.428,-110.005,0.15,4.28,-8.73,-26.14,1.19,120.07,3.8599999999999994
2023-04-21 00-09-00-924261,-90,-110,1530,1530,-89.428,-110.005,0.23,4.05,-8.99,-24.72,0.78,120.66,5.280000000000001
2023-04-21 00-09-01-087599,-90,-110,1531,1531,-89.428,-110.005,0.01,3.81,-9.15,-23.56,0.2,121.14,6.440000000000001
2023-04-21 00-09-01-265392,-90,-110,1531,1531,-89.428,-110.005,-0.05,3.74,-9.43,-23.18,0.03,121.43,6.82
2023-04-21 00-09-01-431813,-90,-110,1529,1529,-89.516,-110.005,-0.07,4.02,-9.51,-25.09,0.58,121.4,4.91
2023-04-21 00-09-01-590076,-90,-110,1529,1529,-89.428,-110.005,0.26,4.73,-8.38,-29.55,2.09,120.76,0.4499999999999993
2023-04-21 00-09-01-757601,-90,-110,1529,1529,-89.428,-110.005,0.84,5.52,-7.6,-34.27,4.01,120.16,-4.270000000000003
2023-04-21 00-09-01-923622,-90,-110,1529,1529,-89.428,-110.005,0.91,5.93,-7.41,-37.22,4.24,119.97,-7.219999999999999
2023-04-21 00-09-02-080424,-90,-110,1529,1529,-89.428,-110.005,0.48,6.09,-7.5,-38.74,3.15,120.29,-8.740000000000002
2023-04-21 00-09-02-252285,-90,-110,1529,1529,-89.428,-110.005,0.46,6.21,-7.63,-39.87,2.06,120.91,-9.869999999999997
2023-04-21 00-09-02-413512,-90,-110,1529,1529,-89.428,-110.005,0.16,6.43,-7.01,-41.4,1.25,121.06,-11.399999999999999
2023-04-21 00-09-02-577442,-90,-110,1529,1529,-89.428,-110.005,0.0,6.55,-6.97,-42.32,0.7,120.84,-12.32
2023-04-21 00-09-02-742632,-90,-110,1529,1529,-89.428,-110.005,0.26,6.44,-7.36,-42.27,0.79,120.27,-12.270000000000003
2023-04-21 00-09-02-921079,-90,-110,1529,1529,-89.428,-110.005,0.19,6.59,-7.21,-42.61,1.02,119.44,-12.61
2023-04-21 00-09-03-085832,-90,-110,1529,1529,-89.428,-110.005,0.28,6.67,-7.11,-43.05,1.04,119.11,-13.049999999999997
2023-04-21 00-09-03-267872,-90,-110,1529,1529,-89.428,-110.005,0.17,6.71,-6.99,-43.24,0.49,118.9,-13.240000000000002
2023-04-21 00-09-03-442668,-90,-110,1529,1529,-89.428,-110.005,0.04,6.6,-7.24,-42.93,0.24,118.32,-12.93
2023-04-21 00-09-03-609082,-90,-110,1529,1529,-89.428,-110.005,0.24,6.58,-7.26,-42.83,0.62,117.72,-12.829999999999998
2023-04-21 00-09-03-768958,-90,-110,1529,1529,-89.428,-110.005,0.13,6.65,-7.2,-42.93,0.8,117.46,-12.93
2023-04-21 00-09-03-921367,-90,-110,1529,1529,-89.428,-110.005,0.2,6.66,-7.21,-43.19,0.82,117.53,-13.189999999999998
2023-04-21 00-09-04-103995,-90,-110,1529,1529,-89.428,-110.005,0.21,6.75,-7.03,-43.74,0.81,117.54,-13.740000000000002
2023-04-21 00-09-04-274457,-90,-110,1529,1529,-89.428,-110.005,0.17,6.89,-7.0,-44.55,1.03,117.13,-14.549999999999997
2023-04-21 00-09-04-449674,-90,-110,1529,1529,-89.428,-110.005,0.46,6.85,-6.76,-45.67,1.53,116.38,-15.670000000000002
2023-04-21 00-09-04-611932,-90,-110,1529,1529,-89.428,-110.005,0.36,7.05,-6.72,-46.46,1.83,115.89,-16.46
2023-04-21 00-09-04-780356,-90,-110,1529,1529,-89.428,-110.005,0.36,7.11,-6.74,-46.91,1.92,115.99,-16.909999999999997
2023-04-21 00-09-04-947841,-90,-110,1529,1529,-89.428,-110.005,0.23,7.19,-6.46,-47.59,1.45,116.38,-17.590000000000003
2023-04-21 00-09-05-117620,-90,-110,1529,1529,-89.428,-110.005,0.1,7.28,-6.71,-48.01,1.06,116.38,-18.009999999999998
2023-04-21 00-09-05-290067,-90,-110,1529,1529,-89.428,-110.005,0.2,7.38,-6.31,-48.99,1.2,116.18,-18.990000000000002
2023-04-21 00-09-05-464566,-90,-110,1529,1529,-89.428,-110.005,0.31,7.6,-6.06,-49.83,1.21,116.34,-19.83
2023-04-21 00-09-05-641095,-90,-110,1529,1529,-89.428,-110.005,0.15,7.51,-6.27,-49.98,0.68,116.58,-19.979999999999997
2023-04-21 00-09-05-803779,-90,-110,1529,1529,-89.428,-110.005,0.1,7.44,-6.35,-49.83,0.59,116.27,-19.83
2023-04-21 00-09-05-973061,-90,-110,1529,1529,-89.428,-110.005,0.14,7.54,-6.3,-49.67,0.84,115.4,-19.67
