Timestamp_log,left_angle,right_angle,left_thrust,right_thrust,read_left_angle,read_right_angle,accel_x,accel_y,accel_z,roll,pitch,yaw,error
2023-04-21 01-28-10-135971,-90,-110,1565,1435,-89.868,-110.093,0.79,0.81,-9.71,-4.89,4.46,156.09,25.11
2023-04-21 01-28-10-227024,-90,-110,1565,1435,-89.868,-110.093,0.79,0.81,-9.71,-4.89,4.46,156.09,25.11
2023-04-21 01-28-10-318617,-90,-110,1565,1435,-89.868,-110.093,0.79,0.81,-9.71,-4.89,4.45,156.09,25.11
2023-04-21 01-28-10-400799,-90,-110,1565,1435,-89.868,-110.093,0.78,0.84,-9.65,-4.89,4.46,156.08,25.11
2023-04-21 01-28-10-493474,-90,-110,1565,1435,-89.868,-110.093,0.78,0.76,-10.13,-5.02,4.46,156.08,24.98
2023-04-21 01-28-10-578928,-90,-110,1565,1435,-89.868,-110.093,0.79,0.86,-10.24,-5.66,4.42,156.09,24.34
2023-04-21 01-28-10-666814,-90,-110,1565,1435,-89.868,-110.093,0.71,1.06,-10.03,-6.83,4.13,156.08,23.17
2023-04-21 01-28-10-735622,-90,-110,1565,1435,-89.868,-110.093,0.67,1.29,-9.9,-8.19,3.81,156.02,21.810000000000002
2023-04-21 01-28-10-834830,-90,-110,1565,1435,-89.868,-110.093,0.61,1.58,-9.86,-9.79,3.47,155.92,20.21
2023-04-21 01-28-10-921385,-90,-110,1560,1435,-89.868,-110.093,0.52,1.91,-9.67,-11.83,3.04,155.72,18.17
2023-04-21 01-28-11-004490,-90,-110,1556,1439,-89.868,-110.093,0.49,2.26,-9.63,-13.82,2.78,155.47,16.18
2023-04-21 01-28-11-093590,-90,-110,1551,1444,-89.868,-110.093,0.42,2.63,-9.29,-16.52,2.48,155.02,13.48
2023-04-21 01-28-11-177519,-90,-110,1547,1448,-89.868,-110.093,0.43,3.03,-9.06,-18.73,2.53,154.47,11.27
2023-04-21 01-28-11-269230,-90,-110,1542,1453,-89.868,-110.093,0.53,3.5,-8.92,-21.21,3.05,153.59,8.79
2023-04-21 01-28-11-362478,-90,-110,1537,1458,-89.868,-110.093,0.68,3.85,-8.73,-23.62,3.82,152.45,6.379999999999999
2023-04-21 01-28-11-452818,-90,-110,1532,1463,-89.868,-110.093,0.83,4.24,-8.49,-26.12,4.85,150.99,3.879999999999999
2023-04-21 01-28-11-535035,-90,-110,1528,1467,-89.78,-110.093,1.0,4.58,-8.38,-27.96,5.77,149.72,2.039999999999999
2023-04-21 01-28-11-629137,-90,-110,1528,1467,-89.78,-110.093,1.16,4.84,-8.22,-29.84,6.74,148.23,0.16000000000000014
2023-04-21 01-28-11-721122,-90,-110,1528,1467,-89.868,-110.093,1.37,5.05,-8.13,-31.45,7.6,146.81,-1.4499999999999993
2023-04-21 01-28-11-805102,-90,-110,1520,1475,-89.868,-110.093,1.46,5.23,-8.02,-32.83,8.2,145.55,-2.8299999999999983
2023-04-21 01-28-11-897243,-90,-110,1517,1478,-89.868,-110.093,1.52,5.39,-7.93,-34.01,8.53,144.43,-4.009999999999998
2023-04-21 01-28-11-969692,-90,-110,1515,1480,-89.868,-110.093,1.54,5.54,-7.84,-34.92,8.66,143.56,-4.920000000000002
2023-04-21 01-28-12-061924,-90,-110,1514,1481,-89.868,-110.093,1.53,5.64,-7.91,-35.7,8.56,142.87,-5.700000000000003
2023-04-21 01-28-12-153964,-90,-110,1512,1483,-89.868,-110.093,1.42,5.72,-7.79,-36.47,8.05,142.41,-6.469999999999999
2023-04-21 01-28-12-244904,-90,-110,1511,1484,-89.868,-110.093,1.24,5.82,-7.64,-37.26,7.23,142.12,-7.259999999999998
2023-04-21 01-28-12-342389,-90,-110,1510,1485,-89.868,-110.093,1.11,6.01,-7.54,-37.89,6.54,141.91,-7.890000000000001
2023-04-21 01-28-12-428287,-90,-110,1509,1486,-89.868,-110.093,1.01,6.01,-7.5,-38.44,6.01,141.63,-8.439999999999998
2023-04-21 01-28-12-518670,-90,-110,1508,1487,-89.868,-110.093,0.96,6.11,-7.34,-38.89,5.71,141.21,-8.89
2023-04-21 01-28-12-599733,-90,-110,1507,1488,-89.868,-110.093,0.97,6.13,-7.37,-39.16,5.73,140.66,-9.159999999999997
2023-04-21 01-28-12-690277,-90,-110,1507,1488,-89.78,-110.093,1.03,6.16,-7.38,-39.34,6.0,139.93,-9.340000000000003
2023-04-21 01-28-12-773854,-90,-110,1507,1488,-89.868,-110.093,1.15,6.18,-7.37,-39.43,6.51,139.07,-9.43
2023-04-21 01-28-12-865385,-90,-110,1507,1488,-89.868,-110.093,1.27,6.14,-7.4,-39.38,7.21,138.15,-9.380000000000003
2023-04-21 01-28-12-956001,-90,-110,1507,1488,-89.868,-110.093,1.43,6.12,-7.47,-39.25,8.03,137.24,-9.25
2023-04-21 01-28-13-047007,-90,-110,1507,1488,-89.868,-110.093,1.6,6.07,-7.55,-39.07,8.76,136.44,-9.07
2023-04-21 01-28-13-141044,-90,-110,1508,1487,-89.78,-110.093,1.7,6.04,-7.59,-38.84,9.21,135.91,-8.840000000000003
2023-04-21 01-28-13-234110,-90,-110,1509,1486,-89.868,-110.093,1.68,5.98,-7.6,-38.51,9.24,135.66,-8.509999999999998
2023-04-21 01-28-13-325048,-90,-110,1509,1486,-89.868,-110.093,1.6,5.95,-7.6,-38.18,8.96,135.62,-8.18
2023-04-21 01-28-13-411775,-90,-110,1510,1485,-89.78,-110.093,1.51,5.91,-7.62,-37.89,8.59,135.61,-7.890000000000001
2023-04-21 01-28-13-501682,-90,-110,1510,1485,-89.868,-110.093,1.42,5.86,-7.65,-37.54,8.15,135.59,-7.539999999999999
2023-04-21 01-28-13-583743,-90,-110,1511,1484,-89.868,-110.093,1.34,5.83,-7.69,-37.16,7.76,135.54,-7.159999999999997
2023-04-21 01-28-13-676310,-90,-110,1512,1483,-89.868,-110.093,1.28,5.76,-7.74,-36.75,7.45,135.43,-6.75
2023-04-21 01-28-13-758855,-90,-110,1513,1482,-89.868,-110.093,1.25,5.71,-7.77,-36.38,7.27,135.28,-6.380000000000003
2023-04-21 01-28-13-852559,-90,-110,1514,1481,-89.868,-110.093,1.25,5.66,-7.82,-35.95,7.22,135.05,-5.950000000000003
2023-04-21 01-28-13-944291,-90,-110,1515,1480,-89.868,-110.093,1.28,5.59,-7.88,-35.46,7.34,134.72,-5.460000000000001
2023-04-21 01-28-14-026282,-90,-110,1515,1480,-89.868,-110.093,1.33,5.53,-7.93,-35.09,7.57,134.39,-5.090000000000003
2023-04-21 01-28-14-115568,-90,-110,1516,1479,-89.868,-110.093,1.42,5.47,-7.99,-34.69,7.96,133.96,-4.689999999999998
2023-04-21 01-28-14-201737,-90,-110,1517,1478,-89.868,-110.093,1.48,5.42,-8.04,-34.34,8.28,133.62,-4.340000000000003
2023-04-21 01-28-14-293423,-90,-110,1518,1477,-89.868,-110.093,1.55,5.37,-8.08,-33.93,8.5,133.33,-3.9299999999999997
2023-04-21 01-28-14-383570,-90,-110,1519,1476,-89.78,-110.093,1.54,5.3,-8.13,-33.49,8.51,133.13,-3.490000000000002
2023-04-21 01-28-14-470178,-90,-110,1519,1476,-89.868,-110.093,1.5,5.25,-8.14,-33.15,8.37,133.04,-3.1499999999999986
2023-04-21 01-28-14-549759,-90,-110,1520,1475,-89.868,-110.093,1.44,5.21,-8.15,-32.82,8.12,132.98,-2.8200000000000003
2023-04-21 01-28-14-671124,-90,-110,1521,1474,-89.868,-110.093,1.39,5.15,-8.17,-32.47,7.81,132.89,-2.469999999999999
2023-04-21 01-28-14-726859,-90,-110,1521,1474,-89.868,-110.093,1.32,5.12,-8.18,-32.14,7.55,132.76,-2.1400000000000006
2023-04-21 01-28-14-816371,-90,-110,1521,1474,-89.868,-110.093,1.29,5.08,-8.24,-31.81,7.36,132.63,-1.8099999999999987
2023-04-21 01-28-14-902409,-90,-110,1521,1474,-89.868,-110.093,1.25,5.02,-8.31,-31.43,7.11,132.52,-1.4299999999999997
2023-04-21 01-28-14-991607,-90,-110,1521,1474,-89.78,-110.093,1.18,4.96,-8.3,-31.05,6.82,132.43,-1.0500000000000007
2023-04-21 01-28-15-076313,-90,-110,1521,1474,-89.868,-110.093,1.14,4.91,-8.32,-30.68,6.62,132.3,-0.6799999999999997
2023-04-21 01-28-15-169041,-90,-110,1521,1474,-89.78,-110.093,1.15,4.86,-8.37,-30.3,6.6,132.09,-0.3000000000000007
2023-04-21 01-28-15-259840,-90,-110,1521,1474,-89.868,-110.093,1.18,4.82,-8.4,-29.95,6.72,131.83,0.05000000000000071
2023-04-21 01-28-15-353458,-90,-110,1521,1474,-89.868,-110.093,1.22,4.75,-8.46,-29.59,6.93,131.57,0.41000000000000014
2023-04-21 01-28-15-440068,-90,-110,1521,1474,-89.868,-110.093,1.26,4.7,-8.5,-29.24,7.12,131.36,0.7600000000000016
2023-04-21 01-28-15-522324,-90,-110,1521,1474,-89.868,-110.093,1.29,4.66,-8.53,-28.93,7.23,131.23,1.0700000000000003
2023-04-21 01-28-15-615056,-90,-110,1521,1474,-89.868,-110.093,1.29,4.6,-8.51,-28.56,7.3,131.09,1.4400000000000013
2023-04-21 01-28-15-705139,-90,-110,1521,1474,-89.868,-110.093,1.31,4.55,-8.55,-28.2,7.35,130.98,1.8000000000000007
2023-04-21 01-28-15-784459,-90,-110,1529,1466,-89.868,-110.093,1.3,4.51,-8.56,-27.87,7.33,130.92,2.129999999999999
2023-04-21 01-28-15-877326,-90,-110,1530,1465,-89.868,-110.093,1.3,4.42,-8.79,-27.46,7.14,130.93,2.539999999999999
2023-04-21 01-28-15-962737,-90,-110,1530,1465,-89.868,-110.093,1.2,4.4,-8.74,-27.14,6.66,131.1,2.8599999999999994
2023-04-21 01-28-16-053588,-90,-110,1531,1464,-89.868,-110.093,1.02,4.33,-8.71,-26.79,5.87,131.38,3.210000000000001
2023-04-21 01-28-16-138690,-90,-110,1531,1464,-89.868,-110.093,0.94,4.32,-8.73,-26.55,5.39,131.53,3.4499999999999993
2023-04-21 01-28-16-232042,-90,-110,1532,1463,-89.868,-110.093,0.84,4.28,-8.73,-26.33,5.01,131.63,3.6700000000000017
2023-04-21 01-28-16-322752,-90,-110,1532,1463,-89.868,-110.093,0.84,4.26,-8.64,-26.19,4.96,131.5,3.8099999999999987
2023-04-21 01-28-16-412674,-90,-110,1532,1463,-89.868,-110.093,0.93,4.24,-8.64,-26.06,5.41,131.16,3.9400000000000013
2023-04-21 01-28-16-505777,-90,-110,1533,1462,-89.868,-110.093,1.06,4.25,-8.68,-25.95,6.08,130.74,4.050000000000001
2023-04-21 01-28-16-598318,-90,-110,1533,1462,-89.868,-110.093,1.3,4.14,-8.78,-25.75,7.19,130.19,4.25
2023-04-21 01-28-16-678498,-90,-110,1533,1462,-89.868,-110.093,1.49,4.16,-8.91,-25.57,8.12,129.79,4.43
2023-04-21 01-28-16-771890,-90,-110,1534,1461,-89.868,-110.093,1.56,4.13,-8.86,-25.46,8.6,129.6,4.539999999999999
2023-04-21 01-28-16-848888,-90,-110,1534,1461,-89.868,-110.093,1.6,4.16,-8.84,-25.41,8.85,129.49,4.59
2023-04-21 01-28-16-943163,-90,-110,1534,1461,-89.78,-110.093,1.6,4.11,-8.81,-25.42,8.93,129.44,4.579999999999998
2023-04-21 01-28-17-035441,-90,-110,1534,1461,-89.868,-110.093,1.55,4.12,-8.78,-25.49,8.79,129.46,4.510000000000002
2023-04-21 01-28-17-126465,-90,-110,1533,1462,-89.868,-110.093,1.49,4.13,-8.74,-25.58,8.56,129.49,4.420000000000002
2023-04-21 01-28-17-206771,-90,-110,1533,1462,-89.78,-110.093,1.46,4.18,-8.72,-25.68,8.4,129.51,4.32
2023-04-21 01-28-17-300174,-90,-110,1533,1462,-89.78,-110.093,1.43,4.19,-8.7,-25.81,8.27,129.5,4.190000000000001
2023-04-21 01-28-17-372325,-90,-110,1533,1462,-89.868,-110.093,1.4,4.24,-8.68,-25.93,8.2,129.47,4.07
2023-04-21 01-28-17-463701,-90,-110,1532,1463,-89.868,-110.093,1.41,4.21,-8.68,-26.04,8.23,129.41,3.960000000000001
2023-04-21 01-28-17-548072,-90,-110,1532,1463,-89.868,-110.093,1.43,4.27,-8.67,-26.19,8.32,129.31,3.8099999999999987
2023-04-21 01-28-17-638696,-90,-110,1532,1463,-89.868,-110.093,1.49,4.25,-8.7,-26.33,8.44,129.23,3.6700000000000017
2023-04-21 01-28-17-733853,-90,-110,1532,1463,-89.78,-110.093,1.48,4.28,-8.67,-26.47,8.53,129.18,3.530000000000001
2023-04-21 01-28-17-827481,-90,-110,1531,1464,-89.78,-110.093,1.52,4.31,-8.68,-26.66,8.63,129.13,3.34
2023-04-21 01-28-17-909540,-90,-110,1531,1464,-89.868,-110.093,1.52,4.32,-8.65,-26.83,8.65,129.14,3.1700000000000017
2023-04-21 01-28-17-990919,-90,-110,1530,1465,-89.868,-110.093,1.51,4.35,-8.65,-27.0,8.61,129.17,3.0
2023-04-21 01-28-18-067741,-90,-110,1530,1465,-89.868,-110.093,1.5,4.39,-8.62,-27.18,8.54,129.22,2.8200000000000003
2023-04-21 01-28-18-157713,-90,-110,1530,1465,-89.78,-110.093,1.47,4.43,-8.57,-27.4,8.47,129.27,2.6000000000000014
2023-04-21 01-28-18-237137,-90,-110,1529,1466,-89.868,-110.093,1.46,4.46,-8.48,-27.57,8.41,129.31,2.4299999999999997
2023-04-21 01-28-18-329306,-90,-110,1529,1466,-89.78,-110.093,1.46,4.46,-8.52,-27.71,8.44,129.32,2.289999999999999
2023-04-21 01-28-18-427865,-90,-110,1529,1466,-89.868,-110.093,1.48,4.49,-8.51,-27.8,8.56,129.3,2.1999999999999993
2023-04-21 01-28-18-493541,-90,-110,1529,1466,-89.868,-110.093,1.53,4.49,-8.58,-27.84,8.66,129.29,2.16
2023-04-21 01-28-18-587607,-90,-110,1529,1466,-89.868,-110.093,1.52,4.5,-8.57,-27.87,8.69,129.33,2.129999999999999
2023-04-21 01-28-18-683656,-90,-110,1529,1466,-89.868,-110.093,1.53,4.51,-8.57,-27.92,8.63,129.4,2.0799999999999983
2023-04-21 01-28-18-769047,-90,-110,1529,1466,-89.868,-110.093,1.48,4.51,-8.53,-27.95,8.46,129.53,2.0500000000000007
2023-04-21 01-28-18-855467,-90,-110,1529,1466,-89.78,-110.093,1.44,4.5,-8.53,-27.98,8.32,129.62,2.0199999999999996
2023-04-21 01-28-18-943706,-90,-110,1529,1466,-89.868,-110.093,1.45,4.53,-8.52,-27.98,8.26,129.68,2.0199999999999996
2023-04-21 01-28-19-020041,-90,-110,1529,1466,-89.868,-110.093,1.45,4.5,-8.53,-27.98,8.26,129.69,2.0199999999999996
2023-04-21 01-28-19-113406,-90,-110,1529,1466,-89.868,-110.093,1.46,4.51,-8.54,-27.96,8.31,129.69,2.039999999999999
2023-04-21 01-28-19-188152,-90,-110,1529,1466,-89.868,-110.093,1.47,4.5,-8.52,-27.92,8.37,129.68,2.0799999999999983
2023-04-21 01-28-19-289500,-90,-110,1529,1466,-89.868,-110.093,1.45,4.5,-8.52,-27.86,8.45,129.65,2.1400000000000006
2023-04-21 01-28-19-375084,-90,-110,1529,1466,-89.78,-110.093,1.52,4.49,-8.55,-27.76,8.59,129.62,2.2399999999999984
2023-04-21 01-28-19-460129,-90,-110,1529,1466,-89.868,-110.093,1.52,4.47,-8.57,-27.66,8.65,129.62,2.34
2023-04-21 01-28-19-548373,-90,-110,1529,1466,-89.868,-110.093,1.54,4.46,-8.68,-27.55,8.67,129.66,2.4499999999999993
2023-04-21 01-28-19-637162,-90,-110,1530,1465,-89.868,-110.093,1.51,4.44,-8.7,-27.48,8.45,129.82,2.5199999999999996
2023-04-21 01-28-19-721919,-90,-110,1530,1465,-89.868,-110.093,1.39,4.45,-8.62,-27.49,7.99,130.09,2.5100000000000016
2023-04-21 01-28-19-805973,-90,-110,1529,1466,-89.868,-110.093,1.3,4.43,-8.6,-27.52,7.54,130.32,2.4800000000000004
2023-04-21 01-28-19-897981,-90,-110,1529,1466,-89.868,-110.093,1.23,4.47,-8.62,-27.58,7.13,130.53,2.4200000000000017
2023-04-21 01-28-19-974824,-90,-110,1529,1466,-89.868,-110.093,1.15,4.5,-8.48,-27.66,6.83,130.71,2.34
2023-04-21 01-28-20-073397,-90,-110,1529,1466,-89.868,-110.093,1.14,4.49,-8.48,-27.74,6.75,130.72,2.2600000000000016
2023-04-21 01-28-20-159920,-90,-110,1529,1466,-89.868,-110.093,1.2,4.5,-8.48,-27.78,6.96,130.6,2.219999999999999
2023-04-21 01-28-20-234034,-90,-110,1529,1466,-89.868,-110.093,1.27,4.51,-8.51,-27.78,7.4,130.38,2.219999999999999
2023-04-21 01-28-20-318687,-90,-110,1529,1466,-89.868,-110.093,1.42,4.47,-8.54,-27.73,8.08,130.08,2.2699999999999996
2023-04-21 01-28-20-402603,-90,-110,1529,1466,-89.868,-110.093,1.58,4.45,-8.79,-27.68,8.67,129.87,2.3200000000000003
2023-04-21 01-28-20-496794,-90,-110,1529,1466,-89.868,-110.093,1.59,4.48,-8.67,-27.7,8.85,129.91,2.3000000000000007
2023-04-21 01-28-20-591756,-90,-110,1529,1466,-89.868,-110.093,1.54,4.48,-8.6,-27.77,8.66,130.1,2.2300000000000004
2023-04-21 01-28-20-682530,-90,-110,1529,1466,-89.868,-110.093,1.47,4.51,-8.57,-27.89,8.29,130.34,2.1099999999999994
2023-04-21 01-28-20-761192,-90,-110,1528,1467,-89.868,-110.093,1.39,4.52,-8.52,-28.0,7.95,130.52,2.0
2023-04-21 01-28-20-856307,-90,-110,1528,1467,-89.868,-110.093,1.32,4.55,-8.41,-28.11,7.72,130.62,1.8900000000000006
2023-04-21 01-28-20-948173,-90,-110,1528,1467,-89.868,-110.093,1.34,4.56,-8.45,-28.18,7.82,130.54,1.8200000000000003
2023-04-21 01-28-21-032647,-90,-110,1528,1467,-89.868,-110.093,1.41,4.54,-8.48,-28.21,8.12,130.37,1.7899999999999991
2023-04-21 01-28-21-122871,-90,-110,1528,1467,-89.78,-110.093,1.52,4.54,-8.56,-28.21,8.53,130.16,1.7899999999999991
2023-04-21 01-28-21-217082,-90,-110,1528,1467,-89.78,-110.093,1.56,4.55,-8.56,-28.21,8.73,130.07,1.7899999999999991
2023-04-21 01-28-21-296640,-90,-110,1528,1467,-89.868,-110.093,1.57,4.55,-8.56,-28.21,8.75,130.06,1.7899999999999991
2023-04-21 01-28-21-390540,-90,-110,1528,1467,-89.868,-110.093,1.53,4.56,-8.52,-28.21,8.62,130.12,1.7899999999999991
2023-04-21 01-28-21-484689,-90,-110,1528,1467,-89.868,-110.093,1.47,4.54,-8.51,-28.19,8.35,130.2,1.8099999999999987
2023-04-21 01-28-21-575059,-90,-110,1528,1467,-89.868,-110.093,1.42,4.54,-8.51,-28.17,8.14,130.25,1.8299999999999983
2023-04-21 01-28-21-658508,-90,-110,1528,1467,-89.868,-110.093,1.4,4.55,-8.51,-28.14,8.0,130.26,1.8599999999999994
2023-04-21 01-28-21-751743,-90,-110,1528,1467,-89.868,-110.093,1.38,4.51,-8.52,-28.07,7.95,130.22,1.9299999999999997
2023-04-21 01-28-21-836607,-90,-110,1528,1467,-89.868,-110.093,1.4,4.53,-8.5,-28.02,8.04,130.13,1.9800000000000004
2023-04-21 01-28-21-918343,-90,-110,1529,1466,-89.868,-110.093,1.44,4.52,-8.51,-27.98,8.2,130.0,2.0199999999999996
2023-04-21 01-28-22-010086,-90,-110,1529,1466,-89.868,-110.093,1.49,4.49,-8.54,-27.89,8.43,129.84,2.1099999999999994
2023-04-21 01-28-22-096857,-90,-110,1529,1466,-89.78,-110.093,1.55,4.49,-8.57,-27.79,8.71,129.65,2.210000000000001
2023-04-21 01-28-22-175123,-90,-110,1529,1466,-89.868,-110.093,1.58,4.47,-8.63,-27.7,8.83,129.56,2.3000000000000007
2023-04-21 01-28-22-267477,-90,-110,1529,1466,-89.868,-110.093,1.55,4.45,-8.6,-27.63,8.73,129.57,2.370000000000001
2023-04-21 01-28-22-358192,-90,-110,1529,1466,-89.868,-110.093,1.49,4.44,-8.58,-27.55,8.49,129.63,2.4499999999999993
2023-04-21 01-28-22-459699,-90,-110,1529,1466,-89.868,-110.093,1.44,4.47,-8.57,-27.51,8.27,129.69,2.4899999999999984
2023-04-21 01-28-22-536571,-90,-110,1530,1465,-89.868,-110.093,1.41,4.43,-8.57,-27.46,8.11,129.71,2.539999999999999
2023-04-21 01-28-22-630835,-90,-110,1530,1465,-89.78,-110.093,1.39,4.43,-8.58,-27.4,8.03,129.69,2.6000000000000014
2023-04-21 01-28-22-723945,-90,-110,1530,1465,-89.868,-110.093,1.4,4.44,-8.58,-27.34,8.06,129.61,2.66
2023-04-21 01-28-22-809452,-90,-110,1530,1465,-89.868,-110.093,1.42,4.43,-8.58,-27.3,8.15,129.52,2.6999999999999993
2023-04-21 01-28-22-896900,-90,-110,1530,1465,-89.868,-110.093,1.44,4.4,-8.57,-27.27,8.29,129.43,2.7300000000000004
2023-04-21 01-28-22-980622,-90,-110,1530,1465,-89.868,-110.093,1.49,4.38,-8.6,-27.21,8.49,129.31,2.789999999999999
2023-04-21 01-28-23-074055,-90,-110,1530,1465,-89.868,-110.093,1.52,4.37,-8.6,-27.13,8.64,129.24,2.870000000000001
2023-04-21 01-28-23-158249,-90,-110,1530,1465,-89.78,-110.093,1.55,4.34,-8.73,-27.04,8.65,129.23,2.960000000000001
2023-04-21 01-28-23-252950,-90,-110,1531,1464,-89.78,-110.093,1.5,4.35,-8.65,-26.97,8.45,129.34,3.030000000000001
2023-04-21 01-28-23-345656,-90,-110,1531,1464,-89.868,-110.093,1.43,4.36,-8.62,-26.93,8.16,129.47,3.0700000000000003
2023-04-21 01-28-23-438145,-90,-110,1531,1464,-89.868,-110.093,1.36,4.33,-8.62,-26.89,7.95,129.55,3.1099999999999994
2023-04-21 01-28-23-522473,-90,-110,1531,1464,-89.868,-110.093,1.36,4.34,-8.62,-26.89,7.95,129.54,3.1099999999999994
2023-04-21 01-28-23-612112,-90,-110,1531,1464,-89.868,-110.093,1.43,4.37,-8.65,-26.93,8.19,129.41,3.0700000000000003
2023-04-21 01-28-23-695237,-90,-110,1530,1465,-89.868,-110.093,1.48,4.37,-8.65,-27.0,8.45,129.29,3.0
2023-04-21 01-28-23-786887,-90,-110,1530,1465,-89.78,-110.093,1.54,4.4,-8.65,-27.09,8.67,129.2,2.91
2023-04-21 01-28-23-873726,-90,-110,1530,1465,-89.868,-110.093,1.56,4.4,-8.62,-27.19,8.8,129.16,2.8099999999999987
2023-04-21 01-28-23-967298,-90,-110,1530,1465,-89.868,-110.093,1.54,4.42,-8.6,-27.3,8.71,129.23,2.6999999999999993
2023-04-21 01-28-24-049909,-90,-110,1530,1465,-89.78,-110.093,1.49,4.42,-8.58,-27.38,8.5,129.32,2.620000000000001
2023-04-21 01-28-24-142556,-90,-110,1530,1465,-89.868,-110.093,1.43,4.44,-8.58,-27.44,8.23,129.45,2.5599999999999987
2023-04-21 01-28-24-236473,-90,-110,1529,1466,-89.868,-110.093,1.37,4.46,-8.55,-27.5,7.97,129.54,2.5
2023-04-21 01-28-24-329431,-90,-110,1529,1466,-89.78,-110.093,1.37,4.45,-8.58,-27.54,7.91,129.57,2.460000000000001
2023-04-21 01-28-24-411036,-90,-110,1529,1466,-89.868,-110.093,1.36,4.46,-8.52,-27.58,7.91,129.56,2.4200000000000017
2023-04-21 01-28-24-500827,-90,-110,1529,1466,-89.868,-110.093,1.4,4.47,-8.52,-27.61,8.1,129.47,2.3900000000000006
2023-04-21 01-28-24-573722,-90,-110,1529,1466,-89.868,-110.093,1.45,4.46,-8.54,-27.59,8.33,129.37,2.41
2023-04-21 01-28-24-663621,-90,-110,1529,1466,-89.868,-110.093,1.5,4.45,-8.58,-27.54,8.63,129.26,2.460000000000001
2023-04-21 01-28-24-754089,-90,-110,1530,1465,-89.868,-110.093,1.59,4.43,-8.76,-27.48,8.82,129.22,2.5199999999999996
2023-04-21 01-28-24-837412,-90,-110,1529,1466,-89.868,-110.093,1.52,4.46,-8.66,-27.51,8.61,129.37,2.4899999999999984
2023-04-21 01-28-24-928039,-90,-110,1529,1466,-89.868,-110.093,1.43,4.46,-8.6,-27.59,8.19,129.6,2.41
2023-04-21 01-28-25-018754,-90,-110,1529,1466,-89.868,-110.093,1.35,4.47,-8.59,-27.73,7.79,129.81,2.2699999999999996
2023-04-21 01-28-25-106294,-90,-110,1529,1466,-89.868,-110.093,1.26,4.5,-8.5,-27.87,7.43,130.0,2.129999999999999
2023-04-21 01-28-25-201044,-90,-110,1528,1467,-89.868,-110.093,1.24,4.57,-8.44,-28.0,7.28,130.09,2.0
2023-04-21 01-28-25-278289,-90,-110,1528,1467,-89.868,-110.093,1.26,4.54,-8.47,-28.07,7.41,130.05,1.9299999999999997
2023-04-21 01-28-25-372141,-90,-110,1528,1467,-89.868,-110.093,1.34,4.51,-8.49,-28.11,7.78,129.91,1.8900000000000006
2023-04-21 01-28-25-464501,-90,-110,1528,1467,-89.868,-110.093,1.46,4.53,-8.52,-28.09,8.3,129.71,1.9100000000000001
2023-04-21 01-28-25-539092,-90,-110,1528,1467,-89.868,-110.093,1.55,4.56,-8.49,-28.06,8.76,129.55,1.9400000000000013
2023-04-21 01-28-25-631131,-90,-110,1529,1466,-89.868,-110.093,1.67,4.49,-8.76,-28.0,9.05,129.5,2.0
2023-04-21 01-28-25-727392,-90,-110,1529,1466,-89.78,-110.093,1.57,4.52,-8.61,-28.03,8.81,129.69,1.9699999999999989
2023-04-21 01-28-25-819437,-90,-110,1529,1466,-89.868,-110.093,1.46,4.54,-8.57,-28.11,8.3,129.98,1.8900000000000006
2023-04-21 01-28-25-903946,-90,-110,1529,1466,-89.868,-110.093,1.33,4.55,-8.52,-28.19,7.71,130.29,1.8099999999999987
2023-04-21 01-28-25-995637,-90,-110,1529,1466,-89.868,-110.093,1.23,4.55,-8.46,-28.31,7.16,130.55,1.6900000000000013
2023-04-21 01-28-26-088883,-90,-110,1529,1466,-89.868,-110.093,1.17,4.58,-8.39,-28.4,6.95,130.65,1.6000000000000014
2023-04-21 01-28-26-174324,-90,-110,1529,1466,-89.868,-110.093,1.22,4.62,-8.44,-28.45,7.09,130.53,1.5500000000000007
2023-04-21 01-28-26-264534,-90,-110,1529,1466,-89.868,-110.093,1.28,4.61,-8.45,-28.46,7.45,130.32,1.5399999999999991
2023-04-21 01-28-26-355521,-90,-110,1529,1466,-89.868,-110.093,1.43,4.56,-8.54,-28.4,8.06,130.02,1.6000000000000014
2023-04-21 01-28-26-436228,-90,-110,1529,1466,-89.78,-110.093,1.51,4.58,-8.56,-28.35,8.53,129.83,1.6499999999999986
2023-04-21 01-28-26-531392,-90,-110,1529,1466,-89.868,-110.093,1.6,4.55,-8.59,-28.31,8.9,129.7,1.6900000000000013
2023-04-21 01-28-26-616971,-90,-110,1529,1466,-89.868,-110.093,1.62,4.58,-8.57,-28.27,9.03,129.69,1.7300000000000004
2023-04-21 01-28-26-714392,-90,-110,1529,1466,-89.78,-110.093,1.6,4.56,-8.55,-28.26,8.97,129.76,1.7399999999999984
2023-04-21 01-28-26-795919,-90,-110,1529,1466,-89.868,-110.093,1.54,4.55,-8.52,-28.25,8.73,129.89,1.75
2023-04-21 01-28-26-891500,-90,-110,1529,1466,-89.78,-110.093,1.47,4.55,-8.5,-28.24,8.44,130.01,1.7600000000000016
2023-04-21 01-28-26-976947,-90,-110,1529,1466,-89.868,-110.093,1.43,4.55,-8.5,-28.23,8.24,130.05,1.7699999999999996
2023-04-21 01-28-27-069364,-90,-110,1529,1466,-89.868,-110.093,1.41,4.56,-8.46,-28.23,8.17,130.02,1.7699999999999996
2023-04-21 01-28-27-160607,-90,-110,1529,1466,-89.868,-110.093,1.45,4.54,-8.49,-28.2,8.3,129.88,1.8000000000000007
2023-04-21 01-28-27-253839,-90,-110,1529,1466,-89.868,-110.093,1.49,4.53,-8.52,-28.14,8.54,129.69,1.8599999999999994
2023-04-21 01-28-27-342268,-90,-110,1529,1466,-89.868,-110.093,1.55,4.52,-8.7,-28.06,8.78,129.53,1.9400000000000013
2023-04-21 01-28-27-436568,-90,-110,1529,1466,-89.868,-110.093,1.56,4.49,-8.7,-27.98,8.68,129.55,2.0199999999999996
2023-04-21 01-28-27-522026,-90,-110,1529,1466,-89.868,-110.093,1.44,4.51,-8.59,-27.99,8.23,129.72,2.0100000000000016
2023-04-21 01-28-27-615438,-90,-110,1529,1466,-89.868,-110.093,1.33,4.53,-8.56,-28.06,7.67,129.92,1.9400000000000013
2023-04-21 01-28-27-702142,-90,-110,1529,1466,-89.868,-110.093,1.26,4.53,-8.55,-28.14,7.29,130.05,1.8599999999999994
2023-04-21 01-28-27-796132,-90,-110,1529,1466,-89.868,-110.093,1.18,4.56,-8.43,-28.23,6.94,130.16,1.7699999999999996
2023-04-21 01-28-27-883563,-90,-110,1529,1466,-89.868,-110.093,1.19,4.58,-8.44,-28.27,6.93,130.1,1.7300000000000004
2023-04-21 01-28-27-972001,-90,-110,1529,1466,-89.868,-110.093,1.23,4.55,-8.46,-28.25,7.17,129.93,1.75
2023-04-21 01-28-28-061054,-90,-110,1529,1466,-89.868,-110.093,1.33,4.54,-8.51,-28.18,7.61,129.67,1.8200000000000003
2023-04-21 01-28-28-154956,-90,-110,1529,1466,-89.868,-110.093,1.45,4.53,-8.6,-28.08,8.17,129.42,1.9200000000000017
2023-04-21 01-28-28-239677,-90,-110,1529,1466,-89.868,-110.093,1.54,4.51,-8.6,-28.0,8.63,129.25,2.0
2023-04-21 01-28-28-326817,-90,-110,1529,1466,-89.868,-110.093,1.61,4.53,-8.6,-27.93,8.89,129.19,2.0700000000000003
2023-04-21 01-28-28-418689,-90,-110,1529,1466,-89.868,-110.093,1.61,4.49,-8.62,-27.86,8.93,129.23,2.1400000000000006
2023-04-21 01-28-28-511811,-90,-110,1529,1466,-89.78,-110.093,1.55,4.48,-8.57,-27.82,8.77,129.35,2.1799999999999997
2023-04-21 01-28-28-605044,-90,-110,1529,1466,-89.868,-110.093,1.51,4.49,-8.56,-27.81,8.53,129.47,2.1900000000000013
2023-04-21 01-28-28-700329,-90,-110,1529,1466,-89.868,-110.093,1.47,4.48,-8.54,-27.79,8.3,129.56,2.210000000000001
2023-04-21 01-28-28-782677,-90,-110,1529,1466,-89.78,-110.093,1.41,4.46,-8.52,-27.78,8.12,129.61,2.219999999999999
2023-04-21 01-28-28-876579,-90,-110,1529,1466,-89.78,-110.093,1.4,4.47,-8.51,-27.75,8.13,129.53,2.25
2023-04-21 01-28-28-956840,-90,-110,1529,1466,-89.78,-110.093,1.44,4.47,-8.53,-27.69,8.26,129.42,2.3099999999999987
2023-04-21 01-28-29-050811,-90,-110,1529,1466,-89.868,-110.093,1.48,4.45,-8.58,-27.61,8.46,129.27,2.3900000000000006
2023-04-21 01-28-29-144174,-90,-110,1529,1466,-89.868,-110.093,1.54,4.43,-8.65,-27.52,8.66,129.14,2.4800000000000004
2023-04-21 01-28-29-232481,-90,-110,1530,1465,-89.868,-110.093,1.54,4.45,-8.62,-27.45,8.66,129.14,2.5500000000000007
2023-04-21 01-28-29-317260,-90,-110,1530,1465,-89.868,-110.093,1.5,4.42,-8.61,-27.42,8.57,129.17,2.5799999999999983
2023-04-21 01-28-29-410016,-90,-110,1530,1465,-89.78,-110.093,1.48,4.42,-8.62,-27.4,8.38,129.24,2.6000000000000014
2023-04-21 01-28-29-494629,-90,-110,1530,1465,-89.868,-110.093,1.43,4.43,-8.6,-27.39,8.15,129.32,2.6099999999999994
2023-04-21 01-28-29-585305,-90,-110,1530,1465,-89.868,-110.093,1.39,4.42,-8.6,-27.38,7.97,129.38,2.620000000000001
2023-04-21 01-28-29-672249,-90,-110,1530,1465,-89.868,-110.093,1.35,4.42,-8.58,-27.37,7.83,129.42,2.629999999999999
2023-04-21 01-28-29-759538,-90,-110,1530,1465,-89.868,-110.093,1.34,4.41,-8.59,-27.36,7.81,129.4,2.6400000000000006
2023-04-21 01-28-29-854898,-90,-110,1530,1465,-89.868,-110.093,1.37,4.41,-8.59,-27.34,7.87,129.37,2.66
2023-04-21 01-28-29-949779,-90,-110,1530,1465,-89.868,-110.093,1.38,4.4,-8.61,-27.31,7.99,129.33,2.6900000000000013
2023-04-21 01-28-30-047803,-90,-110,1530,1465,-89.868,-110.093,1.44,4.41,-8.58,-27.28,8.18,129.26,2.719999999999999
2023-04-21 01-28-30-137031,-90,-110,1530,1465,-89.868,-110.093,1.48,4.39,-8.61,-27.2,8.41,129.19,2.8000000000000007
2023-04-21 01-28-30-225131,-90,-110,1530,1465,-89.868,-110.093,1.53,4.39,-8.69,-27.11,8.61,129.14,2.8900000000000006
2023-04-21 01-28-30-309782,-90,-110,1530,1465,-89.868,-110.093,1.55,4.36,-8.71,-27.05,8.66,129.17,2.9499999999999993
2023-04-21 01-28-30-407392,-90,-110,1531,1464,-89.868,-110.093,1.48,4.36,-8.64,-27.0,8.46,129.31,3.0
2023-04-21 01-28-30-492674,-90,-110,1531,1464,-89.868,-110.093,1.47,4.36,-8.64,-26.97,8.26,129.42,3.030000000000001
2023-04-21 01-28-30-585861,-90,-110,1531,1464,-89.868,-110.093,1.38,4.35,-8.61,-26.96,8.01,129.54,3.039999999999999
2023-04-21 01-28-30-679334,-90,-110,1531,1464,-89.868,-110.093,1.38,4.34,-8.62,-26.98,7.99,129.55,3.0199999999999996
2023-04-21 01-28-30-765086,-90,-110,1530,1465,-89.868,-110.093,1.44,4.37,-8.65,-27.04,8.16,129.46,2.960000000000001
2023-04-21 01-28-30-855639,-90,-110,1530,1465,-89.78,-110.093,1.48,4.4,-8.64,-27.13,8.39,129.34,2.870000000000001
