Timestamp_log,left_angle,right_angle,left_thrust,right_thrust,read_left_angle,read_right_angle,accel_x,accel_y,accel_z,roll,pitch,yaw,error
2023-05-05 12-27-48-244097,0,160,1555,1440,-89.868,-110.093,0.12,-0.27,-9.78,1.42,0.38,177.48,21.42
2023-05-05 12-27-48-719236,0,160,1555,1443.0,-89.868,-110.093,0.09,-0.31,-10.15,1.39,0.36,177.48,21.39
2023-05-05 12-27-49-194744,0,160,1551,1449.0,-89.78,-110.093,0.12,0.47,-9.82,-2.84,-0.07,176.56,17.16
2023-05-05 12-27-49-662647,0,160,1543,1457.0,-89.78,-110.093,0.06,1.44,-9.6,-8.85,-0.01,172.76,11.15
2023-05-05 12-27-50-138139,0,160,1537,1463.0,-89.78,-110.093,0.03,2.51,-9.41,-13.28,-0.39,167.86,6.720000000000001
2023-05-05 12-27-50-613726,0,160,1537,1463.0,-89.78,-110.093,-0.31,2.36,-9.35,-13.97,-2.2,165.18,6.029999999999999
2023-05-05 12-27-51-069769,0,160,1541,1459.0,-89.868,-110.093,-0.04,1.98,-9.5,-11.83,-0.5,162.76,8.17
2023-05-05 12-27-51-533684,0,160,1546,1454.0,-89.78,-110.093,0.6,1.37,-9.67,-8.19,3.25,161.72,11.81
2023-05-05 12-27-52-008574,0,160,1550,1450.0,-89.78,-110.181,1.27,0.77,-9.8,-4.71,6.99,162.36,15.29
2023-05-05 12-27-52-475048,0,160,1551,1449.0,-89.868,-110.093,1.35,0.55,-9.8,-3.31,7.32,163.87,16.69
2023-05-05 12-27-52-935973,0,160,1549,1451.0,-89.868,-110.093,0.85,0.73,-9.74,-4.45,4.75,164.92,15.55
2023-05-05 12-27-53-408093,0,160,1547,1453.0,-89.78,-110.093,0.64,1.09,-9.64,-6.36,3.49,164.87,13.64
2023-05-05 12-27-53-881671,0,160,1546,1454.0,-89.78,-110.093,0.58,1.26,-9.63,-7.45,3.02,164.39,12.55
2023-05-05 12-27-54-370854,0,160,1545,1455.0,-89.78,-110.093,0.77,1.27,-9.67,-7.7,4.24,163.57,12.3
2023-05-05 12-27-54-816991,0,160,1546,1454.0,-89.78,-110.093,0.81,1.26,-9.67,-7.57,4.57,163.32,12.43
2023-05-05 12-27-55-298381,0,160,1547,1453.0,-89.868,-110.093,0.7,1.17,-9.7,-6.96,3.75,163.72,13.04
2023-05-05 12-27-55-774067,0,160,1547,1453.0,-89.78,-110.093,0.7,1.09,-9.7,-6.56,3.9,163.74,13.440000000000001
2023-05-05 12-27-56-242980,0,160,1547,1453.0,-89.868,-110.093,0.91,1.06,-9.72,-6.45,4.89,163.52,13.55
2023-05-05 12-27-56-740118,0,160,1547,1453.0,-89.868,-110.093,0.99,1.08,-9.69,-6.42,5.32,163.55,13.58
2023-05-05 12-27-57-207750,0,160,1547,1453.0,-89.78,-110.093,0.89,1.06,-9.68,-6.44,4.87,163.81,13.559999999999999
2023-05-05 12-27-57-707461,0,160,1547,1453.0,-89.868,-110.093,0.86,1.09,-9.67,-6.58,4.79,163.85,13.42
2023-05-05 12-27-58-180061,0,160,1547,1453.0,-89.78,-110.093,0.86,1.16,-9.63,-6.85,4.74,163.78,13.15
2023-05-05 12-27-58-659140,0,160,1546,1454.0,-89.868,-110.093,1.0,1.14,-9.68,-6.94,5.64,163.41,13.059999999999999
2023-05-05 12-27-59-140426,0,160,1546,1454.0,-89.78,-110.093,0.98,1.17,-9.66,-7.09,5.46,163.46,12.91
2023-05-05 12-27-59-631456,0,160,1546,1454.0,-89.78,-110.093,0.99,1.2,-9.67,-7.22,5.25,163.51,12.780000000000001
2023-05-05 12-28-00-108439,0,160,1546,1454.0,-89.868,-110.093,0.94,1.26,-9.65,-7.4,5.08,163.41,12.6
2023-05-05 12-28-00-574111,0,160,1546,1454.0,-89.78,-110.093,1.09,1.25,-9.66,-7.49,6.11,162.96,12.51
2023-05-05 12-28-01-067911,0,160,1546,1454.0,-89.78,-110.093,1.15,1.23,-9.64,-7.51,6.48,162.8,12.49
2023-05-05 12-28-01-526376,0,160,1546,1454.0,-89.868,-110.093,1.12,1.22,-9.66,-7.47,6.21,162.97,12.530000000000001
2023-05-05 12-28-01-998365,0,160,1546,1454.0,-89.78,-110.093,1.09,1.23,-9.65,-7.52,6.08,163.06,12.48
2023-05-05 12-28-02-499116,0,160,1545,1455.0,-89.868,-110.093,1.08,1.26,-9.61,-7.7,6.13,163.02,12.3
2023-05-05 12-28-02-968940,0,160,1546,1454.0,-89.868,-110.093,1.16,1.28,-9.63,-7.67,6.45,162.96,12.33
2023-05-05 12-28-03-462998,0,160,1546,1454.0,-89.868,-110.093,0.99,1.21,-9.65,-7.19,5.37,163.63,12.809999999999999
2023-05-05 12-28-03-922387,0,160,1547,1453.0,-89.868,-110.093,0.95,1.12,-9.66,-6.82,5.33,163.78,13.18
2023-05-05 12-28-04-413191,0,160,1547,1453.0,-89.868,-110.093,0.99,1.1,-9.67,-6.75,5.47,163.85,13.25
2023-05-05 12-28-04-901517,0,160,1547,1453.0,-89.78,-110.093,1.21,1.12,-9.69,-6.78,6.78,163.58,13.219999999999999
2023-05-05 12-28-05-374813,0,160,1546,1454.0,-89.78,-110.093,1.27,1.12,-9.65,-6.93,7.18,163.63,13.07
2023-05-05 12-28-05-838499,0,160,1546,1454.0,-89.868,-110.093,1.14,1.17,-9.64,-6.95,6.2,163.94,13.05
2023-05-05 12-28-06-327959,0,160,1546,1454.0,-89.868,-110.093,1.02,1.14,-9.66,-6.95,5.78,163.94,13.05
2023-05-05 12-28-06-791333,0,160,1546,1454.0,-89.78,-110.093,1.06,1.15,-9.63,-7.08,5.97,163.83,12.92
2023-05-05 12-28-07-272818,0,160,1546,1454.0,-89.78,-110.093,1.18,1.17,-9.65,-7.1,6.7,163.66,12.9
2023-05-05 12-28-07-764657,0,160,1546,1454.0,-89.78,-110.093,1.1,1.17,-9.64,-7.1,6.19,163.85,12.9
2023-05-05 12-28-08-237394,0,160,1546,1454.0,-89.868,-110.093,1.03,1.15,-9.66,-7.01,5.88,163.95,12.99
2023-05-05 12-28-08-697894,0,160,1546,1454.0,-89.868,-110.093,1.04,1.21,-9.6,-7.12,5.71,163.96,12.879999999999999
2023-05-05 12-28-09-188975,0,160,1546,1454.0,-89.868,-110.093,1.13,1.16,-9.63,-7.18,6.55,163.66,12.82
2023-05-05 12-28-09-651615,0,160,1546,1454.0,-89.78,-110.093,1.07,1.19,-9.63,-7.17,6.39,163.64,12.83
2023-05-05 12-28-10-140443,0,160,1546,1454.0,-89.78,-110.093,1.04,1.21,-9.64,-7.28,5.81,163.84,12.719999999999999
2023-05-05 12-28-10-615915,0,160,1546,1454.0,-89.78,-110.093,1.01,1.23,-9.66,-7.4,5.69,163.75,12.6
2023-05-05 12-28-11-081890,0,160,1546,1454.0,-89.868,-110.093,1.05,1.25,-9.62,-7.53,5.96,163.53,12.469999999999999
2023-05-05 12-28-11-556567,0,160,1546,1454.0,-89.868,-110.093,1.25,1.27,-9.63,-7.54,7.05,163.19,12.46
2023-05-05 12-28-12-043263,0,160,1546,1454.0,-89.868,-110.093,1.15,1.25,-9.63,-7.52,6.46,163.31,12.48
2023-05-05 12-28-12-512843,0,160,1546,1454.0,-89.868,-110.093,1.07,1.24,-9.64,-7.55,6.07,163.43,12.45
2023-05-05 12-28-12-974722,0,160,1546,1454.0,-89.868,-110.093,1.07,1.27,-9.62,-7.64,5.97,163.33,12.36
2023-05-05 12-28-13-464296,0,160,1546,1454.0,-89.78,-110.093,1.19,1.27,-9.64,-7.66,6.81,163.03,12.34
2023-05-05 12-28-13-923912,0,160,1546,1454.0,-89.868,-110.093,1.23,1.26,-9.63,-7.6,6.84,163.1,12.4
2023-05-05 12-28-14-409988,0,160,1546,1454.0,-89.868,-110.093,1.09,1.24,-9.63,-7.5,6.07,163.41,12.5
2023-05-05 12-28-14-884937,0,160,1546,1454.0,-89.868,-110.093,1.02,1.24,-9.64,-7.56,5.85,163.39,12.440000000000001
2023-05-05 12-28-15-340583,0,160,1545,1455.0,-89.868,-110.093,1.08,1.31,-9.62,-7.7,6.13,163.19,12.3
2023-05-05 12-28-15-824853,0,160,1546,1454.0,-89.78,-110.093,1.2,1.27,-9.64,-7.68,6.78,163.0,12.32
2023-05-05 12-28-16-284544,0,160,1546,1454.0,-89.868,-110.093,0.97,1.2,-9.63,-7.21,5.33,163.69,12.79
2023-05-05 12-28-16-764986,0,160,1546,1454.0,-89.78,-110.093,0.9,1.17,-9.67,-6.99,5.33,163.74,13.01
2023-05-05 12-28-17-243738,0,160,1546,1454.0,-89.78,-110.093,0.98,1.18,-9.64,-7.03,5.49,163.7,12.969999999999999
2023-05-05 12-28-17-708563,0,160,1546,1454.0,-89.868,-110.093,1.13,1.18,-9.68,-7.17,6.38,163.42,12.83
2023-05-05 12-28-18-171949,0,160,1546,1454.0,-89.868,-110.093,1.2,1.23,-9.64,-7.28,6.73,163.26,12.719999999999999
2023-05-05 12-28-18-658166,0,160,1546,1454.0,-89.868,-110.093,1.12,1.24,-9.65,-7.34,6.26,163.41,12.66
2023-05-05 12-28-19-128392,0,160,1546,1454.0,-89.868,-110.093,1.1,1.23,-9.65,-7.47,6.27,163.41,12.530000000000001
2023-05-05 12-28-19-615573,0,160,1546,1454.0,-89.868,-110.093,1.1,1.25,-9.61,-7.64,6.26,163.22,12.36
2023-05-05 12-28-20-126804,0,160,1545,1455.0,-89.868,-110.093,1.26,1.26,-9.63,-7.73,7.19,163.13,12.27
2023-05-05 12-28-20-590835,0,160,1546,1454.0,-89.868,-110.093,1.16,1.28,-9.63,-7.68,6.41,163.33,12.32
2023-05-05 12-28-21-096508,0,160,1546,1454.0,-89.78,-110.093,0.94,1.23,-9.66,-7.22,5.04,163.78,12.780000000000001
2023-05-05 12-28-21-583411,0,160,1546,1454.0,-89.78,-110.181,0.9,1.17,-9.65,-7.12,5.1,163.71,12.879999999999999
2023-05-05 12-28-22-050275,0,160,1546,1454.0,-89.78,-110.093,1.12,1.19,-9.67,-7.17,6.42,163.22,12.83
2023-05-05 12-28-22-548035,0,160,1546,1454.0,-89.78,-110.093,1.14,1.24,-9.63,-7.31,6.54,163.1,12.690000000000001
2023-05-05 12-28-23-024287,0,160,1546,1454.0,-89.868,-110.093,1.07,1.26,-9.61,-7.56,6.0,163.25,12.440000000000001
2023-05-05 12-28-23-519861,0,160,1545,1455.0,-89.78,-110.093,1.02,1.29,-9.65,-7.81,5.74,163.17,12.190000000000001
2023-05-05 12-28-24-006961,0,160,1545,1455.0,-89.78,-110.093,1.0,1.31,-9.61,-7.92,5.7,163.01,12.08
2023-05-05 12-28-24-484633,0,160,1546,1454.0,-89.868,-110.181,1.01,1.2,-9.67,-7.34,5.67,163.25,12.66
2023-05-05 12-28-24-954012,0,160,1547,1453.0,-89.78,-110.093,0.9,1.08,-9.69,-6.63,5.0,163.85,13.370000000000001
2023-05-05 12-28-25-454654,0,160,1547,1453.0,-89.868,-110.093,0.94,1.07,-9.7,-6.34,5.16,163.97,13.66
2023-05-05 12-28-25-916879,0,160,1547,1453.0,-89.868,-110.093,0.91,1.07,-9.64,-6.54,5.04,164.03,13.46
2023-05-05 12-28-26-391558,0,160,1547,1453.0,-89.868,-110.093,1.08,1.1,-9.69,-6.84,6.16,163.5,13.16
2023-05-05 12-28-26-879657,0,160,1546,1454.0,-89.868,-110.093,1.14,1.2,-9.64,-7.08,6.26,163.44,12.92
2023-05-05 12-28-27-343770,0,160,1546,1454.0,-89.868,-110.093,1.03,1.21,-9.65,-7.26,5.89,163.53,12.74
2023-05-05 12-28-27-808119,0,160,1546,1454.0,-89.868,-110.093,1.02,1.23,-9.66,-7.45,5.8,163.47,12.55
2023-05-05 12-28-28-289788,0,160,1546,1454.0,-89.78,-110.093,1.1,1.26,-9.61,-7.63,6.21,163.21,12.370000000000001
2023-05-05 12-28-28-740975,0,160,1545,1455.0,-89.868,-110.093,1.26,1.27,-9.61,-7.73,7.13,162.89,12.27
