Timestamp_log,left_angle,right_angle,left_thrust,right_thrust,read_left_angle,read_right_angle,accel_x,accel_y,accel_z,roll,pitch,yaw,error
2023-04-21 02-50-56-301400,0,160,1560,1440,-0.264,160.039,-0.08,-0.06,-9.78,0.23,-0.69,-156.36,36.360000000000014
2023-04-21 02-50-56-381299,0,160,1560,1440,-0.264,160.039,-0.09,-0.06,-9.78,0.23,-0.69,-156.36,36.360000000000014
2023-04-21 02-50-56-461595,0,160,1560,1440,-0.264,160.039,-0.09,-0.07,-9.79,0.23,-0.7,-156.35,36.349999999999994
2023-04-21 02-50-56-540977,0,160,1560,1440,-0.264,160.039,-0.09,0.02,-9.77,0.23,-0.71,-156.35,36.349999999999994
2023-04-21 02-50-56-621149,0,160,1560,1440,-0.264,160.039,-0.63,0.26,-9.74,0.2,-0.71,-156.16,36.16
2023-04-21 02-50-56-701416,0,160,1560,1440,-0.264,160.039,-0.38,0.06,-9.74,0.21,-0.7,-155.82,35.81999999999999
2023-04-21 02-50-56-779895,0,160,1560,1440,-0.264,160.039,-0.29,-0.15,-9.79,0.23,-0.69,-155.25,35.25
2023-04-21 02-50-56-848443,0,160,1560,1440,-0.264,160.039,-0.26,-0.11,-9.74,0.24,-0.65,-154.59,34.59
2023-04-21 02-50-56-935732,0,160,1560,1440,-0.264,160.039,-0.21,-0.14,-9.83,0.27,-0.59,-153.69,33.69
2023-04-21 02-50-57-005758,0,160,1560,1440,-0.264,160.039,-0.16,-0.17,-9.79,0.29,-0.54,-152.67,32.66999999999999
2023-04-21 02-50-57-081913,0,160,1560,1440,-0.264,159.951,-0.11,-0.12,-9.8,0.3,-0.53,-151.56,31.560000000000002
2023-04-21 02-50-57-161927,0,160,1560,1440,-0.264,160.039,-0.07,-0.12,-9.85,0.3,-0.55,-150.54,30.539999999999992
2023-04-21 02-50-57-240594,0,160,1560,1440,-0.264,160.039,-0.1,-0.14,-9.81,0.3,-0.62,-149.37,29.370000000000005
2023-04-21 02-50-57-319946,0,160,1560,1440,-0.264,160.039,-0.07,-0.09,-9.8,0.28,-0.72,-148.18,28.180000000000007
2023-04-21 02-50-57-400020,0,160,1560,1440,-0.352,160.039,-0.03,-0.09,-9.88,0.3,-0.82,-147.04,27.039999999999992
2023-04-21 02-50-57-482281,0,160,1560,1440,-0.264,160.039,-0.03,-0.07,-9.82,0.24,-0.97,-145.97,25.97
2023-04-21 02-50-57-558774,0,160,1560,1440,-0.264,159.951,-0.04,-0.04,-9.83,0.16,-1.17,-145.02,25.02000000000001
2023-04-21 02-50-57-638463,0,160,1560,1440,-0.264,160.039,-0.05,0.02,-9.81,0.05,-1.39,-144.18,24.180000000000007
2023-04-21 02-50-57-723812,0,160,1560,1440,-0.264,160.039,-0.05,0.03,-9.86,-0.09,-1.65,-143.5,23.5
2023-04-21 02-50-57-797268,0,160,1560,1440,-0.264,160.039,-0.14,0.07,-9.81,-0.33,-1.97,-143.01,23.00999999999999
2023-04-21 02-50-57-880009,0,160,1560,1440,-0.264,159.951,-0.2,0.2,-9.81,-0.59,-2.31,-142.7,22.69999999999999
2023-04-21 02-50-57-954911,0,160,1560,1440,-0.264,159.951,-0.27,0.21,-9.79,-0.9,-2.66,-142.56,22.560000000000002
2023-04-21 02-50-58-015959,0,160,1560,1440,-0.264,159.951,-0.39,0.27,-9.73,-1.2,-2.97,-142.54,22.539999999999992
2023-04-21 02-50-58-098743,0,160,1560,1440,-0.264,159.951,-0.43,0.22,-9.74,-1.43,-3.21,-142.6,22.599999999999994
2023-04-21 02-50-58-187611,0,160,1560,1440,-0.264,159.951,-0.53,0.27,-9.75,-1.74,-3.45,-142.71,22.710000000000008
2023-04-21 02-50-58-250322,0,160,1560,1440,-0.264,159.951,-0.58,0.33,-9.66,-2.02,-3.59,-142.84,22.840000000000003
2023-04-21 02-50-58-316484,0,160,1560,1440,-0.264,159.951,-0.58,0.38,-9.73,-2.24,-3.61,-142.96,22.960000000000008
2023-04-21 02-50-58-396465,0,160,1560,1440,-0.264,159.951,-0.58,0.38,-9.71,-2.45,-3.56,-143.11,23.110000000000014
2023-04-21 02-50-58-474620,0,160,1560,1440,-0.264,159.951,-0.56,0.41,-9.69,-2.64,-3.45,-143.34,23.340000000000003
2023-04-21 02-50-58-555377,0,160,1560,1440,-0.264,160.039,-0.51,0.45,-9.72,-2.83,-3.29,-143.6,23.599999999999994
2023-04-21 02-50-58-636134,0,160,1560,1440,-0.264,159.951,-0.5,0.48,-9.72,-2.96,-3.15,-143.86,23.860000000000014
2023-04-21 02-50-58-715118,0,160,1560,1440,-0.264,159.951,-0.48,0.49,-9.71,-3.07,-3.07,-144.15,24.150000000000006
2023-04-21 02-50-58-795463,0,160,1560,1440,-0.264,159.951,-0.47,0.51,-9.72,-3.16,-3.02,-144.45,24.44999999999999
2023-04-21 02-50-58-876749,0,160,1560,1440,-0.264,160.039,-0.48,0.55,-9.76,-3.24,-2.98,-144.76,24.75999999999999
2023-04-21 02-50-58-953768,0,160,1560,1440,-0.264,160.039,-0.52,0.53,-9.71,-3.3,-2.99,-145.09,25.090000000000003
2023-04-21 02-50-59-024478,0,160,1560,1440,-0.264,159.951,-0.51,0.56,-9.7,-3.33,-3.02,-145.37,25.370000000000005
2023-04-21 02-50-59-104134,0,160,1560,1440,-0.264,160.039,-0.5,0.58,-9.79,-3.33,-3.02,-145.64,25.639999999999986
2023-04-21 02-50-59-184616,0,160,1560,1440,-0.264,160.039,-0.51,0.53,-9.71,-3.31,-3.04,-145.99,25.99000000000001
2023-04-21 02-50-59-264366,0,160,1560,1440,-0.264,159.951,-0.53,0.57,-9.8,-3.29,-3.07,-146.3,26.30000000000001
2023-04-21 02-50-59-337781,0,160,1560,1440,-0.264,159.951,-0.5,0.55,-9.77,-3.26,-3.11,-146.56,26.560000000000002
2023-04-21 02-50-59-412238,0,160,1560,1440,-0.264,160.039,-0.49,0.5,-9.74,-3.22,-3.16,-146.81,26.810000000000002
2023-04-21 02-50-59-499882,0,160,1560,1440,-0.264,159.951,-0.52,0.51,-9.77,-3.19,-3.2,-147.1,27.099999999999994
2023-04-21 02-50-59-571992,0,160,1560,1440,-0.264,159.951,-0.55,0.47,-9.74,-3.15,-3.28,-147.4,27.400000000000006
2023-04-21 02-50-59-657401,0,160,1560,1440,-0.264,159.951,-0.57,0.52,-9.74,-3.12,-3.34,-147.68,27.680000000000007
2023-04-21 02-50-59-741693,0,160,1560,1440,-0.264,159.951,-0.56,0.55,-9.77,-3.09,-3.38,-147.9,27.900000000000006
2023-04-21 02-50-59-799350,0,160,1560,1440,-0.264,159.951,-0.56,0.47,-9.72,-3.06,-3.37,-148.14,28.139999999999986
2023-04-21 02-50-59-866637,0,160,1560,1440,-0.264,159.951,-0.56,0.48,-9.72,-3.04,-3.36,-148.35,28.349999999999994
2023-04-21 02-50-59-947782,0,160,1560,1440,-0.264,160.039,-0.56,0.49,-9.77,-3.04,-3.36,-148.58,28.580000000000013
2023-04-21 02-51-00-027813,0,160,1560,1440,-0.264,160.039,-0.51,0.53,-9.77,-3.05,-3.34,-148.8,28.80000000000001
2023-04-21 02-51-00-107757,0,160,1560,1440,-0.264,159.951,-0.53,0.52,-9.78,-3.06,-3.32,-149.04,29.039999999999992
2023-04-21 02-51-00-219333,0,160,1560,1440,-0.264,159.951,-0.57,0.49,-9.74,-3.08,-3.31,-149.28,29.28
2023-04-21 02-51-00-273443,0,160,1560,1440,-0.264,159.951,-0.55,0.53,-9.74,-3.1,-3.31,-149.49,29.49000000000001
2023-04-21 02-51-00-355866,0,160,1560,1440,-0.352,160.039,-0.52,0.49,-9.79,-3.11,-3.29,-149.68,29.680000000000007
2023-04-21 02-51-00-430505,0,160,1560,1440,-0.264,159.951,-0.52,0.5,-9.73,-3.11,-3.26,-149.87,29.870000000000005
2023-04-21 02-51-00-497885,0,160,1560,1440,-0.264,159.951,-0.53,0.53,-9.77,-3.11,-3.25,-150.09,30.090000000000003
2023-04-21 02-51-00-587208,0,160,1560,1440,-0.264,160.039,-0.56,0.48,-9.73,-3.12,-3.24,-150.28,30.28
2023-04-21 02-51-00-662545,0,160,1560,1440,-0.264,159.951,-0.56,0.54,-9.76,-3.12,-3.26,-150.47,30.47
2023-04-21 02-51-00-739851,0,160,1560,1440,-0.264,159.951,-0.54,0.49,-9.71,-3.12,-3.26,-150.65,30.650000000000006
2023-04-21 02-51-00-817648,0,160,1560,1440,-0.264,159.951,-0.52,0.5,-9.76,-3.11,-3.25,-150.84,30.840000000000003
2023-04-21 02-51-00-898434,0,160,1560,1440,-0.264,159.951,-0.52,0.49,-9.73,-3.11,-3.25,-151.02,31.02000000000001
2023-04-21 02-51-00-980170,0,160,1560,1440,-0.264,159.951,-0.54,0.56,-9.77,-3.12,-3.27,-151.21,31.210000000000008
2023-04-21 02-51-01-061205,0,160,1560,1440,-0.264,160.039,-0.53,0.5,-9.75,-3.11,-3.28,-151.38,31.379999999999995
2023-04-21 02-51-01-142083,0,160,1560,1440,-0.264,160.039,-0.54,0.49,-9.69,-3.1,-3.28,-151.55,31.55000000000001
2023-04-21 02-51-01-214583,0,160,1560,1440,-0.264,160.039,-0.52,0.52,-9.8,-3.08,-3.29,-151.71,31.710000000000008
2023-04-21 02-51-01-312921,0,160,1560,1440,-0.264,160.039,-0.54,0.48,-9.71,-3.06,-3.31,-151.87,31.870000000000005
2023-04-21 02-51-01-389994,0,160,1560,1440,-0.264,159.951,-0.53,0.51,-9.78,-3.05,-3.33,-152.03,32.03
2023-04-21 02-51-01-455623,0,160,1560,1440,-0.264,159.951,-0.54,0.48,-9.82,-3.02,-3.35,-152.18,32.18000000000001
2023-04-21 02-51-01-533571,0,160,1560,1440,-0.264,159.951,-0.54,0.46,-9.7,-3.01,-3.35,-152.33,32.33000000000001
2023-04-21 02-51-01-631341,0,160,1560,1440,-0.352,160.039,-0.56,0.48,-9.78,-3.01,-3.36,-152.44,32.44
2023-04-21 02-51-01-696338,0,160,1560,1440,-0.352,160.039,-0.56,0.51,-9.78,-3.0,-3.38,-152.6,32.599999999999994
2023-04-21 02-51-01-762644,0,160,1560,1440,-0.264,159.951,-0.59,0.48,-9.75,-3.0,-3.38,-152.72,32.72
2023-04-21 02-51-01-873846,0,160,1560,1440,-0.264,159.951,-0.54,0.49,-9.73,-3.0,-3.38,-152.83,32.83000000000001
2023-04-21 02-51-01-944146,0,160,1560,1440,-0.264,159.951,-0.56,0.51,-9.77,-3.01,-3.35,-152.94,32.94
2023-04-21 02-51-02-008269,0,160,1560,1440,-0.264,160.039,-0.54,0.52,-9.76,-3.01,-3.32,-153.06,33.06
2023-04-21 02-51-02-085554,0,160,1560,1440,-0.264,159.951,-0.55,0.5,-9.72,-3.03,-3.3,-153.17,33.16999999999999
2023-04-21 02-51-02-166826,0,160,1560,1440,-0.264,160.039,-0.51,0.52,-9.76,-3.05,-3.27,-153.27,33.27000000000001
2023-04-21 02-51-02-253396,0,160,1560,1440,-0.264,160.039,-0.54,0.53,-9.77,-3.07,-3.26,-153.4,33.400000000000006
2023-04-21 02-51-02-325135,0,160,1560,1440,-0.352,160.039,-0.56,0.5,-9.71,-3.11,-3.23,-153.51,33.50999999999999
2023-04-21 02-51-02-404056,0,160,1560,1440,-0.264,159.951,-0.51,0.54,-9.77,-3.12,-3.21,-153.63,33.629999999999995
2023-04-21 02-51-02-466728,0,160,1560,1440,-0.264,160.039,-0.51,0.53,-9.78,-3.14,-3.17,-153.74,33.74000000000001
2023-04-21 02-51-02-552872,0,160,1560,1440,-0.264,159.951,-0.49,0.5,-9.73,-3.16,-3.15,-153.83,33.83000000000001
2023-04-21 02-51-02-627017,0,160,1560,1440,-0.264,159.951,-0.51,0.55,-9.79,-3.18,-3.12,-153.94,33.94
2023-04-21 02-51-02-705854,0,160,1560,1440,-0.264,159.951,-0.53,0.52,-9.74,-3.19,-3.13,-154.04,34.03999999999999
2023-04-21 02-51-02-800311,0,160,1560,1440,-0.264,160.039,-0.52,0.52,-9.76,-3.19,-3.14,-154.13,34.129999999999995
2023-04-21 02-51-02-854353,0,160,1560,1440,-0.264,159.951,-0.52,0.49,-9.72,-3.19,-3.16,-154.22,34.22
2023-04-21 02-51-02-932838,0,160,1560,1440,-0.264,159.951,-0.54,0.52,-9.71,-3.16,-3.21,-154.31,34.31
2023-04-21 02-51-03-001748,0,160,1560,1440,-0.264,159.951,-0.52,0.54,-9.78,-3.12,-3.24,-154.41,34.41
2023-04-21 02-51-03-082842,0,160,1560,1440,-0.264,159.951,-0.53,0.48,-9.72,-3.09,-3.29,-154.5,34.5
2023-04-21 02-51-03-161960,0,160,1560,1440,-0.264,160.039,-0.54,0.48,-9.74,-3.05,-3.34,-154.6,34.599999999999994
2023-04-21 02-51-03-240876,0,160,1560,1440,-0.352,159.951,-0.54,0.51,-9.77,-3.02,-3.38,-154.69,34.69
2023-04-21 02-51-03-306128,0,160,1560,1440,-0.264,159.951,-0.57,0.47,-9.73,-2.99,-3.41,-154.77,34.77000000000001
2023-04-21 02-51-03-386845,0,160,1560,1440,-0.264,159.951,-0.56,0.51,-9.79,-2.96,-3.44,-154.85,34.849999999999994
2023-04-21 02-51-03-465233,0,160,1560,1440,-0.264,159.951,-0.56,0.46,-9.75,-2.96,-3.44,-154.92,34.91999999999999
2023-04-21 02-51-03-528954,0,160,1560,1440,-0.264,159.951,-0.57,0.48,-9.74,-2.97,-3.44,-154.99,34.99000000000001
2023-04-21 02-51-03-623139,0,160,1560,1440,-0.264,160.039,-0.55,0.52,-9.76,-2.97,-3.43,-155.04,35.03999999999999
2023-04-21 02-51-03-680204,0,160,1560,1440,-0.264,159.951,-0.53,0.49,-9.75,-2.97,-3.43,-155.1,35.099999999999994
2023-04-21 02-51-03-750878,0,160,1560,1440,-0.264,159.951,-0.53,0.42,-9.69,-2.98,-3.43,-155.17,35.16999999999999
2023-04-21 02-51-03-834685,0,160,1560,1440,-0.264,160.039,-0.56,0.53,-9.75,-2.98,-3.45,-155.24,35.24000000000001
2023-04-21 02-51-03-922962,0,160,1560,1440,-0.264,159.951,-0.54,0.45,-9.68,-2.98,-3.46,-155.29,35.28999999999999
2023-04-21 02-51-03-985690,0,160,1560,1440,-0.264,160.039,-0.57,0.46,-9.74,-2.96,-3.46,-155.34,35.34
2023-04-21 02-51-04-063692,0,160,1560,1440,-0.264,159.951,-0.57,0.48,-9.79,-2.94,-3.49,-155.4,35.400000000000006
2023-04-21 02-51-04-130003,0,160,1560,1440,-0.352,159.951,-0.58,0.49,-9.77,-2.9,-3.51,-155.45,35.44999999999999
2023-04-21 02-51-04-210275,0,160,1560,1440,-0.264,159.951,-0.57,0.44,-9.74,-2.89,-3.52,-155.5,35.5
2023-04-21 02-51-04-288536,0,160,1560,1440,-0.264,159.951,-0.57,0.45,-9.74,-2.87,-3.54,-155.55,35.55000000000001
2023-04-21 02-51-04-366966,0,160,1560,1440,-0.264,159.951,-0.6,0.46,-9.77,-2.84,-3.59,-155.61,35.610000000000014
2023-04-21 02-51-04-448606,0,160,1560,1440,-0.264,159.951,-0.59,0.43,-9.72,-2.83,-3.65,-155.67,35.66999999999999
2023-04-21 02-51-04-527854,0,160,1560,1440,-0.264,160.039,-0.65,0.44,-9.74,-2.78,-3.71,-155.72,35.72
2023-04-21 02-51-04-608153,0,160,1560,1440,-0.264,159.951,-0.62,0.45,-9.76,-2.73,-3.77,-155.76,35.75999999999999
2023-04-21 02-51-04-687596,0,160,1560,1440,-0.264,159.951,-0.63,0.46,-9.77,-2.69,-3.83,-155.79,35.78999999999999
2023-04-21 02-51-04-766599,0,160,1560,1440,-0.264,159.951,-0.64,0.41,-9.73,-2.64,-3.91,-155.83,35.83000000000001
2023-04-21 02-51-04-848300,0,160,1560,1440,-0.264,160.039,-0.67,0.43,-9.75,-2.59,-3.99,-155.87,35.870000000000005
2023-04-21 02-51-04-927972,0,160,1560,1440,-0.264,159.951,-0.67,0.42,-9.72,-2.54,-4.05,-155.89,35.889999999999986
2023-04-21 02-51-05-008821,0,160,1560,1440,-0.264,160.039,-0.66,0.44,-9.78,-2.5,-4.13,-155.91,35.91
2023-04-21 02-51-05-090947,0,160,1560,1440,-0.264,160.039,-0.69,0.42,-9.72,-2.47,-4.2,-155.92,35.91999999999999
2023-04-21 02-51-05-176393,0,160,1560,1440,-0.264,159.951,-0.72,0.39,-9.74,-2.43,-4.25,-155.94,35.94
2023-04-21 02-51-05-253996,0,160,1560,1440,-0.264,159.951,-0.71,0.42,-9.82,-2.4,-4.26,-155.95,35.94999999999999
2023-04-21 02-51-05-329322,0,160,1560,1440,-0.264,159.951,-0.71,0.39,-9.75,-2.39,-4.26,-155.97,35.97
2023-04-21 02-51-05-411203,0,160,1560,1440,-0.264,159.951,-0.7,0.41,-9.79,-2.42,-4.25,-155.99,35.99000000000001
2023-04-21 02-51-05-479561,0,160,1560,1440,-0.264,160.039,-0.69,0.42,-9.78,-2.45,-4.24,-156.01,36.00999999999999
2023-04-21 02-51-05-558714,0,160,1560,1440,-0.264,160.039,-0.72,0.36,-9.73,-2.48,-4.21,-156.02,36.02000000000001
2023-04-21 02-51-05-640076,0,160,1560,1440,-0.264,159.951,-0.69,0.41,-9.75,-2.5,-4.17,-156.02,36.02000000000001
2023-04-21 02-51-05-724048,0,160,1560,1440,-0.264,160.039,-0.64,0.42,-9.73,-2.51,-4.17,-156.02,36.02000000000001
2023-04-21 02-51-05-782258,0,160,1560,1440,-0.264,159.951,-0.68,0.4,-9.69,-2.52,-4.16,-156.04,36.03999999999999
2023-04-21 02-51-05-864866,0,160,1560,1440,-0.264,159.951,-0.68,0.47,-9.79,-2.53,-4.17,-156.06,36.06
2023-04-21 02-51-05-949167,0,160,1560,1440,-0.264,160.039,-0.69,0.38,-9.7,-2.52,-4.18,-156.08,36.08000000000001
2023-04-21 02-51-06-028736,0,160,1560,1440,-0.264,160.039,-0.69,0.43,-9.79,-2.5,-4.19,-156.1,36.099999999999994
2023-04-21 02-51-06-111626,0,160,1560,1440,-0.264,159.951,-0.7,0.38,-9.7,-2.48,-4.19,-156.12,36.120000000000005
2023-04-21 02-51-06-196895,0,160,1560,1440,-0.264,159.951,-0.69,0.38,-9.71,-2.5,-4.18,-156.13,36.129999999999995
2023-04-21 02-51-06-272731,0,160,1560,1440,-0.264,160.039,-0.68,0.44,-9.76,-2.52,-4.15,-156.15,36.150000000000006
2023-04-21 02-51-06-341420,0,160,1560,1440,-0.352,160.039,-0.69,0.44,-9.78,-2.55,-4.11,-156.16,36.16
2023-04-21 02-51-06-426183,0,160,1560,1440,-0.264,160.039,-0.66,0.46,-9.77,-2.57,-4.09,-156.16,36.16
2023-04-21 02-51-06-504212,0,160,1560,1440,-0.264,159.951,-0.63,0.46,-9.8,-2.59,-4.04,-156.17,36.16999999999999
2023-04-21 02-51-06-589631,0,160,1560,1440,-0.264,159.951,-0.64,0.44,-9.72,-2.6,-4.01,-156.19,36.19
2023-04-21 02-51-06-663814,0,160,1560,1440,-0.264,159.951,-0.68,0.4,-9.73,-2.6,-4.04,-156.22,36.22
2023-04-21 02-51-06-733780,0,160,1560,1440,-0.264,159.951,-0.68,0.41,-9.72,-2.59,-4.06,-156.24,36.24000000000001
2023-04-21 02-51-06-803495,0,160,1560,1440,-0.264,160.039,-0.7,0.44,-9.77,-2.58,-4.1,-156.25,36.25
2023-04-21 02-51-06-885445,0,160,1560,1440,-0.264,159.951,-0.67,0.41,-9.71,-2.56,-4.12,-156.26,36.25999999999999
2023-04-21 02-51-06-965115,0,160,1560,1440,-0.264,159.951,-0.69,0.42,-9.78,-2.55,-4.14,-156.27,36.27000000000001
2023-04-21 02-51-07-046885,0,160,1560,1440,-0.264,160.039,-0.69,0.4,-9.7,-2.54,-4.16,-156.28,36.28
2023-04-21 02-51-07-131769,0,160,1560,1440,-0.352,160.039,-0.68,0.42,-9.74,-2.53,-4.17,-156.3,36.30000000000001
2023-04-21 02-51-07-214301,0,160,1560,1440,-0.264,160.039,-0.67,0.41,-9.76,-2.53,-4.16,-156.3,36.30000000000001
2023-04-21 02-51-07-289163,0,160,1560,1440,-0.264,160.039,-0.67,0.4,-9.7,-2.54,-4.15,-156.31,36.31
2023-04-21 02-51-07-348894,0,160,1560,1440,-0.264,160.039,-0.66,0.43,-9.75,-2.55,-4.14,-156.33,36.33000000000001
2023-04-21 02-51-07-430672,0,160,1560,1440,-0.264,160.039,-0.7,0.43,-9.73,-2.56,-4.13,-156.33,36.33000000000001
2023-04-21 02-51-07-510671,0,160,1560,1440,-0.352,160.039,-0.69,0.41,-9.72,-2.57,-4.12,-156.34,36.34
2023-04-21 02-51-07-591904,0,160,1560,1440,-0.264,160.039,-0.67,0.46,-9.76,-2.57,-4.11,-156.34,36.34
2023-04-21 02-51-07-664304,0,160,1560,1440,-0.264,160.039,-0.67,0.38,-9.73,-2.57,-4.09,-156.35,36.349999999999994
2023-04-21 02-51-07-743366,0,160,1560,1440,-0.264,159.951,-0.67,0.4,-9.75,-2.58,-4.09,-156.36,36.360000000000014
2023-04-21 02-51-07-822023,0,160,1560,1440,-0.264,160.039,-0.67,0.44,-9.75,-2.57,-4.11,-156.37,36.370000000000005
2023-04-21 02-51-07-903791,0,160,1560,1440,-0.264,159.951,-0.67,0.4,-9.73,-2.57,-4.12,-156.38,36.379999999999995
2023-04-21 02-51-07-997618,0,160,1560,1440,-0.264,159.951,-0.65,0.4,-9.72,-2.56,-4.13,-156.39,36.389999999999986
2023-04-21 02-51-08-068065,0,160,1560,1440,-0.264,160.039,-0.68,0.44,-9.78,-2.56,-4.12,-156.4,36.400000000000006
2023-04-21 02-51-08-150989,0,160,1560,1440,-0.264,160.039,-0.63,0.4,-9.72,-2.56,-4.11,-156.42,36.41999999999999
2023-04-21 02-51-08-228349,0,160,1560,1440,-0.264,159.951,-0.67,0.41,-9.74,-2.57,-4.08,-156.44,36.44
2023-04-21 02-51-08-309078,0,160,1560,1440,-0.264,159.951,-0.66,0.42,-9.77,-2.59,-4.07,-156.45,36.44999999999999
2023-04-21 02-51-08-392758,0,160,1560,1440,-0.264,160.039,-0.65,0.44,-9.74,-2.6,-4.05,-156.45,36.44999999999999
2023-04-21 02-51-08-474441,0,160,1560,1440,-0.264,159.951,-0.65,0.39,-9.71,-2.61,-4.03,-156.47,36.47
2023-04-21 02-51-08-554978,0,160,1560,1440,-0.264,159.951,-0.64,0.42,-9.71,-2.62,-4.02,-156.48,36.47999999999999
2023-04-21 02-51-08-623191,0,160,1560,1440,-0.264,159.951,-0.67,0.4,-9.73,-2.62,-4.0,-156.47,36.47
2023-04-21 02-51-08-702416,0,160,1560,1440,-0.264,159.951,-0.65,0.45,-9.79,-2.63,-3.99,-156.48,36.47999999999999
2023-04-21 02-51-08-782032,0,160,1560,1440,-0.264,159.951,-0.66,0.41,-9.69,-2.64,-3.98,-156.49,36.49000000000001
2023-04-21 02-51-08-862121,0,160,1560,1440,-0.264,159.951,-0.62,0.45,-9.76,-2.66,-3.96,-156.5,36.5
2023-04-21 02-51-08-943754,0,160,1560,1440,-0.264,160.039,-0.67,0.47,-9.78,-2.66,-3.97,-156.51,36.50999999999999
2023-04-21 02-51-09-016154,0,160,1560,1440,-0.264,159.951,-0.65,0.42,-9.7,-2.66,-3.97,-156.51,36.50999999999999
2023-04-21 02-51-09-102406,0,160,1560,1440,-0.264,159.951,-0.65,0.45,-9.77,-2.65,-3.98,-156.51,36.50999999999999
2023-04-21 02-51-09-184081,0,160,1560,1440,-0.264,159.951,-0.63,0.43,-9.74,-2.63,-3.99,-156.51,36.50999999999999
2023-04-21 02-51-09-266653,0,160,1560,1440,-0.264,159.951,-0.64,0.43,-9.76,-2.63,-4.02,-156.53,36.53
2023-04-21 02-51-09-339634,0,160,1560,1440,-0.264,159.951,-0.67,0.45,-9.76,-2.63,-4.04,-156.54,36.53999999999999
2023-04-21 02-51-09-421534,0,160,1560,1440,-0.264,160.039,-0.7,0.41,-9.74,-2.64,-4.06,-156.56,36.56
2023-04-21 02-51-09-504330,0,160,1560,1440,-0.264,159.951,-0.69,0.44,-9.77,-2.65,-4.07,-156.56,36.56
2023-04-21 02-51-09-587173,0,160,1560,1440,-0.264,160.039,-0.69,0.42,-9.72,-2.65,-4.07,-156.58,36.58000000000001
2023-04-21 02-51-09-656518,0,160,1560,1440,-0.264,160.039,-0.68,0.44,-9.76,-2.65,-4.06,-156.58,36.58000000000001
2023-04-21 02-51-09-736237,0,160,1560,1440,-0.264,159.951,-0.67,0.48,-9.77,-2.66,-4.07,-156.59,36.59
2023-04-21 02-51-09-819600,0,160,1560,1440,-0.264,159.951,-0.67,0.44,-9.71,-2.66,-4.07,-156.6,36.599999999999994
2023-04-21 02-51-09-903644,0,160,1560,1440,-0.264,159.951,-0.68,0.46,-9.77,-2.66,-4.05,-156.61,36.610000000000014
2023-04-21 02-51-09-993740,0,160,1560,1440,-0.264,159.951,-0.6,0.41,-9.7,-2.67,-4.04,-156.6,36.599999999999994
2023-04-21 02-51-10-067643,0,160,1560,1440,-0.264,159.951,-0.62,0.46,-9.77,-2.67,-4.03,-156.61,36.610000000000014
2023-04-21 02-51-10-148112,0,160,1560,1440,-0.264,160.039,-0.66,0.41,-9.73,-2.67,-4.04,-156.63,36.629999999999995
2023-04-21 02-51-10-231415,0,160,1560,1440,-0.352,160.039,-0.66,0.45,-9.77,-2.67,-4.06,-156.65,36.650000000000006
2023-04-21 02-51-10-320940,0,160,1560,1440,-0.264,160.039,-0.65,0.45,-9.74,-2.66,-4.06,-156.65,36.650000000000006
2023-04-21 02-51-10-403702,0,160,1560,1440,-0.264,160.039,-0.64,0.43,-9.73,-2.66,-4.05,-156.67,36.66999999999999
2023-04-21 02-51-10-482309,0,160,1560,1440,-0.264,159.951,-0.66,0.51,-9.77,-2.66,-4.05,-156.68,36.68000000000001
2023-04-21 02-51-10-559099,0,160,1560,1440,-0.264,159.951,-0.64,0.42,-9.73,-2.66,-4.07,-156.68,36.68000000000001
2023-04-21 02-51-10-643436,0,160,1560,1440,-0.264,159.951,-0.72,0.41,-9.68,-2.66,-4.08,-156.69,36.69
2023-04-21 02-51-10-720933,0,160,1560,1440,-0.264,160.039,-0.66,0.4,-9.71,-2.64,-4.07,-156.67,36.66999999999999
2023-04-21 02-51-10-802888,0,160,1560,1440,-0.264,159.951,-0.64,0.41,-9.81,-2.63,-4.06,-156.68,36.68000000000001
2023-04-21 02-51-10-878511,0,160,1560,1440,-0.264,159.951,-0.66,0.38,-9.72,-2.64,-4.08,-156.7,36.69999999999999
2023-04-21 02-51-10-963903,0,160,1560,1440,-0.264,160.039,-0.65,0.43,-9.77,-2.65,-4.1,-156.72,36.72
2023-04-21 02-51-11-043925,0,160,1560,1440,-0.264,160.039,-0.67,0.4,-9.71,-2.64,-4.09,-156.73,36.72999999999999
2023-04-21 02-51-11-125181,0,160,1560,1440,-0.264,159.951,-0.68,0.43,-9.76,-2.64,-4.08,-156.73,36.72999999999999
2023-04-21 02-51-11-203909,0,160,1560,1440,-0.264,159.951,-0.65,0.41,-9.72,-2.64,-4.07,-156.72,36.72
2023-04-21 02-51-11-305655,0,160,1560,1440,-0.264,159.951,-0.65,0.44,-9.76,-2.64,-4.04,-156.72,36.72
2023-04-21 02-51-11-365604,0,160,1560,1440,-0.264,160.039,-0.65,0.38,-9.71,-2.63,-4.04,-156.73,36.72999999999999
2023-04-21 02-51-11-443649,0,160,1560,1440,-0.352,159.951,-0.68,0.47,-9.79,-2.65,-4.04,-156.73,36.72999999999999
2023-04-21 02-51-11-514414,0,160,1560,1440,-0.264,160.039,-0.64,0.43,-9.7,-2.65,-4.05,-156.74,36.74000000000001
2023-04-21 02-51-11-589614,0,160,1560,1440,-0.264,159.951,-0.66,0.43,-9.77,-2.65,-4.04,-156.74,36.74000000000001
2023-04-21 02-51-11-649028,0,160,1560,1440,-0.264,159.951,-0.63,0.4,-9.69,-2.65,-4.03,-156.73,36.72999999999999
2023-04-21 02-51-11-740248,0,160,1560,1440,-0.264,159.951,-0.61,0.42,-9.71,-2.65,-4.01,-156.73,36.72999999999999
2023-04-21 02-51-11-812148,0,160,1560,1440,-0.264,159.951,-0.65,0.43,-9.79,-2.67,-4.01,-156.75,36.75
2023-04-21 02-51-11-892501,0,160,1560,1440,-0.264,160.039,-0.67,0.42,-9.73,-2.67,-4.03,-156.76,36.75999999999999
2023-04-21 02-51-11-984921,0,160,1560,1440,-0.264,160.039,-0.68,0.43,-9.76,-2.65,-4.03,-156.76,36.75999999999999
