Timestamp_log,left_angle,right_angle,left_thrust,right_thrust,read_left_angle,read_right_angle,accel_x,accel_y,accel_z,roll,pitch,yaw,error
2023-04-21 01-07-23-786121,-90,-110,1561,1561,-89.868,-110.093,0.14,0.79,-9.74,-4.77,0.58,152.9,25.23
2023-04-21 01-07-23-857028,-90,-110,1550,1550,-89.868,-110.181,0.14,0.79,-9.75,-4.77,0.59,152.9,25.23
2023-04-21 01-07-23-930091,-90,-110,1550,1550,-89.78,-110.093,0.14,0.79,-9.75,-4.76,0.59,152.91,25.240000000000002
2023-04-21 01-07-24-001860,-90,-110,1550,1550,-89.868,-110.093,0.14,0.79,-9.73,-4.76,0.59,152.91,25.240000000000002
2023-04-21 01-07-24-081608,-90,-110,1550,1550,-89.868,-110.093,0.18,0.8,-9.93,-4.75,0.58,152.92,25.25
2023-04-21 01-07-24-149020,-90,-110,1550,1550,-89.78,-110.093,0.14,0.84,-10.08,-4.8,-0.1,153.0,25.2
2023-04-21 01-07-24-222268,-90,-110,1550,1550,-89.868,-110.093,-0.18,0.78,-9.95,-4.92,-1.55,153.11,25.08
2023-04-21 01-07-24-289666,-90,-110,1549,1549,-89.78,-110.181,-0.49,0.83,-9.82,-5.17,-3.46,153.19,24.83
2023-04-21 01-07-24-362647,-90,-110,1549,1549,-89.868,-110.093,-0.91,0.99,-9.68,-5.49,-5.6,153.24,24.509999999999998
2023-04-21 01-07-24-444382,-90,-110,1549,1549,-89.868,-110.093,-1.31,0.99,-9.48,-5.81,-7.75,153.18,24.19
2023-04-21 01-07-24-509679,-90,-110,1548,1548,-89.868,-110.093,-1.66,1.0,-9.31,-6.08,-9.51,152.99,23.92
2023-04-21 01-07-24-581860,-90,-110,1548,1548,-89.868,-110.093,-1.83,1.06,-9.34,-6.32,-10.75,152.62,23.68
2023-04-21 01-07-24-655251,-90,-110,1548,1548,-89.868,-110.093,-1.94,1.09,-9.32,-6.46,-11.19,152.25,23.54
2023-04-21 01-07-24-732610,-90,-110,1548,1548,-89.868,-110.093,-1.92,1.09,-9.36,-6.57,-11.18,151.74,23.43
2023-04-21 01-07-24-796923,-90,-110,1548,1548,-89.868,-110.093,-1.85,1.09,-9.44,-6.63,-10.69,151.1,23.37
2023-04-21 01-07-24-862611,-90,-110,1548,1548,-89.868,-110.093,-1.69,1.1,-9.56,-6.67,-9.99,150.57,23.33
2023-04-21 01-07-24-935047,-90,-110,1548,1548,-89.868,-110.093,-1.55,1.09,-9.63,-6.71,-9.23,150.07,23.29
2023-04-21 01-07-25-011362,-90,-110,1548,1548,-89.868,-110.093,-1.39,1.11,-9.7,-6.76,-8.49,149.57,23.240000000000002
2023-04-21 01-07-25-089416,-90,-110,1548,1548,-89.868,-110.093,-1.32,1.12,-9.7,-6.85,-7.99,149.12,23.15
2023-04-21 01-07-25-163955,-90,-110,1548,1548,-89.868,-110.181,-1.28,1.16,-9.73,-6.95,-7.79,148.79,23.05
2023-04-21 01-07-25-238088,-90,-110,1547,1547,-89.868,-110.093,-1.27,1.18,-9.68,-7.07,-7.84,148.51,22.93
2023-04-21 01-07-25-312904,-90,-110,1547,1547,-89.868,-110.181,-1.34,1.22,-9.63,-7.23,-8.11,148.2,22.77
2023-04-21 01-07-25-403551,-90,-110,1547,1547,-89.868,-110.093,-1.41,1.24,-9.61,-7.41,-8.48,147.88,22.59
2023-04-21 01-07-25-469424,-90,-110,1547,1547,-89.78,-110.093,-1.49,1.25,-9.54,-7.6,-8.87,147.54,22.4
2023-04-21 01-07-25-534221,-90,-110,1547,1547,-89.868,-110.093,-1.55,1.3,-9.54,-7.75,-9.1,147.22,22.25
2023-04-21 01-07-25-610703,-90,-110,1547,1547,-89.78,-110.093,-1.56,1.31,-9.49,-7.88,-9.24,146.87,22.12
2023-04-21 01-07-25-687257,-90,-110,1546,1546,-89.868,-110.093,-1.56,1.31,-9.51,-7.99,-9.25,146.49,22.009999999999998
2023-04-21 01-07-25-762965,-90,-110,1546,1546,-89.868,-110.093,-1.52,1.36,-9.56,-8.09,-9.11,146.05,21.91
2023-04-21 01-07-25-839004,-90,-110,1546,1546,-89.868,-110.093,-1.49,1.38,-9.58,-8.19,-8.93,145.62,21.810000000000002
2023-04-21 01-07-25-908426,-90,-110,1546,1546,-89.868,-110.093,-1.45,1.4,-9.55,-8.28,-8.81,145.25,21.72
2023-04-21 01-07-25-980982,-90,-110,1546,1546,-89.868,-110.093,-1.44,1.37,-9.61,-8.37,-8.73,144.91,21.630000000000003
2023-04-21 01-07-26-062912,-90,-110,1546,1546,-89.868,-110.093,-1.46,1.39,-9.54,-8.45,-8.75,144.57,21.55
2023-04-21 01-07-26-134100,-90,-110,1546,1546,-89.868,-110.093,-1.45,1.43,-9.53,-8.55,-8.73,144.19,21.45
2023-04-21 01-07-26-206560,-90,-110,1546,1546,-89.868,-110.093,-1.45,1.43,-9.56,-8.63,-8.68,143.81,21.369999999999997
2023-04-21 01-07-26-285497,-90,-110,1546,1546,-89.868,-110.093,-1.43,1.43,-9.53,-8.69,-8.63,143.47,21.310000000000002
2023-04-21 01-07-26-362588,-90,-110,1546,1546,-89.868,-110.093,-1.43,1.45,-9.53,-8.74,-8.54,143.12,21.259999999999998
2023-04-21 01-07-26-440807,-90,-110,1546,1546,-89.78,-110.093,-1.39,1.48,-9.58,-8.79,-8.43,142.76,21.21
2023-04-21 01-07-26-518594,-90,-110,1546,1546,-89.868,-110.093,-1.38,1.47,-9.58,-8.83,-8.4,142.48,21.17
2023-04-21 01-07-26-577424,-90,-110,1546,1546,-89.868,-110.093,-1.38,1.48,-9.6,-8.87,-8.43,142.22,21.130000000000003
2023-04-21 01-07-26-661596,-90,-110,1546,1546,-89.868,-110.093,-1.41,1.5,-9.57,-8.91,-8.52,141.97,21.09
2023-04-21 01-07-26-735117,-90,-110,1546,1546,-89.868,-110.093,-1.46,1.53,-9.52,-8.96,-8.7,141.66,21.04
2023-04-21 01-07-26-810097,-90,-110,1545,1545,-89.868,-110.181,-1.46,1.51,-9.52,-9.0,-8.84,141.35,21.0
2023-04-21 01-07-26-887658,-90,-110,1545,1545,-89.868,-110.181,-1.48,1.52,-9.54,-9.04,-8.94,141.05,20.96
2023-04-21 01-07-26-956591,-90,-110,1545,1545,-89.868,-110.093,-1.49,1.5,-9.54,-9.06,-8.99,140.7,20.939999999999998
2023-04-21 01-07-27-042317,-90,-110,1545,1545,-89.868,-110.093,-1.49,1.52,-9.52,-9.08,-8.96,140.39,20.92
2023-04-21 01-07-27-110912,-90,-110,1545,1545,-89.868,-110.093,-1.48,1.51,-9.56,-9.09,-8.87,140.02,20.91
2023-04-21 01-07-27-189196,-90,-110,1545,1545,-89.868,-110.093,-1.46,1.52,-9.53,-9.11,-8.76,139.7,20.89
2023-04-21 01-07-27-274261,-90,-110,1545,1545,-89.868,-110.093,-1.41,1.51,-9.6,-9.12,-8.61,139.34,20.880000000000003
2023-04-21 01-07-27-349306,-90,-110,1545,1545,-89.868,-110.093,-1.42,1.51,-9.55,-9.14,-8.56,139.03,20.86
2023-04-21 01-07-27-420127,-90,-110,1545,1545,-89.868,-110.093,-1.41,1.52,-9.57,-9.17,-8.56,138.71,20.83
2023-04-21 01-07-27-497744,-90,-110,1545,1545,-89.868,-110.093,-1.43,1.53,-9.57,-9.19,-8.56,138.44,20.810000000000002
2023-04-21 01-07-27-561182,-90,-110,1545,1545,-89.868,-110.093,-1.42,1.54,-9.55,-9.2,-8.61,138.14,20.8
2023-04-21 01-07-27-639119,-90,-110,1545,1545,-89.78,-110.093,-1.43,1.53,-9.55,-9.22,-8.68,137.92,20.78
2023-04-21 01-07-27-715439,-90,-110,1545,1545,-89.78,-110.093,-1.47,1.55,-9.46,-9.23,-8.77,137.62,20.77
2023-04-21 01-07-27-793240,-90,-110,1545,1545,-89.868,-110.181,-1.44,1.54,-9.57,-9.23,-8.75,137.3,20.77
2023-04-21 01-07-27-870124,-90,-110,1545,1545,-89.868,-110.093,-1.47,1.52,-9.55,-9.23,-8.77,137.0,20.77
2023-04-21 01-07-27-947404,-90,-110,1545,1545,-89.868,-110.093,-1.47,1.55,-9.55,-9.24,-8.8,136.73,20.759999999999998
2023-04-21 01-07-28-020498,-90,-110,1545,1545,-89.868,-110.093,-1.49,1.52,-9.49,-9.25,-8.87,136.43,20.75
2023-04-21 01-07-28-097784,-90,-110,1545,1545,-89.868,-110.093,-1.45,1.52,-9.59,-9.24,-8.86,136.16,20.759999999999998
2023-04-21 01-07-28-175050,-90,-110,1545,1545,-89.868,-110.093,-1.51,1.55,-9.44,-9.26,-8.93,135.87,20.740000000000002
2023-04-21 01-07-28-253699,-90,-110,1545,1545,-89.868,-110.093,-1.47,1.58,-9.51,-9.23,-8.82,135.56,20.77
2023-04-21 01-07-28-320031,-90,-110,1545,1545,-89.868,-110.093,-1.43,1.53,-9.55,-9.2,-8.65,135.29,20.8
2023-04-21 01-07-28-400662,-90,-110,1545,1545,-89.868,-110.093,-1.41,1.52,-9.56,-9.17,-8.5,135.04,20.83
2023-04-21 01-07-28-475075,-90,-110,1545,1545,-89.78,-110.093,-1.39,1.53,-9.55,-9.14,-8.36,134.78,20.86
2023-04-21 01-07-28-556145,-90,-110,1545,1545,-89.868,-110.181,-1.35,1.49,-9.6,-9.12,-8.22,134.53,20.880000000000003
2023-04-21 01-07-28-631989,-90,-110,1545,1545,-89.868,-110.181,-1.35,1.53,-9.55,-9.09,-8.17,134.33,20.91
2023-04-21 01-07-28-709564,-90,-110,1545,1545,-89.868,-110.093,-1.34,1.52,-9.62,-9.06,-8.22,134.15,20.939999999999998
2023-04-21 01-07-28-790426,-90,-110,1545,1545,-89.868,-110.093,-1.38,1.54,-9.56,-9.07,-8.41,134.0,20.93
2023-04-21 01-07-28-873260,-90,-110,1545,1545,-89.78,-110.093,-1.44,1.53,-9.52,-9.09,-8.69,133.84,20.91
2023-04-21 01-07-28-943685,-90,-110,1545,1545,-89.868,-110.093,-1.49,1.52,-9.51,-9.11,-8.91,133.65,20.89
2023-04-21 01-07-29-005012,-90,-110,1545,1545,-89.868,-110.093,-1.49,1.53,-9.53,-9.12,-9.02,133.44,20.880000000000003
2023-04-21 01-07-29-084049,-90,-110,1545,1545,-89.868,-110.093,-1.51,1.52,-9.5,-9.13,-9.07,133.23,20.869999999999997
2023-04-21 01-07-29-164812,-90,-110,1545,1545,-89.868,-110.093,-1.5,1.52,-9.54,-9.14,-9.0,132.97,20.86
2023-04-21 01-07-29-241104,-90,-110,1545,1545,-89.868,-110.093,-1.47,1.5,-9.55,-9.14,-8.87,132.71,20.86
2023-04-21 01-07-29-339569,-90,-110,1545,1545,-89.868,-110.093,-1.45,1.5,-9.57,-9.14,-8.71,132.5,20.86
2023-04-21 01-07-29-388310,-90,-110,1545,1545,-89.868,-110.093,-1.41,1.5,-9.57,-9.14,-8.56,132.33,20.86
2023-04-21 01-07-29-463344,-90,-110,1545,1545,-89.868,-110.093,-1.41,1.52,-9.58,-9.15,-8.51,132.17,20.85
2023-04-21 01-07-29-541814,-90,-110,1545,1545,-89.78,-110.093,-1.43,1.52,-9.56,-9.19,-8.59,132.04,20.810000000000002
2023-04-21 01-07-29-606685,-90,-110,1545,1545,-89.78,-110.093,-1.44,1.53,-9.54,-9.21,-8.67,131.92,20.79
2023-04-21 01-07-29-685860,-90,-110,1545,1545,-89.868,-110.093,-1.45,1.54,-9.52,-9.25,-8.76,131.79,20.75
2023-04-21 01-07-29-762763,-90,-110,1545,1545,-89.868,-110.093,-1.47,1.54,-9.47,-9.27,-8.78,131.62,20.73
2023-04-21 01-07-29-840654,-90,-110,1545,1545,-89.868,-110.093,-1.42,1.55,-9.6,-9.27,-8.67,131.44,20.73
2023-04-21 01-07-29-913798,-90,-110,1545,1545,-89.868,-110.093,-1.44,1.53,-9.55,-9.29,-8.68,131.29,20.71
2023-04-21 01-07-29-991015,-90,-110,1545,1545,-89.868,-110.093,-1.45,1.54,-9.55,-9.29,-8.7,131.15,20.71
2023-04-21 01-07-30-069488,-90,-110,1545,1545,-89.868,-110.093,-1.44,1.54,-9.5,-9.29,-8.72,131.01,20.71
2023-04-21 01-07-30-142716,-90,-110,1545,1545,-89.868,-110.093,-1.45,1.53,-9.54,-9.29,-8.73,130.87,20.71
2023-04-21 01-07-30-221077,-90,-110,1545,1545,-89.78,-110.093,-1.46,1.55,-9.54,-9.28,-8.75,130.71,20.72
2023-04-21 01-07-30-282902,-90,-110,1545,1545,-89.868,-110.093,-1.47,1.55,-9.54,-9.27,-8.82,130.58,20.73
2023-04-21 01-07-30-360374,-90,-110,1545,1545,-89.868,-110.093,-1.5,1.55,-9.48,-9.26,-8.88,130.44,20.740000000000002
2023-04-21 01-07-30-437357,-90,-110,1545,1545,-89.868,-110.093,-1.47,1.56,-9.5,-9.24,-8.8,130.27,20.759999999999998
2023-04-21 01-07-30-510792,-90,-110,1545,1545,-89.868,-110.181,-1.43,1.49,-9.55,-9.2,-8.61,130.07,20.8
2023-04-21 01-07-30-598029,-90,-110,1545,1545,-89.868,-110.093,-1.4,1.49,-9.56,-9.16,-8.41,129.92,20.84
2023-04-21 01-07-30-664228,-90,-110,1545,1545,-89.868,-110.181,-1.36,1.53,-9.57,-9.11,-8.22,129.78,20.89
2023-04-21 01-07-30-742641,-90,-110,1545,1545,-89.868,-110.093,-1.32,1.52,-9.6,-9.07,-8.09,129.69,20.93
2023-04-21 01-07-30-819448,-90,-110,1545,1545,-89.868,-110.181,-1.33,1.5,-9.6,-9.03,-8.14,129.66,20.97
2023-04-21 01-07-30-901822,-90,-110,1545,1545,-89.868,-110.093,-1.35,1.48,-9.6,-9.02,-8.31,129.62,20.98
2023-04-21 01-07-30-968453,-90,-110,1545,1545,-89.868,-110.093,-1.4,1.51,-9.56,-9.02,-8.55,129.58,20.98
2023-04-21 01-07-31-057633,-90,-110,1545,1545,-89.868,-110.181,-1.45,1.52,-9.51,-9.02,-8.8,129.49,20.98
2023-04-21 01-07-31-131653,-90,-110,1545,1545,-89.868,-110.093,-1.48,1.49,-9.53,-9.01,-8.94,129.38,20.990000000000002
2023-04-21 01-07-31-212253,-90,-110,1546,1546,-89.868,-110.093,-1.51,1.5,-9.53,-8.98,-8.98,129.24,21.02
2023-04-21 01-07-31-283748,-90,-110,1546,1546,-89.78,-110.181,-1.5,1.48,-9.51,-8.96,-8.92,129.07,21.04
2023-04-21 01-07-31-358101,-90,-110,1546,1546,-89.868,-110.093,-1.46,1.46,-9.53,-8.92,-8.78,128.92,21.08
2023-04-21 01-07-31-430804,-90,-110,1546,1546,-89.868,-110.093,-1.43,1.46,-9.61,-8.88,-8.62,128.8,21.119999999999997
2023-04-21 01-07-31-506711,-90,-110,1546,1546,-89.78,-110.093,-1.41,1.48,-9.58,-8.85,-8.54,128.7,21.15
2023-04-21 01-07-31-581825,-90,-110,1546,1546,-89.868,-110.093,-1.41,1.47,-9.56,-8.84,-8.54,128.62,21.16
2023-04-21 01-07-31-666023,-90,-110,1546,1546,-89.868,-110.093,-1.42,1.45,-9.59,-8.84,-8.58,128.55,21.16
2023-04-21 01-07-31-743305,-90,-110,1546,1546,-89.78,-110.093,-1.45,1.47,-9.54,-8.83,-8.67,128.49,21.17
2023-04-21 01-07-31-820404,-90,-110,1546,1546,-89.868,-110.181,-1.46,1.45,-9.54,-8.82,-8.72,128.41,21.18
2023-04-21 01-07-31-898730,-90,-110,1546,1546,-89.78,-110.093,-1.44,1.47,-9.57,-8.82,-8.74,128.36,21.18
2023-04-21 01-07-31-968706,-90,-110,1546,1546,-89.868,-110.093,-1.43,1.47,-9.59,-8.83,-8.77,128.29,21.17
2023-04-21 01-07-32-047469,-90,-110,1546,1546,-89.868,-110.181,-1.45,1.45,-9.54,-8.83,-8.81,128.23,21.17
2023-04-21 01-07-32-125847,-90,-110,1546,1546,-89.868,-110.181,-1.47,1.48,-9.56,-8.84,-8.86,128.16,21.16
2023-04-21 01-07-32-202318,-90,-110,1546,1546,-89.868,-110.093,-1.47,1.48,-9.56,-8.85,-8.89,128.08,21.15
2023-04-21 01-07-32-268893,-90,-110,1546,1546,-89.868,-110.093,-1.46,1.48,-9.56,-8.85,-8.89,128.01,21.15
2023-04-21 01-07-32-345502,-90,-110,1546,1546,-89.868,-110.181,-1.45,1.45,-9.6,-8.85,-8.9,127.95,21.15
2023-04-21 01-07-32-423343,-90,-110,1546,1546,-89.868,-110.093,-1.51,1.46,-9.5,-8.87,-8.99,127.89,21.130000000000003
2023-04-21 01-07-32-493853,-90,-110,1546,1546,-89.868,-110.093,-1.52,1.49,-9.5,-8.89,-8.99,127.79,21.11
2023-04-21 01-07-32-569571,-90,-110,1546,1546,-89.868,-110.093,-1.48,1.52,-9.51,-8.88,-8.86,127.69,21.119999999999997
2023-04-21 01-07-32-647017,-90,-110,1546,1546,-89.868,-110.093,-1.44,1.47,-9.56,-8.86,-8.67,127.61,21.14
2023-04-21 01-07-32-720839,-90,-110,1546,1546,-89.868,-110.093,-1.38,1.49,-9.56,-8.84,-8.43,127.53,21.16
2023-04-21 01-07-32-803840,-90,-110,1546,1546,-89.868,-110.093,-1.36,1.47,-9.59,-8.81,-8.26,127.49,21.189999999999998
2023-04-21 01-07-32-878409,-90,-110,1546,1546,-89.868,-110.093,-1.33,1.43,-9.61,-8.78,-8.12,127.48,21.22
2023-04-21 01-07-32-957225,-90,-110,1546,1546,-89.868,-110.181,-1.32,1.48,-9.62,-8.76,-8.12,127.51,21.240000000000002
2023-04-21 01-07-33-034857,-90,-110,1546,1546,-89.868,-110.181,-1.36,1.47,-9.6,-8.76,-8.26,127.55,21.240000000000002
2023-04-21 01-07-33-105359,-90,-110,1546,1546,-89.868,-110.093,-1.39,1.47,-9.59,-8.77,-8.43,127.57,21.23
2023-04-21 01-07-33-184376,-90,-110,1546,1546,-89.868,-110.093,-1.42,1.48,-9.55,-8.78,-8.63,127.58,21.22
2023-04-21 01-07-33-258605,-90,-110,1546,1546,-89.78,-110.093,-1.5,1.46,-9.5,-8.79,-8.87,127.57,21.21
2023-04-21 01-07-33-340766,-90,-110,1546,1546,-89.868,-110.093,-1.5,1.45,-9.51,-8.79,-8.98,127.48,21.21
2023-04-21 01-07-33-422325,-90,-110,1546,1546,-89.868,-110.093,-1.5,1.48,-9.5,-8.77,-8.94,127.38,21.23
2023-04-21 01-07-33-501415,-90,-110,1546,1546,-89.868,-110.093,-1.47,1.43,-9.59,-8.75,-8.79,127.28,21.25
2023-04-21 01-07-33-582031,-90,-110,1546,1546,-89.868,-110.093,-1.44,1.45,-9.6,-8.72,-8.63,127.2,21.28
2023-04-21 01-07-33-656167,-90,-110,1546,1546,-89.868,-110.093,-1.43,1.45,-9.53,-8.72,-8.56,127.14,21.28
2023-04-21 01-07-33-733958,-90,-110,1546,1546,-89.868,-110.093,-1.43,1.44,-9.59,-8.71,-8.53,127.11,21.29
2023-04-21 01-07-33-812831,-90,-110,1546,1546,-89.868,-110.093,-1.43,1.45,-9.56,-8.72,-8.59,127.11,21.28
2023-04-21 01-07-33-890789,-90,-110,1546,1546,-89.78,-110.093,-1.46,1.46,-9.51,-8.73,-8.7,127.11,21.27
2023-04-21 01-07-33-971024,-90,-110,1546,1546,-89.868,-110.181,-1.46,1.48,-9.55,-8.74,-8.79,127.09,21.259999999999998
2023-04-21 01-07-34-050456,-90,-110,1546,1546,-89.868,-110.093,-1.48,1.46,-9.54,-8.74,-8.88,127.06,21.259999999999998
2023-04-21 01-07-34-129401,-90,-110,1546,1546,-89.868,-110.093,-1.49,1.46,-9.49,-8.75,-8.89,127.01,21.25
2023-04-21 01-07-34-208054,-90,-110,1546,1546,-89.868,-110.093,-1.47,1.45,-9.54,-8.74,-8.81,126.95,21.259999999999998
2023-04-21 01-07-34-271965,-90,-110,1546,1546,-89.868,-110.181,-1.42,1.43,-9.6,-8.72,-8.69,126.89,21.28
2023-04-21 01-07-34-360350,-90,-110,1546,1546,-89.868,-110.093,-1.44,1.45,-9.57,-8.72,-8.64,126.89,21.28
2023-04-21 01-07-34-430916,-90,-110,1546,1546,-89.868,-110.093,-1.43,1.45,-9.56,-8.72,-8.67,126.87,21.28
2023-04-21 01-07-34-510476,-90,-110,1546,1546,-89.868,-110.093,-1.41,1.47,-9.6,-8.73,-8.76,126.87,21.27
2023-04-21 01-07-34-576541,-90,-110,1546,1546,-89.868,-110.093,-1.48,1.47,-9.51,-8.74,-8.88,126.86,21.259999999999998
2023-04-21 01-07-34-656373,-90,-110,1546,1546,-89.868,-110.093,-1.5,1.46,-9.51,-8.74,-8.93,126.82,21.259999999999998
2023-04-21 01-07-34-734158,-90,-110,1546,1546,-89.868,-110.093,-1.49,1.47,-9.51,-8.74,-8.88,126.76,21.259999999999998
2023-04-21 01-07-34-813754,-90,-110,1546,1546,-89.868,-110.093,-1.44,1.46,-9.52,-8.72,-8.71,126.7,21.28
2023-04-21 01-07-34-893399,-90,-110,1546,1546,-89.868,-110.181,-1.41,1.45,-9.56,-8.69,-8.46,126.64,21.310000000000002
2023-04-21 01-07-34-973613,-90,-110,1546,1546,-89.868,-110.093,-1.34,1.45,-9.61,-8.65,-8.17,126.61,21.35
2023-04-21 01-07-35-045124,-90,-110,1546,1546,-89.868,-110.093,-1.3,1.45,-9.66,-8.62,-7.99,126.64,21.380000000000003
2023-04-21 01-07-35-115121,-90,-110,1546,1546,-89.868,-110.181,-1.32,1.44,-9.64,-8.62,-8.05,126.71,21.380000000000003
2023-04-21 01-07-35-196773,-90,-110,1546,1546,-89.868,-110.093,-1.36,1.43,-9.6,-8.63,-8.33,126.8,21.369999999999997
2023-04-21 01-07-35-275511,-90,-110,1546,1546,-89.868,-110.093,-1.44,1.43,-9.56,-8.67,-8.68,126.85,21.33
2023-04-21 01-07-35-354799,-90,-110,1546,1546,-89.868,-110.093,-1.49,1.44,-9.52,-8.7,-8.95,126.86,21.3
2023-04-21 01-07-35-434206,-90,-110,1546,1546,-89.868,-110.181,-1.52,1.46,-9.5,-8.71,-9.09,126.82,21.29
2023-04-21 01-07-35-512048,-90,-110,1546,1546,-89.868,-110.093,-1.51,1.48,-9.51,-8.71,-9.06,126.74,21.29
2023-04-21 01-07-35-592046,-90,-110,1546,1546,-89.868,-110.093,-1.47,1.45,-9.54,-8.7,-8.92,126.66,21.3
2023-04-21 01-07-35-671189,-90,-110,1546,1546,-89.868,-110.093,-1.46,1.43,-9.55,-8.69,-8.72,126.58,21.310000000000002
2023-04-21 01-07-35-740019,-90,-110,1546,1546,-89.868,-110.093,-1.42,1.42,-9.63,-8.67,-8.55,126.53,21.33
2023-04-21 01-07-35-823497,-90,-110,1546,1546,-89.868,-110.093,-1.4,1.44,-9.6,-8.69,-8.49,126.53,21.310000000000002
2023-04-21 01-07-35-897796,-90,-110,1546,1546,-89.868,-110.093,-1.41,1.49,-9.56,-8.71,-8.51,126.52,21.29
2023-04-21 01-07-35-968632,-90,-110,1546,1546,-89.868,-110.093,-1.38,1.46,-9.61,-8.73,-8.55,126.54,21.27
2023-04-21 01-07-36-048668,-90,-110,1546,1546,-89.868,-110.093,-1.44,1.47,-9.55,-8.77,-8.69,126.56,21.23
2023-04-21 01-07-36-129767,-90,-110,1546,1546,-89.868,-110.093,-1.47,1.46,-9.53,-8.8,-8.84,126.58,21.2
2023-04-21 01-07-36-211684,-90,-110,1546,1546,-89.868,-110.093,-1.52,1.48,-9.47,-8.81,-8.94,126.55,21.189999999999998
2023-04-21 01-07-36-293893,-90,-110,1546,1546,-89.868,-110.093,-1.47,1.47,-9.53,-8.81,-8.88,126.5,21.189999999999998
2023-04-21 01-07-36-386097,-90,-110,1546,1546,-89.868,-110.093,-1.44,1.46,-9.56,-8.8,-8.8,126.47,21.2
2023-04-21 01-07-36-464976,-90,-110,1546,1546,-89.868,-110.093,-1.42,1.47,-9.58,-8.79,-8.7,126.46,21.21
2023-04-21 01-07-36-536169,-90,-110,1546,1546,-89.868,-110.093,-1.42,1.49,-9.58,-8.79,-8.69,126.44,21.21
2023-04-21 01-07-36-603559,-90,-110,1546,1546,-89.868,-110.093,-1.44,1.47,-9.57,-8.79,-8.78,126.44,21.21
2023-04-21 01-07-36-685194,-90,-110,1546,1546,-89.868,-110.093,-1.48,1.45,-9.54,-8.8,-8.91,126.44,21.2
2023-04-21 01-07-36-753630,-90,-110,1546,1546,-89.868,-110.181,-1.51,1.43,-9.48,-8.81,-8.99,126.42,21.189999999999998
2023-04-21 01-07-36-834033,-90,-110,1546,1546,-89.868,-110.181,-1.5,1.48,-9.51,-8.8,-8.95,126.37,21.2
2023-04-21 01-07-36-906141,-90,-110,1546,1546,-89.868,-110.093,-1.47,1.44,-9.54,-8.77,-8.81,126.3,21.23
2023-04-21 01-07-36-984581,-90,-110,1546,1546,-89.868,-110.093,-1.41,1.44,-9.59,-8.74,-8.6,126.25,21.259999999999998
2023-04-21 01-07-37-058800,-90,-110,1546,1546,-89.868,-110.093,-1.41,1.42,-9.55,-8.72,-8.44,126.22,21.28
2023-04-21 01-07-37-135149,-90,-110,1546,1546,-89.868,-110.181,-1.37,1.43,-9.62,-8.69,-8.28,126.22,21.310000000000002
2023-04-21 01-07-37-215459,-90,-110,1546,1546,-89.868,-110.093,-1.32,1.46,-9.65,-8.67,-8.22,126.27,21.33
2023-04-21 01-07-37-292148,-90,-110,1546,1546,-89.868,-110.181,-1.37,1.44,-9.61,-8.68,-8.35,126.33,21.32
2023-04-21 01-07-37-370783,-90,-110,1546,1546,-89.868,-110.093,-1.41,1.45,-9.58,-8.68,-8.54,126.39,21.32
2023-04-21 01-07-37-451725,-90,-110,1546,1546,-89.868,-110.093,-1.44,1.46,-9.54,-8.7,-8.73,126.42,21.3
2023-04-21 01-07-37-530111,-90,-110,1546,1546,-89.868,-110.093,-1.47,1.46,-9.55,-8.72,-8.88,126.43,21.28
2023-04-21 01-07-37-610901,-90,-110,1546,1546,-89.868,-110.093,-1.49,1.45,-9.53,-8.74,-8.96,126.41,21.259999999999998
2023-04-21 01-07-37-690264,-90,-110,1546,1546,-89.868,-110.093,-1.5,1.46,-9.52,-8.75,-8.93,126.37,21.25
2023-04-21 01-07-37-769192,-90,-110,1546,1546,-89.868,-110.093,-1.46,1.46,-9.56,-8.76,-8.84,126.33,21.240000000000002
2023-04-21 01-07-37-846984,-90,-110,1546,1546,-89.78,-110.093,-1.45,1.45,-9.58,-8.75,-8.73,126.3,21.25
2023-04-21 01-07-37-925007,-90,-110,1546,1546,-89.78,-110.181,-1.43,1.48,-9.61,-8.75,-8.67,126.27,21.25
2023-04-21 01-07-38-008441,-90,-110,1546,1546,-89.868,-110.093,-1.42,1.45,-9.58,-8.78,-8.7,126.27,21.22
2023-04-21 01-07-38-087388,-90,-110,1546,1546,-89.78,-110.181,-1.46,1.47,-9.54,-8.8,-8.76,126.26,21.2
2023-04-21 01-07-38-165806,-90,-110,1546,1546,-89.868,-110.093,-1.46,1.44,-9.55,-8.83,-8.82,126.25,21.17
2023-04-21 01-07-38-234159,-90,-110,1546,1546,-89.868,-110.093,-1.47,1.5,-9.54,-8.84,-8.86,126.24,21.16
2023-04-21 01-07-38-308757,-90,-110,1546,1546,-89.868,-110.093,-1.47,1.5,-9.52,-8.86,-8.89,126.2,21.14
2023-04-21 01-07-38-390146,-90,-110,1546,1546,-89.868,-110.181,-1.45,1.48,-9.58,-8.87,-8.88,126.17,21.130000000000003
2023-04-21 01-07-38-468979,-90,-110,1546,1546,-89.868,-110.093,-1.48,1.5,-9.49,-8.88,-8.88,126.12,21.119999999999997
2023-04-21 01-07-38-548425,-90,-110,1546,1546,-89.868,-110.093,-1.45,1.48,-9.6,-8.88,-8.8,126.08,21.119999999999997
2023-04-21 01-07-38-627899,-90,-110,1546,1546,-89.868,-110.093,-1.43,1.49,-9.57,-8.88,-8.77,126.04,21.119999999999997
2023-04-21 01-07-38-708361,-90,-110,1546,1546,-89.868,-110.181,-1.44,1.48,-9.55,-8.89,-8.8,126.03,21.11
2023-04-21 01-07-38-787136,-90,-110,1546,1546,-89.868,-110.093,-1.47,1.48,-9.57,-8.9,-8.87,126.03,21.1
2023-04-21 01-07-38-850056,-90,-110,1546,1546,-89.868,-110.181,-1.5,1.51,-9.49,-8.91,-8.97,126.03,21.09
2023-04-21 01-07-38-931221,-90,-110,1546,1546,-89.868,-110.093,-1.5,1.51,-9.49,-8.93,-9.02,126.0,21.07
2023-04-21 01-07-39-010060,-90,-110,1546,1546,-89.78,-110.181,-1.49,1.48,-9.52,-8.91,-8.95,125.96,21.09
2023-04-21 01-07-39-093436,-90,-110,1546,1546,-89.868,-110.093,-1.46,1.49,-9.53,-8.9,-8.78,125.91,21.1
2023-04-21 01-07-39-175264,-90,-110,1546,1546,-89.868,-110.093,-1.42,1.47,-9.57,-8.88,-8.54,125.88,21.119999999999997
2023-04-21 01-07-39-277211,-90,-110,1546,1546,-89.868,-110.093,-1.37,1.48,-9.59,-8.85,-8.37,125.87,21.15
2023-04-21 01-07-39-346467,-90,-110,1546,1546,-89.868,-110.093,-1.36,1.52,-9.56,-8.84,-8.29,125.92,21.16
2023-04-21 01-07-39-413345,-90,-110,1546,1546,-89.868,-110.093,-1.36,1.46,-9.64,-8.83,-8.29,125.98,21.17
2023-04-21 01-07-39-487561,-90,-110,1546,1546,-89.868,-110.181,-1.36,1.45,-9.62,-8.85,-8.41,126.06,21.15
2023-04-21 01-07-39-562189,-90,-110,1546,1546,-89.868,-110.093,-1.43,1.47,-9.54,-8.88,-8.68,126.14,21.119999999999997
2023-04-21 01-07-39-640313,-90,-110,1546,1546,-89.868,-110.093,-1.47,1.5,-9.51,-8.91,-8.91,126.18,21.09
2023-04-21 01-07-39-721455,-90,-110,1546,1546,-89.868,-110.181,-1.52,1.48,-9.52,-8.93,-9.02,126.17,21.07
2023-04-21 01-07-39-798219,-90,-110,1546,1546,-89.868,-110.181,-1.49,1.49,-9.54,-8.93,-9.02,126.14,21.07
2023-04-21 01-07-39-867035,-90,-110,1546,1546,-89.868,-110.093,-1.49,1.48,-9.52,-8.93,-8.98,126.1,21.07
2023-04-21 01-07-39-942043,-90,-110,1546,1546,-89.868,-110.093,-1.47,1.49,-9.54,-8.94,-8.85,126.05,21.060000000000002
2023-04-21 01-07-40-020363,-90,-110,1546,1546,-89.868,-110.093,-1.44,1.48,-9.57,-8.93,-8.71,126.0,21.07
2023-04-21 01-07-40-100316,-90,-110,1546,1546,-89.868,-110.093,-1.43,1.5,-9.56,-8.93,-8.59,125.99,21.07
2023-04-21 01-07-40-175106,-90,-110,1546,1546,-89.868,-110.181,-1.41,1.49,-9.58,-8.94,-8.56,125.99,21.060000000000002
2023-04-21 01-07-40-257458,-90,-110,1546,1546,-89.868,-110.093,-1.4,1.47,-9.62,-8.96,-8.61,126.01,21.04
2023-04-21 01-07-40-327592,-90,-110,1545,1545,-89.868,-110.181,-1.45,1.51,-9.54,-9.0,-8.76,126.03,21.0
2023-04-21 01-07-40-404319,-90,-110,1545,1545,-89.868,-110.093,-1.48,1.5,-9.54,-9.04,-8.92,126.03,20.96
2023-04-21 01-07-40-485189,-90,-110,1545,1545,-89.868,-110.093,-1.51,1.49,-9.52,-9.07,-9.02,126.0,20.93
2023-04-21 01-07-40-564012,-90,-110,1545,1545,-89.868,-110.093,-1.5,1.51,-9.53,-9.09,-9.02,125.95,20.91
2023-04-21 01-07-40-644371,-90,-110,1545,1545,-89.868,-110.093,-1.5,1.52,-9.49,-9.11,-8.95,125.9,20.89
2023-04-21 01-07-40-725909,-90,-110,1545,1545,-89.868,-110.093,-1.45,1.55,-9.55,-9.11,-8.85,125.85,20.89
2023-04-21 01-07-40-802577,-90,-110,1545,1545,-89.868,-110.093,-1.42,1.51,-9.59,-9.12,-8.78,125.83,20.880000000000003
2023-04-21 01-07-40-883739,-90,-110,1545,1545,-89.78,-110.093,-1.44,1.52,-9.54,-9.15,-8.79,125.83,20.85
2023-04-21 01-07-40-962375,-90,-110,1545,1545,-89.78,-110.093,-1.44,1.53,-9.56,-9.18,-8.82,125.83,20.82
2023-04-21 01-07-41-040186,-90,-110,1545,1545,-89.868,-110.093,-1.47,1.52,-9.52,-9.21,-8.9,125.82,20.79
2023-04-21 01-07-41-121174,-90,-110,1545,1545,-89.868,-110.181,-1.48,1.53,-9.5,-9.22,-8.91,125.8,20.78
2023-04-21 01-07-41-200810,-90,-110,1545,1545,-89.868,-110.093,-1.48,1.55,-9.49,-9.23,-8.84,125.76,20.77
2023-04-21 01-07-41-280953,-90,-110,1545,1545,-89.868,-110.093,-1.41,1.56,-9.52,-9.22,-8.65,125.71,20.78
2023-04-21 01-07-41-350497,-90,-110,1545,1545,-89.78,-110.093,-1.39,1.5,-9.59,-9.19,-8.44,125.69,20.810000000000002
2023-04-21 01-07-41-430710,-90,-110,1545,1545,-89.868,-110.093,-1.38,1.52,-9.6,-9.16,-8.31,125.7,20.84
2023-04-21 01-07-41-518096,-90,-110,1545,1545,-89.868,-110.093,-1.35,1.54,-9.62,-9.16,-8.29,125.75,20.84
2023-04-21 01-07-41-590026,-90,-110,1545,1545,-89.868,-110.093,-1.4,1.53,-9.58,-9.17,-8.49,125.83,20.83
2023-04-21 01-07-41-665722,-90,-110,1545,1545,-89.868,-110.093,-1.46,1.52,-9.53,-9.21,-8.81,125.89,20.79
2023-04-21 01-07-41-747026,-90,-110,1545,1545,-89.868,-110.093,-1.51,1.57,-9.49,-9.23,-9.09,125.92,20.77
2023-04-21 01-07-41-826592,-90,-110,1545,1545,-89.868,-110.181,-1.56,1.54,-9.43,-9.25,-9.22,125.9,20.75
2023-04-21 01-07-41-906734,-90,-110,1545,1545,-89.868,-110.093,-1.49,1.52,-9.53,-9.23,-9.11,125.85,20.77
2023-04-21 01-07-41-986854,-90,-110,1545,1545,-89.868,-110.181,-1.47,1.52,-9.57,-9.22,-8.94,125.82,20.78
2023-04-21 01-07-42-073863,-90,-110,1545,1545,-89.868,-110.093,-1.42,1.53,-9.56,-9.21,-8.78,125.81,20.79
2023-04-21 01-07-42-159203,-90,-110,1545,1545,-89.868,-110.093,-1.42,1.57,-9.56,-9.21,-8.68,125.81,20.79
2023-04-21 01-07-42-241682,-90,-110,1545,1545,-89.868,-110.093,-1.4,1.53,-9.57,-9.22,-8.62,125.83,20.78
2023-04-21 01-07-42-309352,-90,-110,1545,1545,-89.868,-110.093,-1.41,1.54,-9.59,-9.24,-8.65,125.86,20.759999999999998
2023-04-21 01-07-42-390137,-90,-110,1545,1545,-89.868,-110.093,-1.44,1.56,-9.56,-9.28,-8.72,125.9,20.72
2023-04-21 01-07-42-469876,-90,-110,1545,1545,-89.868,-110.093,-1.46,1.55,-9.53,-9.31,-8.81,125.91,20.689999999999998
2023-04-21 01-07-42-551509,-90,-110,1545,1545,-89.868,-110.093,-1.47,1.58,-9.49,-9.34,-8.87,125.9,20.66
2023-04-21 01-07-42-628980,-90,-110,1545,1545,-89.868,-110.093,-1.46,1.55,-9.57,-9.36,-8.85,125.86,20.64
2023-04-21 01-07-42-709585,-90,-110,1545,1545,-89.868,-110.181,-1.46,1.57,-9.54,-9.38,-8.83,125.86,20.619999999999997
2023-04-21 01-07-42-798502,-90,-110,1545,1545,-89.868,-110.093,-1.47,1.56,-9.54,-9.41,-8.84,125.84,20.59
2023-04-21 01-07-42-865805,-90,-110,1545,1545,-89.868,-110.093,-1.46,1.58,-9.56,-9.44,-8.85,125.83,20.560000000000002
2023-04-21 01-07-42-951743,-90,-110,1545,1545,-89.868,-110.181,-1.47,1.57,-9.54,-9.47,-8.9,125.82,20.53
2023-04-21 01-07-43-028311,-90,-110,1545,1545,-89.868,-110.093,-1.5,1.61,-9.49,-9.53,-8.99,125.81,20.47
2023-04-21 01-07-43-116370,-90,-110,1545,1545,-89.868,-110.093,-1.49,1.6,-9.54,-9.59,-9.05,125.78,20.41
2023-04-21 01-07-43-189369,-90,-110,1545,1545,-89.868,-110.093,-1.53,1.6,-9.42,-9.63,-9.1,125.73,20.369999999999997
2023-04-21 01-07-43-271607,-90,-110,1545,1545,-89.78,-110.093,-1.48,1.57,-9.5,-9.64,-8.92,125.66,20.36
2023-04-21 01-07-43-357607,-90,-110,1545,1545,-89.868,-110.093,-1.42,1.59,-9.54,-9.64,-8.63,125.6,20.36
2023-04-21 01-07-43-430889,-90,-110,1545,1545,-89.868,-110.093,-1.37,1.6,-9.54,-9.63,-8.37,125.56,20.369999999999997
2023-04-21 01-07-43-504232,-90,-110,1545,1545,-89.868,-110.093,-1.36,1.6,-9.56,-9.62,-8.18,125.55,20.380000000000003
2023-04-21 01-07-43-582648,-90,-110,1545,1545,-89.868,-110.181,-1.29,1.61,-9.61,-9.61,-8.04,125.59,20.39
2023-04-21 01-07-43-655897,-90,-110,1545,1545,-89.868,-110.181,-1.32,1.6,-9.63,-9.62,-8.09,125.67,20.380000000000003
2023-04-21 01-07-43-734099,-90,-110,1545,1545,-89.868,-110.093,-1.38,1.6,-9.54,-9.65,-8.34,125.75,20.35
2023-04-21 01-07-43-813903,-90,-110,1545,1545,-89.868,-110.093,-1.43,1.64,-9.49,-9.68,-8.67,125.81,20.32
2023-04-21 01-07-43-894454,-90,-110,1545,1545,-89.868,-110.093,-1.47,1.62,-9.52,-9.72,-8.91,125.82,20.28
2023-04-21 01-07-43-974823,-90,-110,1545,1545,-89.868,-110.093,-1.51,1.6,-9.49,-9.74,-9.08,125.8,20.259999999999998
2023-04-21 01-07-44-054513,-90,-110,1545,1545,-89.868,-110.093,-1.52,1.59,-9.49,-9.74,-9.11,125.72,20.259999999999998
2023-04-21 01-07-44-133333,-90,-110,1545,1545,-89.868,-110.181,-1.51,1.63,-9.49,-9.73,-9.03,125.64,20.27
2023-04-21 01-07-44-214753,-90,-110,1545,1545,-89.868,-110.093,-1.45,1.62,-9.53,-9.71,-8.82,125.55,20.29
2023-04-21 01-07-44-303781,-90,-110,1545,1545,-89.868,-110.093,-1.44,1.59,-9.59,-9.68,-8.68,125.52,20.32
2023-04-21 01-07-44-378018,-90,-110,1545,1545,-89.868,-110.093,-1.42,1.6,-9.56,-9.69,-8.62,125.49,20.310000000000002
2023-04-21 01-07-44-443807,-90,-110,1545,1545,-89.868,-110.093,-1.44,1.64,-9.52,-9.71,-8.63,125.48,20.29
2023-04-21 01-07-44-517255,-90,-110,1545,1545,-89.868,-110.181,-1.41,1.62,-9.54,-9.72,-8.62,125.47,20.28
2023-04-21 01-07-44-585559,-90,-110,1545,1545,-89.868,-110.093,-1.43,1.61,-9.55,-9.74,-8.63,125.46,20.259999999999998
2023-04-21 01-07-44-660439,-90,-110,1545,1545,-89.868,-110.093,-1.42,1.63,-9.53,-9.75,-8.64,125.45,20.25
2023-04-21 01-07-44-740676,-90,-110,1545,1545,-89.868,-110.181,-1.43,1.63,-9.53,-9.77,-8.69,125.45,20.23
2023-04-21 01-07-44-823244,-90,-110,1545,1545,-89.868,-110.093,-1.47,1.63,-9.5,-9.79,-8.74,125.43,20.21
2023-04-21 01-07-44-904486,-90,-110,1545,1545,-89.868,-110.093,-1.46,1.64,-9.53,-9.8,-8.71,125.4,20.2
2023-04-21 01-07-44-985131,-90,-110,1545,1545,-89.868,-110.093,-1.42,1.62,-9.51,-9.8,-8.68,125.38,20.2
2023-04-21 01-07-45-067584,-90,-110,1545,1545,-89.868,-110.093,-1.46,1.65,-9.48,-9.82,-8.67,125.38,20.18
2023-04-21 01-07-45-149185,-90,-110,1545,1545,-89.868,-110.093,-1.41,1.62,-9.56,-9.82,-8.66,125.37,20.18
2023-04-21 01-07-45-233560,-90,-110,1545,1545,-89.868,-110.093,-1.44,1.62,-9.53,-9.85,-8.75,125.39,20.15
2023-04-21 01-07-45-309003,-90,-110,1545,1545,-89.868,-110.093,-1.47,1.61,-9.5,-9.87,-8.84,125.37,20.130000000000003
2023-04-21 01-07-45-376838,-90,-110,1545,1545,-89.868,-110.093,-1.47,1.66,-9.48,-9.87,-8.85,125.35,20.130000000000003
2023-04-21 01-07-45-458828,-90,-110,1545,1545,-89.868,-110.181,-1.48,1.63,-9.5,-9.87,-8.79,125.31,20.130000000000003
2023-04-21 01-07-45-540880,-90,-110,1545,1545,-89.868,-110.093,-1.43,1.65,-9.53,-9.86,-8.65,125.25,20.14
2023-04-21 01-07-45-623404,-90,-110,1545,1545,-89.868,-110.093,-1.42,1.62,-9.51,-9.85,-8.51,125.22,20.15
2023-04-21 01-07-45-705437,-90,-110,1545,1545,-89.868,-110.093,-1.38,1.63,-9.56,-9.83,-8.35,125.19,20.17
2023-04-21 01-07-45-785831,-90,-110,1545,1545,-89.868,-110.093,-1.36,1.64,-9.54,-9.82,-8.24,125.19,20.18
2023-04-21 01-07-45-870034,-90,-110,1545,1545,-89.868,-110.093,-1.35,1.62,-9.59,-9.8,-8.23,125.22,20.2
2023-04-21 01-07-45-945261,-90,-110,1545,1545,-89.868,-110.093,-1.36,1.63,-9.57,-9.81,-8.34,125.27,20.189999999999998
2023-04-21 01-07-46-019646,-90,-110,1545,1545,-89.868,-110.093,-1.4,1.61,-9.55,-9.83,-8.51,125.3,20.17
2023-04-21 01-07-46-100211,-90,-110,1545,1545,-89.868,-110.181,-1.47,1.63,-9.51,-9.85,-8.7,125.31,20.15
2023-04-21 01-07-46-175215,-90,-110,1545,1545,-89.868,-110.093,-1.48,1.64,-9.48,-9.87,-8.86,125.32,20.130000000000003
2023-04-21 01-07-46-253592,-90,-110,1545,1545,-89.868,-110.093,-1.49,1.63,-9.52,-9.87,-8.93,125.29,20.130000000000003
2023-04-21 01-07-46-334622,-90,-110,1545,1545,-89.78,-110.093,-1.5,1.65,-9.48,-9.87,-8.9,125.25,20.130000000000003
2023-04-21 01-07-46-421404,-90,-110,1545,1545,-89.78,-110.093,-1.47,1.64,-9.49,-9.85,-8.77,125.21,20.15
2023-04-21 01-07-46-501058,-90,-110,1545,1545,-89.868,-110.093,-1.41,1.67,-9.59,-9.83,-8.62,125.18,20.17
2023-04-21 01-07-46-570369,-90,-110,1545,1545,-89.868,-110.093,-1.41,1.64,-9.54,-9.84,-8.56,125.19,20.16
2023-04-21 01-07-46-652825,-90,-110,1545,1545,-89.868,-110.181,-1.4,1.61,-9.57,-9.84,-8.54,125.2,20.16
2023-04-21 01-07-46-742419,-90,-110,1545,1545,-89.868,-110.181,-1.42,1.63,-9.57,-9.85,-8.6,125.22,20.15
2023-04-21 01-07-46-826059,-90,-110,1545,1545,-89.868,-110.093,-1.45,1.64,-9.5,-9.87,-8.69,125.23,20.130000000000003
