Timestamp_log,left_angle,right_angle,left_thrust,right_thrust,read_left_angle,read_right_angle,accel_x,accel_y,accel_z,roll,pitch,yaw,error
2023-05-05 11-09-29-162841,0,160,1550,1445,-89.78,-110.005,0.36,-0.04,-9.77,0.05,1.92,-174.04,30.05
2023-05-05 11-09-29-275414,0,160,1550,1445,-89.78,-110.005,0.36,-0.04,-9.78,0.04,1.92,-174.04,30.04
2023-05-05 11-09-29-386353,0,160,1550,1445,-89.78,-110.005,0.36,-0.03,-9.77,0.05,1.92,-174.04,30.05
2023-05-05 11-09-29-487422,0,160,1550,1445,-89.78,-110.005,0.38,-0.05,-10.15,0.03,1.9,-174.04,30.03
2023-05-05 11-09-29-593134,0,160,1550,1445,-89.78,-110.005,0.36,0.02,-9.95,-0.34,1.89,-174.06,29.66
2023-05-05 11-09-29-697137,0,160,1550,1445,-89.78,-110.005,0.34,0.17,-9.86,-1.03,1.88,-174.15,28.97
2023-05-05 11-09-29-806800,0,160,1550,1445,-89.78,-110.005,0.35,0.23,-9.8,-1.91,1.95,-174.33,28.09
2023-05-05 11-09-29-914902,0,160,1550,1445,-89.78,-110.005,0.36,0.38,-9.81,-2.8,2.1,-174.55,27.2
2023-05-05 11-09-30-017243,0,160,1550,1445,-89.78,-110.005,0.38,0.61,-9.77,-3.85,2.24,-174.85,26.15
2023-05-05 11-09-30-123050,0,160,1550,1445,-89.78,-110.005,0.4,0.76,-9.77,-4.85,2.36,-175.16,25.15
2023-05-05 11-09-30-234339,0,160,1550,1445,-89.78,-110.005,0.44,0.96,-9.74,-6.0,2.53,-175.55,24.0
2023-05-05 11-09-30-336390,0,160,1550,1445,-89.78,-110.005,0.48,1.18,-9.68,-7.19,2.8,-176.02,22.81
2023-05-05 11-09-30-444915,0,160,1550,1445,-89.78,-110.005,0.57,1.39,-9.68,-8.29,3.2,-176.53,21.71
2023-05-05 11-09-30-542463,0,160,1550,1445,-89.78,-110.093,0.62,1.58,-9.6,-9.4,3.59,-177.1,20.6
2023-05-05 11-09-30-652259,0,160,1549,1446,-89.78,-110.093,0.72,1.76,-9.61,-10.64,4.05,-177.83,19.36
2023-05-05 11-09-30-758322,0,160,1547,1448,-89.78,-110.005,0.78,2.0,-9.51,-11.88,4.48,-178.66,18.119999999999997
2023-05-05 11-09-30-865255,0,160,1546,1449,-89.78,-110.005,0.83,2.15,-9.36,-12.99,4.87,-179.46,17.009999999999998
2023-05-05 11-09-30-974365,0,160,1545,1450,-89.78,-110.005,0.97,2.36,-9.34,-14.18,5.63,179.49,15.82
2023-05-05 11-09-31-061155,0,160,1544,1451,-89.78,-110.005,1.12,2.51,-9.31,-15.1,6.5,178.5,14.9
2023-05-05 11-09-31-162830,0,160,1543,1452,-89.78,-110.005,1.32,2.65,-9.23,-16.09,7.67,177.31,13.91
2023-05-05 11-09-31-266981,0,160,1542,1453,-89.78,-110.005,1.53,2.82,-9.08,-17.08,9.04,175.94,12.920000000000002
2023-05-05 11-09-31-373016,0,160,1541,1454,-89.78,-110.005,1.78,2.92,-9.06,-17.86,10.44,174.64,12.14
2023-05-05 11-09-31-488339,0,160,1541,1454,-89.78,-110.005,2.06,3.04,-8.98,-18.62,12.07,173.22,11.379999999999999
2023-05-05 11-09-31-585607,0,160,1540,1455,-89.78,-110.005,2.36,3.12,-8.93,-19.27,13.82,171.84,10.73
2023-05-05 11-09-31-691737,0,160,1540,1455,-89.78,-110.005,2.56,3.15,-8.8,-19.77,15.37,170.69,10.23
2023-05-05 11-09-31-798947,0,160,1539,1456,-89.78,-110.005,2.89,3.19,-8.75,-20.24,17.07,169.56,9.760000000000002
2023-05-05 11-09-31-907593,0,160,1539,1456,-89.78,-110.093,3.11,3.21,-8.67,-20.53,18.38,168.76,9.469999999999999
2023-05-05 11-09-32-012649,0,160,1539,1456,-89.78,-110.005,3.29,3.21,-8.45,-20.7,19.72,168.04,9.3
2023-05-05 11-09-32-118517,0,160,1539,1456,-89.78,-110.093,3.54,3.18,-8.45,-20.75,21.17,167.43,9.25
2023-05-05 11-09-32-216464,0,160,1539,1456,-89.78,-110.005,3.8,3.11,-8.35,-20.66,22.85,166.92,9.34
2023-05-05 11-09-32-312225,0,160,1539,1456,-89.78,-110.005,4.01,3.06,-8.28,-20.5,24.32,166.59,9.5
2023-05-05 11-09-32-421985,0,160,1539,1456,-89.78,-110.005,4.32,2.96,-8.15,-20.2,26.15,166.36,9.8
2023-05-05 11-09-32-521283,0,160,1540,1455,-89.78,-110.005,4.59,2.88,-8.09,-19.82,27.9,166.29,10.18
2023-05-05 11-09-32-627862,0,160,1540,1455,-89.78,-110.005,4.89,2.74,-7.98,-19.28,29.79,166.4,10.719999999999999
2023-05-05 11-09-32-734415,0,160,1541,1454,-89.78,-110.005,5.19,2.59,-8.0,-18.63,31.53,166.73,11.370000000000001
2023-05-05 11-09-32-836474,0,160,1542,1453,-89.78,-109.917,5.33,2.5,-7.92,-18.05,32.6,167.22,11.95
2023-05-05 11-09-32-946414,0,160,1542,1453,-89.78,-110.005,6.96,2.52,-9.31,-17.27,33.56,168.03,12.73
2023-05-05 11-09-33-050722,0,160,1542,1453,-89.78,-110.005,5.3,2.2,-7.81,-17.09,32.78,168.68,12.91
2023-05-05 11-09-33-161013,0,160,1542,1453,-89.78,-110.005,5.23,2.38,-7.83,-17.09,32.23,169.13,12.91
2023-05-05 11-09-33-268796,0,160,1542,1453,-89.78,-110.005,5.18,2.37,-7.84,-17.19,32.13,169.41,12.809999999999999
2023-05-05 11-09-33-364534,0,160,1542,1453,-89.78,-110.005,5.28,2.42,-7.84,-17.35,32.45,169.53,12.649999999999999
2023-05-05 11-09-33-478695,0,160,1542,1453,-89.78,-110.005,5.36,2.42,-7.84,-17.59,32.99,169.62,12.41
2023-05-05 11-09-33-581988,0,160,1542,1453,-89.78,-110.005,5.45,2.43,-7.76,-17.84,33.53,169.66,12.16
2023-05-05 11-09-33-677502,0,160,1541,1454,-89.78,-110.005,5.53,2.49,-7.72,-18.13,34.16,169.69,11.870000000000001
2023-05-05 11-09-33-777520,0,160,1541,1454,-89.78,-110.005,5.81,2.49,-7.82,-18.48,34.77,169.69,11.52
2023-05-05 11-09-33-883980,0,160,1540,1455,-89.78,-110.005,5.65,2.54,-7.54,-18.93,35.21,169.65,11.07
2023-05-05 11-09-33-996494,0,160,1540,1455,-89.78,-110.005,5.74,2.6,-7.47,-19.48,35.81,169.58,10.52
2023-05-05 11-09-34-106316,0,160,1539,1456,-89.78,-110.005,5.86,2.64,-7.43,-19.97,36.35,169.53,10.030000000000001
2023-05-05 11-09-34-209847,0,160,1539,1456,-89.78,-110.005,5.84,2.69,-7.32,-20.35,36.67,169.53,9.649999999999999
2023-05-05 11-09-34-311768,0,160,1539,1456,-89.78,-110.005,5.97,2.72,-7.27,-20.66,36.95,169.58,9.34
2023-05-05 11-09-34-417431,0,160,1538,1457,-89.78,-110.005,6.02,2.76,-7.2,-20.97,37.23,169.53,9.030000000000001
2023-05-05 11-09-34-522833,0,160,1538,1457,-89.78,-110.005,5.99,2.79,-7.17,-21.3,37.51,169.35,8.7
2023-05-05 11-09-34-628159,0,160,1538,1457,-89.78,-110.005,6.06,2.82,-7.13,-21.61,37.81,169.12,8.39
2023-05-05 11-09-34-731474,0,160,1538,1457,-89.78,-110.005,6.08,2.84,-7.12,-21.89,38.07,168.84,8.11
2023-05-05 11-09-34-845099,0,160,1537,1458,-89.78,-110.005,6.08,2.85,-7.07,-22.17,38.35,168.48,7.829999999999998
2023-05-05 11-09-34-947599,0,160,1537,1458,-89.78,-110.005,6.1,2.87,-7.02,-22.38,38.53,168.17,7.620000000000001
2023-05-05 11-09-35-052897,0,160,1537,1458,-89.78,-110.005,6.21,2.9,-7.06,-22.57,38.73,167.84,7.43
2023-05-05 11-09-35-148717,0,160,1537,1458,-89.78,-110.005,6.16,2.9,-7.01,-22.78,38.93,167.44,7.219999999999999
2023-05-05 11-09-35-256672,0,160,1536,1459,-89.78,-110.005,6.2,2.92,-6.95,-23.02,39.13,167.0,6.98
2023-05-05 11-09-35-362103,0,160,1536,1459,-89.78,-110.005,6.21,2.94,-6.93,-23.28,39.35,166.48,6.719999999999999
2023-05-05 11-09-35-467264,0,160,1536,1459,-89.78,-110.005,6.27,2.96,-6.94,-23.5,39.55,166.04,6.5
2023-05-05 11-09-35-574135,0,160,1536,1459,-89.78,-110.005,6.29,2.96,-6.91,-23.76,39.77,165.56,6.239999999999998
2023-05-05 11-09-35-671448,0,160,1535,1460,-89.78,-110.005,6.26,2.99,-6.81,-23.99,39.95,165.14,6.010000000000002
2023-05-05 11-09-35-784608,0,160,1535,1460,-89.78,-110.005,6.35,3.0,-6.82,-24.16,40.13,164.73,5.84
2023-05-05 11-09-35-894827,0,160,1535,1460,-89.78,-110.005,6.35,3.03,-6.79,-24.33,40.25,164.33,5.670000000000002
2023-05-05 11-09-35-976053,0,160,1535,1460,-89.78,-110.005,6.36,3.02,-6.75,-24.34,40.26,164.08,5.66
2023-05-05 11-09-36-088731,0,160,1535,1460,-89.78,-110.005,6.35,3.01,-6.78,-24.26,40.2,163.83,5.739999999999998
2023-05-05 11-09-36-194686,0,160,1535,1460,-89.78,-110.005,6.33,3.02,-6.8,-24.11,40.06,163.64,5.890000000000001
2023-05-05 11-09-36-300958,0,160,1536,1459,-89.78,-110.005,6.3,2.99,-6.84,-23.86,39.85,163.49,6.140000000000001
2023-05-05 11-09-36-409524,0,160,1536,1459,-89.78,-110.005,6.25,2.96,-6.89,-23.52,39.55,163.42,6.48
2023-05-05 11-09-36-516026,0,160,1536,1459,-89.78,-110.005,6.23,2.93,-6.98,-23.18,39.25,163.37,6.82
2023-05-05 11-09-36-624118,0,160,1537,1458,-89.78,-110.005,6.15,2.9,-7.02,-22.87,38.97,163.29,7.129999999999999
2023-05-05 11-09-36-722907,0,160,1537,1458,-89.78,-110.005,6.14,2.9,-7.04,-22.6,38.73,163.22,7.399999999999999
2023-05-05 11-09-36-826007,0,160,1537,1458,-89.78,-110.005,6.11,2.88,-7.07,-22.39,38.54,163.16,7.609999999999999
2023-05-05 11-09-36-937145,0,160,1537,1458,-89.78,-110.005,6.07,2.84,-7.12,-22.14,38.3,163.12,7.859999999999999
2023-05-05 11-09-37-044003,0,160,1538,1457,-89.78,-110.005,6.04,2.8,-7.11,-21.89,38.05,163.08,8.11
2023-05-05 11-09-37-159016,0,160,1538,1457,-89.78,-110.005,6.02,2.79,-7.18,-21.61,37.82,163.06,8.39
2023-05-05 11-09-37-269580,0,160,1538,1457,-89.78,-110.005,5.97,2.77,-7.18,-21.41,37.63,163.04,8.59
2023-05-05 11-09-37-375519,0,160,1538,1457,-89.78,-110.005,5.99,2.75,-7.27,-21.29,37.53,162.97,8.71
2023-05-05 11-09-37-489002,0,160,1538,1457,-89.78,-110.005,5.94,2.76,-7.24,-21.22,37.45,162.86,8.780000000000001
2023-05-05 11-09-37-594980,0,160,1538,1457,-89.78,-110.005,5.97,2.78,-7.23,-21.21,37.44,162.76,8.79
2023-05-05 11-09-37-712065,0,160,1538,1457,-89.78,-110.005,5.95,2.76,-7.23,-21.23,37.42,162.64,8.77
2023-05-05 11-09-37-816307,0,160,1538,1457,-89.78,-110.005,5.95,2.78,-7.23,-21.21,37.4,162.6,8.79
2023-05-05 11-09-37-919817,0,160,1538,1457,-89.78,-110.005,5.99,2.76,-7.26,-21.2,37.42,162.58,8.8
2023-05-05 11-09-38-026902,0,160,1538,1457,-89.78,-110.005,6.0,2.79,-7.22,-21.28,37.49,162.48,8.719999999999999
2023-05-05 11-09-38-141617,0,160,1538,1457,-89.78,-110.005,6.0,2.79,-7.2,-21.37,37.57,162.32,8.629999999999999
2023-05-05 11-09-38-246967,0,160,1538,1457,-89.78,-110.005,6.01,2.78,-7.22,-21.46,37.66,162.19,8.54
2023-05-05 11-09-38-358780,0,160,1538,1457,-89.78,-110.005,6.01,2.8,-7.2,-21.57,37.74,162.03,8.43
2023-05-05 11-09-38-463589,0,160,1538,1457,-89.78,-110.005,6.04,2.82,-7.15,-21.65,37.81,161.9,8.350000000000001
2023-05-05 11-09-38-576963,0,160,1538,1457,-89.78,-110.005,6.04,2.8,-7.16,-21.71,37.86,161.76,8.29
2023-05-05 11-09-38-675117,0,160,1538,1457,-89.78,-110.005,6.04,2.8,-7.16,-21.75,37.9,161.67,8.25
2023-05-05 11-09-38-766911,0,160,1538,1457,-89.78,-110.005,6.04,2.81,-7.16,-21.79,37.94,161.58,8.21
2023-05-05 11-09-38-874960,0,160,1538,1457,-89.78,-110.005,6.08,2.81,-7.13,-21.86,37.98,161.46,8.14
2023-05-05 11-09-38-975205,0,160,1538,1457,-89.78,-110.005,6.04,2.79,-7.16,-21.94,38.04,161.35,8.059999999999999
2023-05-05 11-09-39-081724,0,160,1538,1457,-89.78,-110.005,6.04,2.82,-7.1,-21.99,38.1,161.24,8.010000000000002
2023-05-05 11-09-39-195208,0,160,1537,1458,-89.78,-110.005,6.05,2.83,-7.1,-22.05,38.14,161.12,7.949999999999999
2023-05-05 11-09-39-297608,0,160,1537,1458,-89.78,-110.005,6.09,2.83,-7.12,-22.04,38.13,161.05,7.960000000000001
2023-05-05 11-09-39-402672,0,160,1537,1458,-89.78,-110.005,6.11,2.83,-7.13,-22.03,38.12,161.0,7.969999999999999
2023-05-05 11-09-39-516447,0,160,1537,1458,-89.78,-110.005,6.06,2.82,-7.14,-22.03,38.14,160.91,7.969999999999999
2023-05-05 11-09-39-625354,0,160,1537,1458,-89.78,-110.005,6.07,2.83,-7.12,-22.05,38.17,160.84,7.949999999999999
2023-05-05 11-09-39-729453,0,160,1537,1458,-89.78,-110.005,6.07,2.83,-7.12,-22.1,38.22,160.76,7.899999999999999
2023-05-05 11-09-39-843291,0,160,1537,1458,-89.78,-110.005,6.13,2.86,-7.09,-22.16,38.28,160.68,7.84
2023-05-05 11-09-39-946403,0,160,1537,1458,-89.78,-110.005,6.1,2.86,-7.1,-22.21,38.33,160.59,7.789999999999999
2023-05-05 11-09-40-051919,0,160,1537,1458,-89.78,-110.005,6.13,2.84,-7.12,-22.28,38.4,160.49,7.719999999999999
2023-05-05 11-09-40-158152,0,160,1537,1458,-89.78,-110.005,6.14,2.88,-7.07,-22.37,38.47,160.39,7.629999999999999
2023-05-05 11-09-40-271055,0,160,1537,1458,-89.78,-110.005,6.11,2.86,-7.08,-22.45,38.53,160.29,7.550000000000001
2023-05-05 11-09-40-379238,0,160,1537,1458,-89.78,-110.005,6.12,2.85,-7.07,-22.5,38.58,160.21,7.5
2023-05-05 11-09-40-486751,0,160,1537,1458,-89.78,-110.005,6.12,2.88,-7.04,-22.54,38.6,160.13,7.460000000000001
2023-05-05 11-09-40-601154,0,160,1537,1458,-89.78,-110.005,6.1,2.86,-7.06,-22.57,38.62,160.06,7.43
2023-05-05 11-09-40-698474,0,160,1537,1458,-89.78,-110.005,6.16,2.88,-7.04,-22.61,38.66,159.99,7.390000000000001
2023-05-05 11-09-40-810946,0,160,1537,1458,-89.78,-110.005,6.13,2.88,-7.06,-22.62,38.68,159.93,7.379999999999999
2023-05-05 11-09-40-913641,0,160,1537,1458,-89.78,-110.005,6.13,2.89,-7.02,-22.66,38.72,159.86,7.34
2023-05-05 11-09-41-026947,0,160,1537,1458,-89.78,-110.005,6.18,2.9,-7.03,-22.69,38.77,159.8,7.309999999999999
2023-05-05 11-09-41-117516,0,160,1537,1458,-89.78,-110.005,6.16,2.91,-7.03,-22.72,38.79,159.74,7.280000000000001
2023-05-05 11-09-41-232000,0,160,1537,1458,-89.78,-110.005,6.15,2.88,-7.0,-22.75,38.8,159.67,7.25
2023-05-05 11-09-41-343188,0,160,1537,1458,-89.78,-110.005,6.16,2.89,-6.99,-22.75,38.81,159.63,7.25
2023-05-05 11-09-41-457453,0,160,1537,1458,-89.78,-110.005,6.12,2.87,-7.05,-22.68,38.76,159.6,7.32
2023-05-05 11-09-41-566270,0,160,1537,1458,-89.78,-110.005,6.14,2.89,-7.03,-22.63,38.71,159.59,7.370000000000001
2023-05-05 11-09-41-675526,0,160,1537,1458,-89.78,-110.005,6.13,2.87,-7.05,-22.58,38.66,159.58,7.420000000000002
2023-05-05 11-09-41-785486,0,160,1537,1458,-89.78,-110.005,6.14,2.86,-7.08,-22.55,38.64,159.56,7.449999999999999
2023-05-05 11-09-41-897773,0,160,1537,1458,-89.78,-110.005,6.11,2.87,-7.06,-22.59,38.67,159.5,7.41
2023-05-05 11-09-42-008865,0,160,1537,1458,-89.78,-110.005,6.12,2.89,-7.03,-22.66,38.73,159.44,7.34
2023-05-05 11-09-42-115907,0,160,1537,1458,-89.78,-110.005,6.14,2.89,-7.0,-22.73,38.78,159.38,7.27
2023-05-05 11-09-42-208197,0,160,1537,1458,-89.78,-110.005,6.16,2.89,-7.0,-22.76,38.82,159.34,7.239999999999998
2023-05-05 11-09-42-322867,0,160,1537,1458,-89.78,-110.005,6.15,2.88,-7.01,-22.81,38.86,159.27,7.190000000000001
2023-05-05 11-09-42-427712,0,160,1537,1458,-89.78,-110.005,6.16,2.87,-7.0,-22.86,38.91,159.23,7.140000000000001
2023-05-05 11-09-42-541406,0,160,1537,1458,-89.78,-110.005,6.18,2.91,-7.01,-22.88,38.95,159.19,7.120000000000001
2023-05-05 11-09-42-655963,0,160,1537,1458,-89.78,-110.005,6.19,2.9,-6.99,-22.93,38.98,159.13,7.07
2023-05-05 11-09-42-744981,0,160,1537,1458,-89.78,-110.005,6.17,2.91,-7.01,-22.95,39.01,159.1,7.050000000000001
2023-05-05 11-09-42-859221,0,160,1536,1459,-89.78,-110.005,6.19,2.91,-6.97,-23.0,39.03,159.06,7.0
2023-05-05 11-09-42-974195,0,160,1536,1459,-89.868,-110.005,6.19,2.92,-6.97,-23.04,39.05,159.01,6.960000000000001
2023-05-05 11-09-43-077523,0,160,1536,1459,-89.78,-110.005,6.22,2.93,-6.95,-23.03,39.06,158.98,6.969999999999999
2023-05-05 11-09-43-173216,0,160,1536,1459,-89.78,-110.005,6.2,2.94,-6.97,-23.04,39.07,158.96,6.960000000000001
2023-05-05 11-09-43-280821,0,160,1536,1459,-89.78,-110.005,6.2,2.92,-6.98,-23.04,39.07,158.93,6.960000000000001
2023-05-05 11-09-43-385520,0,160,1536,1459,-89.78,-110.005,6.19,2.91,-6.97,-23.02,39.05,158.91,6.98
2023-05-05 11-09-43-489694,0,160,1537,1458,-89.78,-110.005,6.19,2.91,-7.0,-22.99,39.01,158.9,7.010000000000002
2023-05-05 11-09-43-597846,0,160,1537,1458,-89.78,-110.005,6.18,2.92,-7.0,-22.93,38.95,158.9,7.07
2023-05-05 11-09-43-712980,0,160,1537,1458,-89.78,-110.005,6.17,2.91,-7.01,-22.83,38.88,158.92,7.170000000000002
2023-05-05 11-09-43-812757,0,160,1537,1458,-89.78,-110.005,6.19,2.91,-7.04,-22.78,38.85,158.91,7.219999999999999
2023-05-05 11-09-43-924672,0,160,1537,1458,-89.78,-110.005,6.16,2.88,-7.08,-22.77,38.84,158.9,7.23
2023-05-05 11-09-44-028549,0,160,1537,1458,-89.78,-110.005,6.16,2.9,-7.0,-22.82,38.88,158.86,7.18
2023-05-05 11-09-44-122642,0,160,1537,1458,-89.78,-110.005,6.18,2.91,-7.02,-22.87,38.92,158.83,7.129999999999999
2023-05-05 11-09-44-234094,0,160,1537,1458,-89.78,-110.005,6.15,2.9,-6.98,-22.94,38.98,158.79,7.059999999999999
2023-05-05 11-09-44-340772,0,160,1537,1458,-89.78,-110.005,6.21,2.9,-7.0,-22.98,39.04,158.75,7.02
2023-05-05 11-09-44-451270,0,160,1536,1459,-89.78,-110.005,6.2,2.93,-6.97,-23.04,39.09,158.7,6.960000000000001
2023-05-05 11-09-44-554808,0,160,1536,1459,-89.78,-110.005,6.21,2.93,-6.98,-23.06,39.12,158.67,6.940000000000001
2023-05-05 11-09-44-664448,0,160,1536,1459,-89.78,-110.005,6.18,2.91,-6.97,-23.09,39.16,158.65,6.91
2023-05-05 11-09-44-759389,0,160,1536,1459,-89.78,-110.005,6.19,2.94,-6.95,-23.11,39.17,158.61,6.890000000000001
2023-05-05 11-09-44-864050,0,160,1536,1459,-89.78,-110.005,6.21,2.93,-6.95,-23.11,39.18,158.59,6.890000000000001
2023-05-05 11-09-44-965818,0,160,1536,1459,-89.78,-110.005,6.19,2.91,-6.96,-23.1,39.19,158.58,6.899999999999999
2023-05-05 11-09-45-079978,0,160,1536,1459,-89.78,-110.005,6.2,2.94,-6.97,-23.1,39.18,158.57,6.899999999999999
2023-05-05 11-09-45-182874,0,160,1536,1459,-89.78,-110.005,6.21,2.93,-6.97,-23.09,39.16,158.56,6.91
2023-05-05 11-09-45-275080,0,160,1536,1459,-89.78,-110.005,6.18,2.92,-6.99,-23.05,39.14,158.56,6.949999999999999
2023-05-05 11-09-45-389110,0,160,1536,1459,-89.78,-110.005,6.19,2.93,-7.0,-23.01,39.11,158.56,6.989999999999998
2023-05-05 11-09-45-502560,0,160,1537,1458,-89.868,-110.005,6.19,2.92,-6.97,-22.98,39.08,158.56,7.02
2023-05-05 11-09-45-617274,0,160,1537,1458,-89.78,-110.005,6.19,2.91,-6.99,-22.91,39.02,158.58,7.09
2023-05-05 11-09-45-731573,0,160,1537,1458,-89.78,-110.005,6.18,2.9,-7.0,-22.84,38.95,158.6,7.16
2023-05-05 11-09-45-834904,0,160,1537,1458,-89.78,-110.005,6.13,2.88,-7.01,-22.76,38.88,158.61,7.239999999999998
2023-05-05 11-09-45-938589,0,160,1537,1458,-89.78,-110.005,6.14,2.87,-7.04,-22.68,38.81,158.64,7.32
2023-05-05 11-09-46-042857,0,160,1537,1458,-89.78,-110.005,6.13,2.89,-7.06,-22.63,38.76,158.66,7.370000000000001
2023-05-05 11-09-46-146951,0,160,1537,1458,-89.78,-110.005,6.11,2.87,-7.06,-22.6,38.74,158.67,7.399999999999999
2023-05-05 11-09-46-253845,0,160,1537,1458,-89.78,-110.005,6.13,2.89,-7.04,-22.61,38.74,158.67,7.390000000000001
2023-05-05 11-09-46-361809,0,160,1537,1458,-89.78,-110.005,6.16,2.9,-7.05,-22.65,38.77,158.65,7.350000000000001
2023-05-05 11-09-46-472322,0,160,1537,1458,-89.78,-110.005,6.14,2.9,-7.04,-22.72,38.83,158.62,7.280000000000001
2023-05-05 11-09-46-585525,0,160,1537,1458,-89.78,-110.005,6.17,2.9,-7.0,-22.79,38.89,158.59,7.210000000000001
2023-05-05 11-09-46-686160,0,160,1537,1458,-89.78,-110.005,6.19,2.89,-6.98,-22.86,38.96,158.55,7.140000000000001
2023-05-05 11-09-46-794222,0,160,1537,1458,-89.78,-110.005,6.2,2.91,-7.01,-22.93,39.01,158.52,7.07
2023-05-05 11-09-46-895886,0,160,1536,1459,-89.78,-110.005,6.19,2.91,-6.97,-23.0,39.08,158.48,7.0
2023-05-05 11-09-46-999903,0,160,1536,1459,-89.78,-110.005,6.2,2.94,-6.96,-23.07,39.13,158.42,6.93
2023-05-05 11-09-47-111247,0,160,1536,1459,-89.78,-110.005,6.2,2.91,-6.97,-23.12,39.17,158.4,6.879999999999999
2023-05-05 11-09-47-224140,0,160,1536,1459,-89.78,-110.005,6.22,2.94,-6.94,-23.14,39.17,158.38,6.859999999999999
2023-05-05 11-09-47-339561,0,160,1536,1459,-89.78,-110.005,6.19,2.93,-6.95,-23.12,39.16,158.38,6.879999999999999
2023-05-05 11-09-47-449477,0,160,1536,1459,-89.78,-110.005,6.16,2.92,-6.99,-23.1,39.15,158.38,6.899999999999999
2023-05-05 11-09-47-557612,0,160,1536,1459,-89.78,-110.005,6.2,2.91,-6.99,-23.07,39.14,158.38,6.93
2023-05-05 11-09-47-669847,0,160,1536,1459,-89.78,-110.005,6.2,2.93,-6.98,-23.03,39.11,158.4,6.969999999999999
2023-05-05 11-09-47-776907,0,160,1537,1458,-89.78,-110.005,6.21,2.93,-6.96,-22.97,39.05,158.43,7.030000000000001
2023-05-05 11-09-47-879039,0,160,1537,1458,-89.78,-110.005,6.19,2.9,-7.02,-22.88,38.98,158.46,7.120000000000001
2023-05-05 11-09-47-977044,0,160,1537,1458,-89.78,-110.005,6.18,2.89,-7.04,-22.82,38.92,158.47,7.18
2023-05-05 11-09-48-086346,0,160,1537,1458,-89.78,-110.005,6.14,2.9,-6.99,-22.8,38.88,158.47,7.199999999999999
2023-05-05 11-09-48-196186,0,160,1537,1458,-89.78,-110.005,6.18,2.91,-6.97,-22.79,38.88,158.47,7.210000000000001
2023-05-05 11-09-48-295049,0,160,1537,1458,-89.78,-110.005,6.17,2.89,-7.0,-22.79,38.89,158.47,7.210000000000001
2023-05-05 11-09-48-409781,0,160,1537,1458,-89.78,-110.093,6.19,2.92,-6.97,-22.83,38.93,158.46,7.170000000000002
2023-05-05 11-09-48-512224,0,160,1537,1458,-89.78,-110.005,6.2,2.9,-6.97,-22.88,38.97,158.44,7.120000000000001
2023-05-05 11-09-48-622540,0,160,1537,1458,-89.78,-110.005,6.21,2.92,-6.99,-22.93,39.0,158.41,7.07
2023-05-05 11-09-48-730318,0,160,1537,1458,-89.78,-110.005,6.19,2.93,-6.97,-22.98,39.04,158.38,7.02
2023-05-05 11-09-48-826514,0,160,1536,1459,-89.78,-110.005,6.21,2.92,-6.96,-23.0,39.07,158.36,7.0
2023-05-05 11-09-48-921507,0,160,1536,1459,-89.78,-110.005,6.2,2.94,-6.95,-23.02,39.09,158.35,6.98
2023-05-05 11-09-49-037079,0,160,1536,1459,-89.78,-110.005,6.2,2.9,-6.97,-23.03,39.1,158.33,6.969999999999999
2023-05-05 11-09-49-141487,0,160,1536,1459,-89.78,-110.005,6.21,2.94,-6.96,-23.03,39.1,158.32,6.969999999999999
2023-05-05 11-09-49-245820,0,160,1536,1459,-89.78,-110.005,6.22,2.93,-6.95,-23.03,39.11,158.31,6.969999999999999
2023-05-05 11-09-49-349497,0,160,1536,1459,-89.78,-110.005,6.22,2.93,-6.98,-23.05,39.12,158.31,6.949999999999999
2023-05-05 11-09-49-458423,0,160,1536,1459,-89.78,-110.005,6.19,2.92,-6.95,-23.07,39.13,158.29,6.93
2023-05-05 11-09-49-567500,0,160,1536,1459,-89.78,-110.005,6.21,2.95,-6.94,-23.08,39.14,158.28,6.920000000000002
2023-05-05 11-09-49-678770,0,160,1536,1459,-89.78,-110.005,6.2,2.92,-6.95,-23.12,39.15,158.25,6.879999999999999
2023-05-05 11-09-49-783687,0,160,1536,1459,-89.78,-110.005,6.22,2.91,-6.96,-23.11,39.14,158.25,6.890000000000001
2023-05-05 11-09-49-898588,0,160,1536,1459,-89.78,-110.005,6.2,2.92,-6.96,-23.07,39.09,158.26,6.93
2023-05-05 11-09-50-008988,0,160,1537,1458,-89.78,-110.005,6.2,2.91,-6.96,-22.99,39.03,158.29,7.010000000000002
2023-05-05 11-09-50-115565,0,160,1537,1458,-89.78,-110.005,6.21,2.92,-6.97,-22.91,38.96,158.33,7.09
2023-05-05 11-09-50-226323,0,160,1537,1458,-89.78,-110.005,6.18,2.89,-7.0,-22.85,38.91,158.35,7.149999999999999
2023-05-05 11-09-50-341675,0,160,1537,1458,-89.78,-110.005,6.15,2.9,-7.01,-22.81,38.87,158.37,7.190000000000001
2023-05-05 11-09-50-446591,0,160,1537,1458,-89.78,-110.005,6.17,2.88,-7.04,-22.8,38.87,158.37,7.199999999999999
2023-05-05 11-09-50-558457,0,160,1537,1458,-89.78,-110.005,6.15,2.91,-7.0,-22.83,38.9,158.35,7.170000000000002
2023-05-05 11-09-50-680700,0,160,1537,1458,-89.78,-110.005,6.2,2.91,-6.99,-22.87,38.92,158.33,7.129999999999999
2023-05-05 11-09-50-787009,0,160,1537,1458,-89.78,-110.005,6.17,2.93,-7.0,-22.89,38.95,158.33,7.109999999999999
2023-05-05 11-09-50-882509,0,160,1537,1458,-89.78,-110.005,6.19,2.91,-6.98,-22.92,38.98,158.31,7.079999999999998
2023-05-05 11-09-50-993120,0,160,1537,1458,-89.78,-110.005,6.16,2.91,-6.97,-22.94,39.0,158.3,7.059999999999999
2023-05-05 11-09-51-096141,0,160,1537,1458,-89.78,-110.005,6.19,2.91,-6.98,-22.95,39.01,158.29,7.050000000000001
2023-05-05 11-09-51-194690,0,160,1537,1458,-89.78,-110.005,6.19,2.91,-6.97,-22.96,39.01,158.29,7.039999999999999
2023-05-05 11-09-51-305292,0,160,1537,1458,-89.78,-110.005,6.18,2.91,-6.98,-22.95,39.01,158.3,7.050000000000001
2023-05-05 11-09-51-412081,0,160,1537,1458,-89.78,-110.005,6.2,2.93,-6.99,-22.95,39.03,158.3,7.050000000000001
2023-05-05 11-09-51-513943,0,160,1537,1458,-89.78,-110.005,6.2,2.92,-6.99,-22.95,39.03,158.29,7.050000000000001
2023-05-05 11-09-51-619587,0,160,1537,1458,-89.78,-110.005,6.21,2.92,-6.96,-22.95,39.04,158.29,7.050000000000001
2023-05-05 11-09-51-731371,0,160,1537,1458,-89.78,-110.005,6.19,2.93,-6.96,-22.97,39.06,158.29,7.030000000000001
2023-05-05 11-09-51-837682,0,160,1536,1459,-89.78,-110.005,6.2,2.93,-7.0,-23.01,39.09,158.26,6.989999999999998
2023-05-05 11-09-51-940920,0,160,1536,1459,-89.78,-110.005,6.22,2.93,-6.95,-23.03,39.1,158.25,6.969999999999999
2023-05-05 11-09-52-049348,0,160,1537,1458,-89.78,-110.005,6.2,2.92,-6.96,-22.98,39.07,158.28,7.02
2023-05-05 11-09-52-144405,0,160,1537,1458,-89.78,-110.005,6.21,2.91,-6.99,-22.92,39.02,158.31,7.079999999999998
2023-05-05 11-09-52-255464,0,160,1537,1458,-89.78,-110.005,6.18,2.92,-7.0,-22.86,38.94,158.33,7.140000000000001
2023-05-05 11-09-52-353269,0,160,1537,1458,-89.78,-110.005,6.18,2.9,-7.01,-22.81,38.91,158.35,7.190000000000001
2023-05-05 11-09-52-466503,0,160,1537,1458,-89.78,-110.005,6.17,2.89,-7.03,-22.83,38.91,158.34,7.170000000000002
2023-05-05 11-09-52-583331,0,160,1537,1458,-89.78,-110.005,6.16,2.93,-7.02,-22.88,38.96,158.32,7.120000000000001
2023-05-05 11-09-52-688384,0,160,1537,1458,-89.78,-110.005,6.19,2.9,-6.99,-22.97,39.05,158.28,7.030000000000001
2023-05-05 11-09-52-792692,0,160,1536,1459,-89.78,-110.005,6.2,2.93,-6.95,-23.05,39.11,158.24,6.949999999999999
2023-05-05 11-09-52-904544,0,160,1536,1459,-89.78,-110.005,6.21,2.93,-6.97,-23.11,39.16,158.21,6.890000000000001
2023-05-05 11-09-53-013607,0,160,1536,1459,-89.78,-110.005,6.24,2.91,-6.97,-23.15,39.21,158.18,6.850000000000001
2023-05-05 11-09-53-122837,0,160,1536,1459,-89.78,-110.005,6.21,2.95,-6.94,-23.19,39.24,158.16,6.809999999999999
2023-05-05 11-09-53-234192,0,160,1536,1459,-89.78,-110.005,6.21,2.93,-6.95,-23.2,39.24,158.14,6.800000000000001
2023-05-05 11-09-53-335340,0,160,1536,1459,-89.78,-110.005,6.25,2.95,-6.96,-23.21,39.25,158.13,6.789999999999999
2023-05-05 11-09-53-447091,0,160,1536,1459,-89.78,-110.005,6.21,2.95,-6.96,-23.22,39.25,158.12,6.780000000000001
2023-05-05 11-09-53-565254,0,160,1536,1459,-89.78,-110.005,6.21,2.93,-6.94,-23.23,39.25,158.11,6.77
2023-05-05 11-09-53-675680,0,160,1536,1459,-89.78,-110.005,6.24,2.94,-6.93,-23.22,39.24,158.11,6.780000000000001
2023-05-05 11-09-53-786861,0,160,1536,1459,-89.78,-110.005,6.2,2.92,-6.97,-23.2,39.22,158.12,6.800000000000001
2023-05-05 11-09-53-884794,0,160,1536,1459,-89.78,-110.005,6.21,2.92,-6.96,-23.18,39.21,158.14,6.82
2023-05-05 11-09-53-990904,0,160,1536,1459,-89.78,-110.005,6.22,2.94,-6.95,-23.15,39.18,158.15,6.850000000000001
2023-05-05 11-09-54-102573,0,160,1536,1459,-89.78,-110.005,6.19,2.9,-6.97,-23.08,39.13,158.17,6.920000000000002
2023-05-05 11-09-54-212836,0,160,1537,1458,-89.78,-110.005,6.21,2.91,-6.98,-23.01,39.07,158.2,6.989999999999998
2023-05-05 11-09-54-318844,0,160,1537,1458,-89.78,-110.005,6.17,2.88,-7.03,-22.9,38.98,158.25,7.100000000000001
2023-05-05 11-09-54-428242,0,160,1537,1458,-89.78,-110.005,6.17,2.89,-7.02,-22.82,38.92,158.29,7.18
2023-05-05 11-09-54-544206,0,160,1537,1458,-89.78,-110.005,6.19,2.89,-7.05,-22.76,38.86,158.32,7.239999999999998
2023-05-05 11-09-54-655902,0,160,1537,1458,-89.78,-110.005,6.17,2.9,-7.04,-22.74,38.84,158.32,7.260000000000002
2023-05-05 11-09-54-758477,0,160,1537,1458,-89.78,-110.005,6.17,2.9,-7.02,-22.76,38.86,158.31,7.239999999999998
2023-05-05 11-09-54-869271,0,160,1537,1458,-89.78,-110.005,6.18,2.9,-7.0,-22.81,38.9,158.29,7.190000000000001
2023-05-05 11-09-54-974068,0,160,1537,1458,-89.78,-110.005,6.16,2.88,-7.02,-22.86,38.95,158.28,7.140000000000001
2023-05-05 11-09-55-075866,0,160,1537,1458,-89.78,-110.005,6.21,2.89,-7.04,-22.93,39.01,158.25,7.07
2023-05-05 11-09-55-186487,0,160,1536,1459,-89.78,-110.005,6.2,2.9,-6.97,-23.02,39.07,158.21,6.98
2023-05-05 11-09-55-297253,0,160,1536,1459,-89.78,-110.005,6.19,2.92,-6.98,-23.05,39.11,158.2,6.949999999999999
2023-05-05 11-09-55-394534,0,160,1536,1459,-89.78,-110.005,6.17,2.92,-6.97,-23.1,39.14,158.18,6.899999999999999
2023-05-05 11-09-55-504421,0,160,1536,1459,-89.78,-110.005,6.2,2.92,-6.96,-23.11,39.17,158.17,6.890000000000001
2023-05-05 11-09-55-618540,0,160,1536,1459,-89.78,-110.005,6.21,2.94,-6.95,-23.15,39.2,158.15,6.850000000000001
2023-05-05 11-09-55-717396,0,160,1536,1459,-89.78,-110.005,6.2,2.92,-6.97,-23.16,39.2,158.15,6.84
2023-05-05 11-09-55-828753,0,160,1536,1459,-89.78,-110.005,6.18,2.94,-6.98,-23.15,39.21,158.15,6.850000000000001
2023-05-05 11-09-55-933074,0,160,1536,1459,-89.78,-110.005,6.21,2.92,-6.96,-23.14,39.2,158.16,6.859999999999999
2023-05-05 11-09-56-048589,0,160,1536,1459,-89.78,-110.005,6.22,2.93,-6.96,-23.16,39.21,158.14,6.84
2023-05-05 11-09-56-156612,0,160,1536,1459,-89.78,-110.005,6.18,2.94,-6.96,-23.15,39.2,158.14,6.850000000000001
2023-05-05 11-09-56-271631,0,160,1536,1459,-89.78,-110.005,6.21,2.91,-6.97,-23.14,39.18,158.15,6.859999999999999
2023-05-05 11-09-56-376727,0,160,1536,1459,-89.78,-110.005,6.2,2.93,-6.95,-23.09,39.15,158.16,6.91
2023-05-05 11-09-56-481984,0,160,1536,1459,-89.78,-110.005,6.18,2.91,-6.98,-23.02,39.08,158.18,6.98
2023-05-05 11-09-56-594562,0,160,1537,1458,-89.78,-110.005,6.15,2.91,-7.01,-22.95,39.02,158.22,7.050000000000001
2023-05-05 11-09-56-691905,0,160,1537,1458,-89.78,-110.005,6.18,2.92,-6.99,-22.92,38.99,158.23,7.079999999999998
2023-05-05 11-09-56-802253,0,160,1537,1458,-89.78,-110.005,6.18,2.9,-6.99,-22.93,38.99,158.23,7.07
2023-05-05 11-09-56-901154,0,160,1537,1458,-89.78,-110.005,6.17,2.94,-6.97,-22.94,39.0,158.22,7.059999999999999
2023-05-05 11-09-57-009946,0,160,1536,1459,-89.78,-110.005,6.18,2.92,-6.97,-23.01,39.04,158.19,6.989999999999998
2023-05-05 11-09-57-116375,0,160,1536,1459,-89.78,-110.005,6.2,2.93,-6.96,-23.07,39.09,158.16,6.93
2023-05-05 11-09-57-225040,0,160,1536,1459,-89.78,-110.005,6.21,2.93,-6.98,-23.13,39.17,158.13,6.870000000000001
2023-05-05 11-09-57-329657,0,160,1536,1459,-89.78,-110.005,6.22,2.95,-6.95,-23.19,39.22,158.09,6.809999999999999
2023-05-05 11-09-57-433433,0,160,1536,1459,-89.78,-110.005,6.21,2.94,-6.95,-23.21,39.25,158.07,6.789999999999999
2023-05-05 11-09-57-533156,0,160,1536,1459,-89.78,-110.005,6.24,2.93,-6.96,-23.24,39.29,158.05,6.760000000000002
2023-05-05 11-09-57-641783,0,160,1536,1459,-89.78,-110.005,6.21,2.93,-6.93,-23.28,39.33,158.04,6.719999999999999
2023-05-05 11-09-57-748399,0,160,1536,1459,-89.78,-110.005,6.25,2.94,-6.95,-23.3,39.35,158.01,6.699999999999999
2023-05-05 11-09-57-859864,0,160,1536,1459,-89.78,-110.005,6.22,2.98,-6.91,-23.33,39.37,158.0,6.670000000000002
2023-05-05 11-09-57-961347,0,160,1536,1459,-89.78,-110.005,6.24,2.95,-6.92,-23.36,39.38,157.99,6.640000000000001
2023-05-05 11-09-58-078080,0,160,1536,1459,-89.78,-110.005,6.26,2.96,-6.94,-23.37,39.39,158.0,6.629999999999999
2023-05-05 11-09-58-182735,0,160,1536,1459,-89.78,-110.093,6.24,2.95,-6.93,-23.37,39.39,158.0,6.629999999999999
2023-05-05 11-09-58-303522,0,160,1536,1459,-89.78,-110.005,6.23,2.94,-6.91,-23.38,39.41,157.99,6.620000000000001
2023-05-05 11-09-58-402288,0,160,1536,1459,-89.78,-110.005,6.25,2.95,-6.92,-23.38,39.4,157.99,6.620000000000001
2023-05-05 11-09-58-520706,0,160,1536,1459,-89.78,-110.005,6.21,2.93,-6.97,-23.33,39.36,158.01,6.670000000000002
2023-05-05 11-09-58-621854,0,160,1536,1459,-89.78,-110.005,6.21,2.93,-6.96,-23.28,39.31,158.02,6.719999999999999
2023-05-05 11-09-58-731412,0,160,1536,1459,-89.78,-110.005,6.23,2.93,-6.96,-23.22,39.26,158.04,6.780000000000001
2023-05-05 11-09-58-838978,0,160,1536,1459,-89.78,-110.005,6.21,2.93,-6.96,-23.18,39.22,158.05,6.82
2023-05-05 11-09-58-938758,0,160,1536,1459,-89.78,-110.005,6.2,2.96,-6.98,-23.16,39.2,158.07,6.84
2023-05-05 11-09-59-052641,0,160,1536,1459,-89.78,-110.005,6.22,2.92,-6.97,-23.2,39.25,158.04,6.800000000000001
2023-05-05 11-09-59-158681,0,160,1536,1459,-89.78,-110.005,6.22,2.94,-6.94,-23.28,39.3,158.0,6.719999999999999
2023-05-05 11-09-59-263319,0,160,1536,1459,-89.78,-110.005,6.22,2.94,-6.94,-23.35,39.37,157.96,6.649999999999999
2023-05-05 11-09-59-355477,0,160,1536,1459,-89.78,-110.005,6.25,2.94,-6.93,-23.42,39.44,157.92,6.579999999999998
2023-05-05 11-09-59-449637,0,160,1536,1459,-89.78,-110.005,6.27,2.96,-6.96,-23.48,39.51,157.9,6.52
2023-05-05 11-09-59-561845,0,160,1536,1459,-89.78,-110.005,6.28,2.97,-6.91,-23.61,39.6,157.84,6.390000000000001
2023-05-05 11-09-59-653095,0,160,1536,1459,-89.78,-110.005,6.29,2.97,-6.89,-23.71,39.68,157.78,6.289999999999999
2023-05-05 11-09-59-773779,0,160,1536,1459,-89.78,-110.005,6.28,2.98,-6.87,-23.82,39.77,157.73,6.18
2023-05-05 11-09-59-875532,0,160,1536,1459,-89.78,-110.005,6.3,2.99,-6.83,-23.9,39.85,157.69,6.100000000000001
2023-05-05 11-09-59-994272,0,160,1535,1460,-89.78,-110.005,6.3,3.0,-6.8,-24.0,39.94,157.63,6.0
2023-05-05 11-10-00-104941,0,160,1535,1460,-89.78,-110.005,6.3,3.0,-6.83,-24.07,40.01,157.59,5.93
2023-05-05 11-10-00-213905,0,160,1535,1460,-89.78,-110.005,6.34,3.02,-6.78,-24.14,40.06,157.54,5.859999999999999
2023-05-05 11-10-00-330575,0,160,1535,1460,-89.78,-110.005,6.33,3.03,-6.8,-24.06,39.99,157.57,5.940000000000001
2023-05-05 11-10-00-447030,0,160,1536,1459,-89.78,-110.005,6.29,3.02,-6.84,-23.88,39.84,157.63,6.120000000000001
2023-05-05 11-10-00-554923,0,160,1536,1459,-89.78,-110.005,6.27,2.98,-6.86,-23.63,39.62,157.74,6.370000000000001
2023-05-05 11-10-00-667904,0,160,1536,1459,-89.78,-110.005,6.24,2.95,-6.94,-23.34,39.37,157.86,6.66
2023-05-05 11-10-00-783447,0,160,1537,1458,-89.78,-110.005,6.21,2.93,-7.0,-23.05,39.11,157.99,6.949999999999999
2023-05-05 11-10-00-889734,0,160,1537,1458,-89.78,-110.005,6.19,2.9,-7.04,-22.82,38.91,158.09,7.18
2023-05-05 11-10-00-988715,0,160,1537,1458,-89.78,-110.005,6.16,2.9,-7.01,-22.7,38.78,158.16,7.300000000000001
2023-05-05 11-10-01-097811,0,160,1537,1458,-89.78,-110.005,6.14,2.9,-7.04,-22.61,38.7,158.21,7.390000000000001
